{"short_name":"107-C D14G-SBS","long_name":"Shivajinagara Bus Station ⇔ Depot-14 Gate","directions":[{"direction":"UP","headsign":"Shivajinagara Bus Station","path":[[13.02851,77.59372],[13.02801,77.59357],[13.02792,77.59359],[13.02766,77.59355],[13.02506,77.59304],[13.02495,77.59297],[13.02296,77.59266],[13.02232,77.59258],[13.02197,77.59253],[13.0212,77.5926],[13.02108,77.59262],[13.02101,77.59262],[13.02054,77.59257],[13.02029,77.5925],[13.01973,77.59242],[13.01919,77.59233],[13.01842,77.59214],[13.01802,77.59202],[13.0172,77.59179],[13.01669,77.59163],[13.01624,77.59146],[13.01603,77.59142],[13.0159,77.59142],[13.01578,77.59144],[13.01567,77.5915],[13.01561,77.59157],[13.01557,77.59165],[13.01548,77.59192],[13.01513,77.59254],[13.01507,77.59261],[13.01499,77.59267],[13.01482,77.59271],[13.01467,77.59278],[13.01443,77.59322],[13.01437,77.5933],[13.0142,77.59345],[13.01401,77.59355],[13.01386,77.59361],[13.0137,77.59364],[13.01324,77.59357],[13.01291,77.59357],[13.01265,77.59365],[13.01233,77.59382],[13.01194,77.59411],[13.01194,77.59355],[13.01188,77.59344],[13.01184,77.59343],[13.01181,77.5934],[13.0118,77.59336],[13.01183,77.59329],[13.01154,77.59285],[13.01055,77.59138],[13.01002,77.59063],[13.00929,77.59109],[13.00809,77.59187],[13.00666,77.59278],[13.00602,77.59314],[13.00561,77.59329],[13.00552,77.59331],[13.00524,77.59338],[13.0051,77.59341],[13.00496,77.59346],[13.0041,77.59374],[13.00328,77.59399],[13.00093,77.59475],[13.00001,77.595],[12.99766,77.59574],[12.99731,77.59583],[12.99656,77.59595],[12.99593,77.596],[12.99498,77.59618],[12.99482,77.59618],[12.99473,77.59616],[12.99464,77.59612],[12.99435,77.59595],[12.99424,77.59592],[12.9942,77.59594],[12.99405,77.5966],[12.99328,77.59813],[12.99323,77.59821],[12.99316,77.59828],[12.99309,77.59834],[12.99155,77.599],[12.99054,77.59955],[12.98955,77.59927],[12.98888,77.59903],[12.98763,77.59855],[12.98667,77.59825],[12.98527,77.59762],[12.98465,77.59736],[12.98442,77.59723],[12.98429,77.59737],[12.98409,77.59766],[12.98404,77.59782],[12.98403,77.59799],[12.98409,77.59835],[12.98415,77.59852],[12.98422,77.59901],[12.98454,77.60074],[12.98461,77.60116],[12.98464,77.60163],[12.98467,77.60166],[12.98468,77.60173],[12.98464,77.60178],[12.98456,77.60178],[12.98445,77.60213],[12.98415,77.60332],[12.9841,77.60345],[12.98397,77.60359],[12.98388,77.60361],[12.98312,77.60335],[12.98297,77.60332],[12.98287,77.60331],[12.98295,77.60297],[12.98328,77.60304]],"stops":[{"id":"36584","name":"Depot-14 Gate","lat":13.02844,"lon":77.5937,"sequence":1},{"id":"23786","name":"RT Nagara Police Station","lat":13.02424,"lon":77.59288,"sequence":2},{"id":"23787","name":"R T Nagara Post Office","lat":13.02201,"lon":77.59257,"sequence":3},{"id":"23788","name":"Rahamathnagara","lat":13.01755,"lon":77.59187,"sequence":4},{"id":"23789","name":"Matadahalli","lat":13.01366,"lon":77.59365,"sequence":5},{"id":"24172","name":"C Q A L","lat":13.01175,"lon":77.59331,"sequence":6},{"id":"23790","name":"TV Tower","lat":13.01002,"lon":77.5906,"sequence":7},{"id":"23791","name":"Munireddy Palya J C Nagara","lat":13.00676,"lon":77.59276,"sequence":8},{"id":"23792","name":"Jayamahal","lat":13.00182,"lon":77.59442,"sequence":9},{"id":"21805","name":"Cantonment Railway Station","lat":12.9937,"lon":77.59689,"sequence":10},{"id":"21868","name":"CSI Hospital","lat":12.98983,"lon":77.59938,"sequence":11},{"id":"20855","name":"Indian Express","lat":12.98408,"lon":77.59827,"sequence":12},{"id":"21173","name":"Shivajinagara Bus Station","lat":12.98328,"lon":77.60304,"sequence":13}]},{"direction":"DOWN","headsign":"Depot-14 Gate","path":[[12.98396,77.60323],[12.98417,77.60326],[12.98449,77.60196],[12.98456,77.60178],[12.98454,77.60175],[12.98453,77.60168],[12.98454,77.60165],[12.98457,77.60163],[12.98457,77.60122],[12.98454,77.60098],[12.98446,77.60056],[12.98432,77.59996],[12.98407,77.59862],[12.98397,77.59817],[12.98395,77.5979],[12.98401,77.5977],[12.98416,77.59745],[12.98426,77.59732],[12.98435,77.59723],[12.98447,77.59718],[12.98459,77.59706],[12.98496,77.59673],[12.98573,77.59601],[12.98623,77.59558],[12.98761,77.59447],[12.98793,77.59421],[12.98867,77.59367],[12.98917,77.59324],[12.98965,77.59276],[12.99,77.59294],[12.99011,77.59301],[12.99097,77.59365],[12.99181,77.59423],[12.99214,77.59449],[12.99308,77.59529],[12.99356,77.59574],[12.99396,77.59579],[12.9943,77.59569],[12.99472,77.59598],[12.99485,77.59602],[12.99578,77.5959],[12.99592,77.5959],[12.99604,77.59594],[12.99719,77.59578],[12.99797,77.59557],[12.99851,77.59538],[12.99998,77.59492],[13.00184,77.59439],[13.00451,77.59356],[13.00526,77.59335],[13.0055,77.59329],[13.00559,77.5933],[13.00618,77.59303],[13.00637,77.59292],[13.00653,77.59284],[13.00721,77.59241],[13.00736,77.59232],[13.00746,77.59225],[13.0091,77.59118],[13.00928,77.59107],[13.01,77.59059],[13.01029,77.59108],[13.01109,77.59228],[13.01138,77.5927],[13.01157,77.59296],[13.01173,77.59321],[13.01187,77.59337],[13.01191,77.59337],[13.01197,77.59341],[13.01198,77.59345],[13.01196,77.59349],[13.01197,77.59357],[13.01203,77.59366],[13.01214,77.59376],[13.01218,77.59378],[13.01235,77.5938],[13.01276,77.5936],[13.01293,77.59356],[13.01324,77.59357],[13.0137,77.59364],[13.01386,77.59361],[13.01401,77.59355],[13.0142,77.59345],[13.01442,77.59325],[13.01451,77.5931],[13.01463,77.59282],[13.01473,77.59274],[13.01501,77.59264],[13.01513,77.59252],[13.01547,77.59193],[13.01556,77.59161],[13.01563,77.59149],[13.01571,77.59143],[13.01585,77.59141],[13.01621,77.59146],[13.01622,77.59143],[13.01627,77.5914],[13.01632,77.59143],[13.01633,77.59146],[13.0163,77.59151],[13.01652,77.59158],[13.01727,77.59177],[13.01789,77.59196],[13.01886,77.59222],[13.01903,77.59228],[13.01935,77.59232],[13.01973,77.59235],[13.01993,77.59239],[13.02041,77.59243],[13.02073,77.59249],[13.02096,77.59252],[13.02152,77.59256],[13.02223,77.59253],[13.02238,77.59254],[13.02305,77.59263],[13.02404,77.59282],[13.02495,77.59297],[13.02507,77.59295],[13.02644,77.59322],[13.02731,77.59337],[13.02794,77.59351],[13.02801,77.59357],[13.02844,77.5937]],"stops":[{"id":"21172","name":"Shivajinagara Bus Station","lat":12.98396,"lon":77.60323,"sequence":1},{"id":"22068","name":"Indian Express","lat":12.98421,"lon":77.59735,"sequence":2},{"id":"21869","name":"Cunningham Road","lat":12.98788,"lon":77.59423,"sequence":3},{"id":"22585","name":"Vasantha Nagara","lat":12.99278,"lon":77.59503,"sequence":4},{"id":"24018","name":"Jayamahal","lat":13.00034,"lon":77.59478,"sequence":5},{"id":"24019","name":"Munireddy Palya J C Nagara","lat":13.00413,"lon":77.59359,"sequence":6},{"id":"24020","name":"TV Tower","lat":13.00999,"lon":77.59058,"sequence":7},{"id":"23341","name":"C‌ Q A L","lat":13.0118,"lon":77.59321,"sequence":8},{"id":"23342","name":"Matadahalli","lat":13.01364,"lon":77.59362,"sequence":9},{"id":"23343","name":"Rahamathnagara","lat":13.01751,"lon":77.5918,"sequence":10},{"id":"23344","name":"R T Nagara Post Office","lat":13.02197,"lon":77.59251,"sequence":11},{"id":"21096","name":"RT Nagara Police Station","lat":13.02566,"lon":77.59301,"sequence":12},{"id":"36584","name":"Depot-14 Gate","lat":13.02844,"lon":77.5937,"sequence":13}]}]}