{"short_name":"119","long_name":"Marappa Garden ⇔ Shivajinagara Bus Station","directions":[{"direction":"UP","headsign":"Marappa Garden","path":[[12.98397,77.60328],[12.9842,77.60327],[12.98422,77.60321],[12.98436,77.60263],[12.9845,77.60196],[12.98456,77.60178],[12.98454,77.60175],[12.98453,77.60168],[12.98454,77.60165],[12.98457,77.60163],[12.98455,77.60121],[12.98451,77.60091],[12.98398,77.59808],[12.98397,77.59787],[12.98398,77.59778],[12.98403,77.59764],[12.98411,77.5975],[12.98431,77.59726],[12.98445,77.59717],[12.98451,77.59715],[12.98469,77.59697],[12.98518,77.59653],[12.98533,77.59637],[12.98575,77.59605],[12.98684,77.59506],[12.98739,77.5947],[12.98799,77.59425],[12.9887,77.5937],[12.98907,77.59339],[12.98969,77.59283],[12.99023,77.59312],[12.99099,77.59368],[12.99165,77.5941],[12.99212,77.59447],[12.99269,77.59497],[12.99323,77.59541],[12.99347,77.5956],[12.99365,77.59578],[12.99396,77.59579],[12.99462,77.59617],[12.99477,77.59627],[12.99482,77.59633],[12.99486,77.59649],[12.99485,77.5966],[12.99477,77.5969],[12.99473,77.59701],[12.99472,77.5971],[12.99476,77.5973],[12.99523,77.59869],[12.99545,77.59966],[12.9957,77.60033],[12.99574,77.60049],[12.99575,77.60069],[12.99573,77.60084],[12.99563,77.60125],[12.99551,77.60193],[12.99571,77.6019],[12.99609,77.60169],[12.99629,77.60157],[12.99701,77.60124],[12.99772,77.60089],[12.99809,77.60071],[12.99871,77.60035],[12.9992,77.60009],[12.99964,77.59983],[12.99992,77.59974],[13.00065,77.59962],[13.00115,77.59949],[13.00149,77.60064],[13.00155,77.60094],[13.00155,77.60113],[13.00137,77.60208],[13.00136,77.60218],[13.00137,77.60229],[13.00146,77.60243],[13.00167,77.60261],[13.00271,77.6033],[13.0031,77.6036],[13.00325,77.60328],[13.00379,77.60236],[13.00413,77.60169],[13.00436,77.60116],[13.00443,77.60093],[13.00461,77.60013],[13.0047,77.59988],[13.00436,77.59973]],"stops":[{"id":"21172","name":"Shivajinagara Bus Station","lat":12.98396,"lon":77.60323,"sequence":1},{"id":"22068","name":"Indian Express","lat":12.98421,"lon":77.59735,"sequence":2},{"id":"21869","name":"Cunningham Road","lat":12.98788,"lon":77.59423,"sequence":3},{"id":"22585","name":"Vasantha Nagara","lat":12.99278,"lon":77.59503,"sequence":4},{"id":"32206","name":"Cantonment Railway Station","lat":12.99475,"lon":77.59711,"sequence":5},{"id":"32204","name":"Canara Bank Millers Road","lat":12.99556,"lon":77.60172,"sequence":6},{"id":"22847","name":"YMC Nandhidurga Road","lat":12.99585,"lon":77.60181,"sequence":7},{"id":"34091","name":"Nandidurga Road","lat":13.00068,"lon":77.59952,"sequence":8},{"id":"32333","name":"Chinnappa Garden","lat":13.0031,"lon":77.60353,"sequence":9},{"id":"28802","name":"Marappa Garden","lat":13.00439,"lon":77.59974,"sequence":10}]},{"direction":"DOWN","headsign":"Shivajinagara Bus Station","path":[[13.00436,77.59973],[13.0047,77.59988],[13.00461,77.60013],[13.00443,77.60093],[13.00436,77.60116],[13.00413,77.60169],[13.00379,77.60236],[13.00325,77.60328],[13.0031,77.6036],[13.00271,77.6033],[13.00167,77.60261],[13.00146,77.60243],[13.00137,77.60229],[13.00136,77.60224],[13.00137,77.60208],[13.00155,77.60113],[13.00155,77.60094],[13.00149,77.60064],[13.00115,77.59949],[13.000752,77.5996],[13.00023,77.59969],[13.00004,77.59971],[12.99976,77.59978],[12.99964,77.59983],[12.9992,77.60009],[12.99871,77.60035],[12.99809,77.60071],[12.99701,77.60124],[12.99629,77.60157],[12.99609,77.60169],[12.99571,77.6019],[12.99551,77.60193],[12.99545,77.60192],[12.99558,77.60124],[12.99569,77.60075],[12.9957,77.60059],[12.99568,77.60047],[12.99565,77.60036],[12.99553,77.60006],[12.99534,77.5995],[12.99518,77.59872],[12.99463,77.59716],[12.99464,77.59704],[12.99475,77.59677],[12.99478,77.59649],[12.99477,77.59642],[12.99475,77.59636],[12.99471,77.59631],[12.99459,77.59622],[12.99448,77.59617],[12.99438,77.59616],[12.99434,77.59618],[12.99405,77.5966],[12.99354,77.59771],[12.99337,77.59804],[12.99331,77.59813],[12.99325,77.5982],[12.99294,77.5984],[12.99289,77.59846],[12.99284,77.59855],[12.99274,77.5988],[12.99229,77.60004],[12.99053,77.59957],[12.98944,77.59921],[12.98897,77.59904],[12.98875,77.59897],[12.98693,77.59831],[12.98667,77.59821],[12.986,77.59796],[12.98526,77.59763],[12.98466,77.59733],[12.98453,77.5973],[12.98444,77.59725],[12.98429,77.59737],[12.98409,77.59766],[12.98404,77.59782],[12.98403,77.59799],[12.98405,77.59816],[12.9842,77.59883],[12.98422,77.59901],[12.98454,77.60074],[12.98461,77.60118],[12.98464,77.60163],[12.98467,77.60166],[12.98468,77.60173],[12.98464,77.60178],[12.98456,77.60178],[12.9845,77.60196],[12.98425,77.6031],[12.98416,77.60343],[12.98409,77.60354],[12.98388,77.60361],[12.98379,77.60359],[12.98362,77.60352],[12.98297,77.60333],[12.98287,77.60332],[12.98295,77.60297],[12.98328,77.60304]],"stops":[{"id":"28802","name":"Marappa Garden","lat":13.00439,"lon":77.59974,"sequence":1},{"id":"32332","name":"Chinnappa Garden","lat":13.00302,"lon":77.60354,"sequence":2},{"id":"34092","name":"Nandidurga Road","lat":13.00075,"lon":77.59959,"sequence":3},{"id":"22846","name":"YMC Nandhidurga Road","lat":12.99596,"lon":77.60178,"sequence":4},{"id":"30350","name":"Canara Bank Millers Road","lat":12.99549,"lon":77.60169,"sequence":5},{"id":"21805","name":"Cantonment Railway Station","lat":12.9937,"lon":77.59689,"sequence":6},{"id":"21868","name":"CSI Hospital","lat":12.98983,"lon":77.59938,"sequence":7},{"id":"20855","name":"Indian Express","lat":12.98408,"lon":77.59827,"sequence":8},{"id":"21173","name":"Shivajinagara Bus Station","lat":12.98328,"lon":77.60304,"sequence":9}]}]}