{"short_name":"129","long_name":"Shivajinagara Bus Station ⇔ Kempegowda Bus Station","directions":[{"direction":"UP","headsign":"Shivajinagara Bus Station","path":[[12.97751,77.57141],[12.97749,77.57098],[12.97932,77.57111],[12.97956,77.57116],[12.97954,77.57115],[12.97978,77.57133],[12.97998,77.57152],[12.98025,77.57191],[12.98031,77.57223],[12.98036,77.57259],[12.98035,77.57268],[12.98036,77.57276],[12.98052,77.57336],[12.98058,77.57368],[12.98065,77.57429],[12.98068,77.57474],[12.98068,77.57552],[12.98057,77.57769],[12.98047,77.57895],[12.9804,77.5802],[12.9803,77.58072],[12.98023,77.58093],[12.98003,77.58139],[12.97965,77.58197],[12.97884,77.58312],[12.97786,77.58465],[12.97684,77.58605],[12.97601,77.58713],[12.97601,77.58721],[12.97597,77.5873],[12.97608,77.58761],[12.97741,77.59021],[12.97751,77.59037],[12.97772,77.59062],[12.97856,77.59144],[12.9787,77.59158],[12.97973,77.59256],[12.98186,77.59464],[12.98213,77.59484],[12.98293,77.5955],[12.98326,77.5958],[12.98343,77.59601],[12.98382,77.59655],[12.98412,77.59689],[12.9844,77.59705],[12.98451,77.59706],[12.98442,77.59723],[12.98429,77.59737],[12.98409,77.59766],[12.98404,77.59782],[12.98403,77.59799],[12.98409,77.59835],[12.98415,77.59852],[12.98422,77.59901],[12.98454,77.60074],[12.98461,77.60116],[12.98464,77.60163],[12.98467,77.60166],[12.98468,77.60173],[12.98464,77.60178],[12.98456,77.60178],[12.98445,77.60213],[12.98415,77.60332],[12.9841,77.60345],[12.98397,77.60359],[12.98388,77.60361],[12.98312,77.60335],[12.98297,77.60332],[12.98287,77.60331],[12.98295,77.60297],[12.98328,77.60304]],"stops":[{"id":"20921","name":"Kempegowda Bus Station","lat":12.97751,"lon":77.57141,"sequence":1},{"id":"20981","name":"Maharani College","lat":12.97703,"lon":77.5858,"sequence":2},{"id":"21259","name":"Vidhana Soudha Karnataka High Court","lat":12.9802,"lon":77.59296,"sequence":3},{"id":"21525","name":"GPO","lat":12.98136,"lon":77.59408,"sequence":4},{"id":"20855","name":"Indian Express","lat":12.98408,"lon":77.59827,"sequence":5},{"id":"21173","name":"Shivajinagara Bus Station","lat":12.98328,"lon":77.60304,"sequence":6}]},{"direction":"DOWN","headsign":"Kempegowda Bus Station","path":[[12.98391,77.60327],[12.9842,77.60327],[12.98425,77.6031],[12.98436,77.60263],[12.9845,77.60196],[12.98456,77.60178],[12.98454,77.60175],[12.98453,77.60171],[12.98454,77.60165],[12.98457,77.60163],[12.98455,77.60121],[12.98451,77.60091],[12.98397,77.59799],[12.98398,77.59778],[12.98403,77.59764],[12.98411,77.5975],[12.98423,77.59734],[12.98431,77.59726],[12.98437,77.59721],[12.98416,77.59707],[12.98398,77.59689],[12.98346,77.59621],[12.98322,77.59593],[12.98287,77.59562],[12.98181,77.5948],[12.98153,77.59452],[12.98099,77.594],[12.98036,77.59336],[12.97847,77.59155],[12.97786,77.59095],[12.97769,77.59081],[12.97754,77.59063],[12.97731,77.59029],[12.97656,77.58875],[12.97618,77.58802],[12.97593,77.58764],[12.9758,77.58735],[12.97575,77.58733],[12.97569,77.58725],[12.97568,77.58716],[12.97573,77.58705],[12.97581,77.58701],[12.97591,77.58702],[12.97594,77.58704],[12.97665,77.58612],[12.97724,77.58529],[12.97763,77.58478],[12.9778,77.58452],[12.97773,77.58444],[12.97754,77.5843],[12.97717,77.58408],[12.9771,77.58402],[12.97703,77.58393],[12.97684,77.5838],[12.97509,77.58249],[12.97383,77.58164],[12.97339,77.58133],[12.97332,77.58126],[12.97327,77.58118],[12.97302,77.58109],[12.97361,77.57979],[12.97397,77.57895],[12.97437,77.57808],[12.97476,77.57712],[12.97485,77.57696],[12.97492,77.57691],[12.97508,77.57668],[12.97536,77.57611],[12.9754,77.57597],[12.97554,77.57464],[12.9759,77.57469],[12.97635,77.57469],[12.97676,77.57457],[12.97703,77.57446],[12.97713,77.5744],[12.97746,77.57409],[12.97749,77.57327]],"stops":[{"id":"21172","name":"Shivajinagara Bus Station","lat":12.98396,"lon":77.60323,"sequence":1},{"id":"35138","name":"Indian Express","lat":12.98362,"lon":77.59646,"sequence":2},{"id":"20799","name":"GPO","lat":12.98137,"lon":77.59436,"sequence":3},{"id":"21258","name":"Vidhana Soudha Karnataka High Court","lat":12.97821,"lon":77.59135,"sequence":4},{"id":"38026","name":"MS Building","lat":12.97677,"lon":77.58922,"sequence":5},{"id":"20983","name":"Maharani College","lat":12.97697,"lon":77.58567,"sequence":6},{"id":"20697","name":"Cauvery Bhavana","lat":12.97372,"lon":77.58157,"sequence":7},{"id":"20922","name":"Kempegowda Bus Station","lat":12.97749,"lon":77.57327,"sequence":8}]}]}