{"short_name":"129 KBS-CMS","long_name":"Cubbon Park Metro Station ⇔ Kempegowda Bus Station","directions":[{"direction":"DOWN","headsign":"Kempegowda Bus Station","path":[[12.98064,77.59839],[12.97931,77.60247],[12.97957,77.60254],[12.98015,77.60271],[12.98192,77.60331],[12.9822,77.60342],[12.98235,77.60339],[12.98271,77.60326],[12.98278,77.60324],[12.98281,77.60325],[12.98295,77.60297],[12.98391,77.60327],[12.9842,77.60327],[12.98425,77.6031],[12.98436,77.60263],[12.9845,77.60196],[12.98456,77.60178],[12.98454,77.60175],[12.98453,77.60168],[12.98454,77.60165],[12.98457,77.60163],[12.98455,77.60121],[12.98451,77.60091],[12.98412,77.59878],[12.984,77.5982],[12.98397,77.59799],[12.98397,77.59787],[12.984,77.59771],[12.98411,77.5975],[12.98423,77.59734],[12.98431,77.59726],[12.98437,77.59721],[12.98416,77.59707],[12.98398,77.59689],[12.98346,77.59621],[12.98322,77.59593],[12.98287,77.59562],[12.98181,77.5948],[12.98153,77.59452],[12.98099,77.594],[12.98036,77.59336],[12.97847,77.59155],[12.97786,77.59095],[12.97769,77.59081],[12.97754,77.59063],[12.97731,77.59029],[12.97656,77.58875],[12.97618,77.58802],[12.97593,77.58764],[12.9758,77.58735],[12.97575,77.58733],[12.97569,77.58725],[12.97568,77.58716],[12.97573,77.58705],[12.97581,77.58701],[12.97591,77.58702],[12.97594,77.58704],[12.97665,77.58612],[12.97724,77.58529],[12.97763,77.58478],[12.9778,77.58452],[12.97773,77.58444],[12.97754,77.5843],[12.97717,77.58408],[12.9771,77.58402],[12.97703,77.58393],[12.97684,77.5838],[12.97509,77.58249],[12.97383,77.58164],[12.97339,77.58133],[12.97332,77.58126],[12.97327,77.58118],[12.97302,77.58109],[12.97361,77.57979],[12.97397,77.57895],[12.97437,77.57808],[12.97476,77.57712],[12.97485,77.57696],[12.97492,77.57691],[12.97508,77.57668],[12.97536,77.57611],[12.9754,77.57597],[12.97554,77.57464],[12.9759,77.57469],[12.97635,77.57469],[12.97676,77.57457],[12.97703,77.57446],[12.97713,77.5744],[12.97746,77.57409],[12.97749,77.57327]],"stops":[{"id":"37694","name":"Cubbon Park Metro Station","lat":12.98068,"lon":77.59835,"sequence":1},{"id":"21172","name":"Shivajinagara Bus Station","lat":12.98396,"lon":77.60323,"sequence":2},{"id":"35138","name":"Indian Express","lat":12.98362,"lon":77.59646,"sequence":3},{"id":"21258","name":"Vidhana Soudha Karnataka High Court","lat":12.97821,"lon":77.59135,"sequence":4},{"id":"38026","name":"MS Building","lat":12.97677,"lon":77.58922,"sequence":5},{"id":"20983","name":"Maharani College","lat":12.97697,"lon":77.58567,"sequence":6},{"id":"20697","name":"Cauvery Bhavana","lat":12.97372,"lon":77.58157,"sequence":7},{"id":"20922","name":"Kempegowda Bus Station","lat":12.97749,"lon":77.57327,"sequence":8}]}]}