{"short_name":"138 JBN-HALNP","long_name":"Jeevanbheema Nagara ⇔ HAL New Public School","directions":[{"direction":"UP","headsign":"HAL New Public School","path":[[12.965763,77.657616],[12.96635,77.65775],[12.96656,77.65771],[12.96727,77.65783],[12.96716,77.65884],[12.96704,77.6596],[12.96707,77.65961],[12.9671,77.65966],[12.96708,77.65971],[12.96705,77.65973],[12.96687,77.66111],[12.96686,77.66139],[12.96687,77.66163],[12.96587,77.66231],[12.96502,77.66292],[12.96298,77.66429],[12.9618,77.66505],[12.96163,77.66518],[12.96138,77.66542],[12.96099,77.66576],[12.9605,77.66613],[12.96037,77.66621],[12.96034,77.66652],[12.96032,77.66809],[12.95947,77.66808],[12.95912,77.66811],[12.95896,77.66811],[12.95835,77.66806],[12.95828,77.6681],[12.95822,77.66816],[12.95796,77.67193],[12.95786,77.67266],[12.95777,77.67302],[12.95764,77.6734],[12.95727,77.67429],[12.95687,77.67514],[12.95581,77.67731],[12.95462,77.67994],[12.9548,77.67995],[12.95496,77.67993],[12.95613,77.67969],[12.95646,77.67969],[12.95658,77.67971],[12.95673,77.67976],[12.95726,77.67998],[12.95772,77.6802],[12.95786,77.6803],[12.95801,77.68046],[12.95814,77.68065],[12.95835,77.68091],[12.95851,77.681],[12.95863,77.68103],[12.95879,77.68103],[12.95939,77.68099],[12.95973,77.68098],[12.95995,77.681],[12.96017,77.68109],[12.96058,77.68133],[12.96082,77.6814],[12.96141,77.68151],[12.96133,77.6816],[12.96128,77.68163],[12.96045,77.6818],[12.95902,77.68196],[12.95867,77.682],[12.95827,77.68208],[12.95792,77.68211],[12.95759,77.68208],[12.95727,77.68209],[12.956787,77.68214]],"stops":[{"id":"26321","name":"Jeevanbheema Nagara","lat":12.96576,"lon":77.65763,"sequence":1},{"id":"33126","name":"Jeevanbheema Nagara Cross","lat":12.96686,"lon":77.66166,"sequence":2},{"id":"22003","name":"HAL Main Gate","lat":12.95821,"lon":77.66821,"sequence":3},{"id":"39489","name":"HAL Admin Gate","lat":12.95813,"lon":77.66949,"sequence":4},{"id":"22021","name":"Helicopter Division","lat":12.95582,"lon":77.67735,"sequence":5},{"id":"37770","name":"Ramesh Nagara Cross","lat":12.95467,"lon":77.67995,"sequence":6},{"id":"32819","name":"HAL New Public School","lat":12.95679,"lon":77.68215,"sequence":7}]}]}