{"short_name":"139","long_name":"Jeevanbheema Nagara ⇔ Shivajinagara Bus Station","directions":[{"direction":"UP","headsign":"Jeevanbheema Nagara","path":[[12.98396,77.60323],[12.9842,77.60327],[12.98422,77.60321],[12.98419,77.6032],[12.98449,77.60196],[12.98456,77.60178],[12.98454,77.60175],[12.98453,77.60168],[12.98454,77.60165],[12.98457,77.60163],[12.98457,77.60122],[12.98454,77.60098],[12.98446,77.60056],[12.98432,77.59996],[12.98407,77.59862],[12.98397,77.59817],[12.98395,77.5979],[12.98401,77.5977],[12.98392,77.59752],[12.98369,77.59716],[12.9827,77.59714],[12.98236,77.59828],[12.98156,77.60072],[12.98132,77.60135],[12.98113,77.60191],[12.98073,77.60296],[12.98043,77.60388],[12.98024,77.60441],[12.98009,77.60477],[12.97983,77.6055],[12.97951,77.60644],[12.9793,77.60711],[12.97923,77.60712],[12.97916,77.6071],[12.97814,77.60679],[12.97786,77.60687],[12.97721,77.60888],[12.97617,77.61188],[12.97537,77.61436],[12.97527,77.61451],[12.97424,77.61417],[12.97378,77.614],[12.97369,77.61434],[12.97324,77.61636],[12.97277,77.61806],[12.97267,77.61856],[12.97265,77.61897],[12.97271,77.61985],[12.97272,77.62063],[12.97274,77.62084],[12.97279,77.62108],[12.97284,77.6213],[12.97301,77.62176],[12.97341,77.62255],[12.97363,77.62295],[12.97397,77.62355],[12.97463,77.62453],[12.97503,77.62519],[12.97518,77.62537],[12.97526,77.62548],[12.97545,77.62583],[12.97558,77.62598],[12.97618,77.62638],[12.97641,77.62655],[12.9772,77.62717],[12.97737,77.62729],[12.97754,77.62744],[12.97764,77.62761],[12.97779,77.62794],[12.97798,77.62827],[12.97814,77.62843],[12.97834,77.62859],[12.97838,77.62865],[12.97847,77.62887],[12.9785,77.62933],[12.97849,77.62962],[12.97839,77.63013],[12.97836,77.63089],[12.97828,77.63186],[12.97818,77.63262],[12.97817,77.63287],[12.97822,77.63335],[12.97825,77.63492],[12.9783,77.63585],[12.97831,77.63616],[12.97829,77.63676],[12.97839,77.63936],[12.9784,77.64081],[12.97852,77.64257],[12.97855,77.64397],[12.97864,77.64615],[12.97862,77.6465],[12.97857,77.64665],[12.97739,77.6467],[12.97431,77.64692],[12.97422,77.64692],[12.97406,77.64688],[12.97371,77.646904],[12.9727,77.64694],[12.97201,77.64706],[12.97096,77.64729],[12.96888,77.64772],[12.96879,77.6484],[12.9685,77.65013],[12.96835,77.65079],[12.96805,77.65188],[12.96798,77.65226],[12.96778,77.65379],[12.9677,77.6543],[12.96725,77.65783],[12.96656,77.65771],[12.96635,77.65775],[12.965763,77.657616]],"stops":[{"id":"21172","name":"Shivajinagara Bus Station","lat":12.98396,"lon":77.60323,"sequence":1},{"id":"20857","name":"Indian Express","lat":12.98393,"lon":77.5974,"sequence":2},{"id":"22253","name":"Maniksha Parade Ground","lat":12.97773,"lon":77.60747,"sequence":3},{"id":"22256","name":"Manipal Centre MG Road","lat":12.97571,"lon":77.61358,"sequence":4},{"id":"22226","name":"Lido Talkies","lat":12.97277,"lon":77.62074,"sequence":5},{"id":"22006","name":"Halasuru Police Station","lat":12.97516,"lon":77.62544,"sequence":6},{"id":"22005","name":"Halasuru","lat":12.97859,"lon":77.62923,"sequence":7},{"id":"22222","name":"Lakshmipura","lat":12.97827,"lon":77.63218,"sequence":8},{"id":"21921","name":"Double Road Indiranagara","lat":12.97843,"lon":77.63654,"sequence":9},{"id":"33037","name":"Indiranagara Metro Station","lat":12.97849,"lon":77.63848,"sequence":10},{"id":"22390","name":"Indiranagara Police Station/KFC","lat":12.97849,"lon":77.6412,"sequence":11},{"id":"21855","name":"CMH Hospital","lat":12.97861,"lon":77.64648,"sequence":12},{"id":"22548","name":"Thippasandra","lat":12.97371,"lon":77.6469,"sequence":13},{"id":"31156","name":"Kodihalli","lat":12.96857,"lon":77.64962,"sequence":14},{"id":"27670","name":"Jeevan bhima nagar Petrol Bunk","lat":12.9675,"lon":77.65613,"sequence":15},{"id":"26321","name":"Jeevanbheema Nagara","lat":12.96576,"lon":77.65763,"sequence":16}]},{"direction":"DOWN","headsign":"Shivajinagara Bus Station","path":[[12.96574,77.65761],[12.96635,77.65775],[12.96656,77.65771],[12.96727,77.65786],[12.96735,77.65721],[12.96752,77.65606],[12.96779,77.6538],[12.96795,77.65277],[12.96801,77.65226],[12.96817,77.65144],[12.9684,77.65062],[12.96851,77.65014],[12.96877,77.64876],[12.96886,77.64812],[12.9689,77.64771],[12.9698,77.64751],[12.97269,77.64698],[12.9728,77.64697],[12.97408,77.64686],[12.97429,77.6468],[12.97496,77.64673],[12.9758,77.64669],[12.97648,77.64664],[12.97756,77.6466],[12.97797,77.64657],[12.97852,77.64654],[12.97852,77.64593],[12.97844,77.6442],[12.97834,77.64072],[12.97831,77.64027],[12.97827,77.63908],[12.9782,77.63672],[12.97821,77.6361],[12.9782,77.63567],[12.97816,77.6349],[12.97811,77.63341],[12.97811,77.63239],[12.97819,77.63138],[12.97821,77.63123],[12.97827,77.63031],[12.97836,77.62957],[12.97836,77.62913],[12.97835,77.62904],[12.97831,77.62887],[12.97827,77.62879],[12.9781,77.62856],[12.97782,77.62813],[12.9776,77.62765],[12.97743,77.62744],[12.97736,77.62737],[12.977,77.6271],[12.97648,77.62681],[12.97604,77.6265],[12.97555,77.62608],[12.97533,77.62585],[12.975164,77.62563],[12.97413,77.62399],[12.9735,77.62298],[12.97331,77.62264],[12.97295,77.62178],[12.97275,77.62117],[12.97269,77.62092],[12.97262,77.62025],[12.97271,77.6202],[12.97278,77.62015],[12.97299,77.62005],[12.9733,77.62006],[12.97341,77.62006],[12.97352,77.62005],[12.97427,77.62005],[12.97472,77.62009],[12.97479,77.61959],[12.97489,77.61913],[12.97502,77.61866],[12.97561,77.61682],[12.97575,77.61646],[12.97625,77.61504],[12.97633,77.61478],[12.97551,77.61454],[12.9753,77.61446],[12.97529,77.61433],[12.97559,77.61335],[12.9758,77.61273],[12.97604,77.61198],[12.97708,77.60891],[12.97721,77.60855],[12.97749,77.60762],[12.9778,77.60666],[12.97839,77.60492],[12.9789,77.60333],[12.97922,77.6024],[12.97931,77.60247],[12.97957,77.60254],[12.98014,77.60273],[12.98074,77.60295],[12.98193,77.60334],[12.98206,77.6034],[12.98217,77.60347],[12.98225,77.60341],[12.98249,77.60332],[12.98281,77.60325],[12.98295,77.60297],[12.98328,77.60304]],"stops":[{"id":"26321","name":"Jeevanbheema Nagara","lat":12.96576,"lon":77.65763,"sequence":1},{"id":"35941","name":"JBN Petrol Bunk","lat":12.96739,"lon":77.65645,"sequence":2},{"id":"22180","name":"Kodihalli","lat":12.96851,"lon":77.64976,"sequence":3},{"id":"22549","name":"Thippasandra","lat":12.97361,"lon":77.64689,"sequence":4},{"id":"24707","name":"CMH Hospital","lat":12.97849,"lon":77.64655,"sequence":5},{"id":"22388","name":"Indiranagara Police Station/KFC","lat":12.97833,"lon":77.64065,"sequence":6},{"id":"26134","name":"Indiranagara Metro Station","lat":12.97826,"lon":77.6386,"sequence":7},{"id":"21922","name":"Double Road Indiranagara","lat":12.97821,"lon":77.63645,"sequence":8},{"id":"22223","name":"Lakshmipura","lat":12.97816,"lon":77.63228,"sequence":9},{"id":"20806","name":"Halasuru","lat":12.97793,"lon":77.6283,"sequence":10},{"id":"20807","name":"Halasuru Police Station","lat":12.97515,"lon":77.62564,"sequence":11},{"id":"20969","name":"Lido Talkies","lat":12.97277,"lon":77.62141,"sequence":12},{"id":"22255","name":"Manipal Centre MG Road","lat":12.97552,"lon":77.61356,"sequence":13},{"id":"22252","name":"Maniksha Parade Ground","lat":12.97746,"lon":77.60771,"sequence":14},{"id":"21785","name":"BRV Talkies Cubbon Road","lat":12.97911,"lon":77.60273,"sequence":15},{"id":"21173","name":"Shivajinagara Bus Station","lat":12.98328,"lon":77.60304,"sequence":16}]}]}