{"short_name":"139 VSD-JBN","long_name":"Vidhana Soudha Karnataka High Court ⇔ Jeevanbheema Nagara","directions":[{"direction":"UP","headsign":"Jeevanbheema Nagara","path":[[12.980178,77.59299],[12.98086,77.59362],[12.98187,77.5946],[12.98322,77.59576],[12.98405,77.59681],[12.98421,77.59696],[12.9844,77.5971],[12.98447,77.59718],[12.98432,77.59713],[12.98422,77.59707],[12.98401,77.59715],[12.98391,77.59717],[12.98315,77.59714],[12.9827,77.59714],[12.98155,77.59707],[12.98123,77.59714],[12.98095,77.59733],[12.98092,77.59753],[12.98062,77.59838],[12.97981,77.60088],[12.97931,77.60247],[12.97796,77.60657],[12.97728,77.60868],[12.97617,77.61188],[12.97537,77.61436],[12.97527,77.61451],[12.97471,77.61432],[12.97437,77.61421],[12.97378,77.614],[12.97369,77.61434],[12.97324,77.61636],[12.97311,77.61686],[12.97282,77.61787],[12.97269,77.61843],[12.97265,77.61881],[12.97274,77.62063],[12.9728,77.62108],[12.97285,77.6213],[12.97291,77.62151],[12.97301,77.62176],[12.97314,77.62203],[12.97341,77.62255],[12.97397,77.62355],[12.9747,77.62464],[12.97503,77.62519],[12.97545,77.62583],[12.97558,77.62598],[12.97618,77.62638],[12.9772,77.62717],[12.97737,77.62729],[12.97754,77.62744],[12.9777,77.62761],[12.97819,77.62833],[12.97835,77.6286],[12.97845,77.62881],[12.97854,77.62916],[12.97855,77.62931],[12.97854,77.62961],[12.97828,77.63214],[12.97824,77.63262],[12.97823,77.63308],[12.97836,77.63585],[12.97839,77.63617],[12.97838,77.63664],[12.9784,77.63677],[12.978452,77.63848],[12.97846,77.63908],[12.97845,77.63982],[12.97848,77.64026],[12.97848,77.64061],[12.97847,77.64073],[12.97848,77.64093],[12.97843,77.64154],[12.97845,77.64259],[12.97855,77.64539],[12.97864,77.64656],[12.97861,77.64665],[12.97819,77.64669],[12.97622,77.64679],[12.97416,77.64692],[12.97403,77.6469],[12.9735,77.64693],[12.97308,77.64694],[12.9727,77.64698],[12.97201,77.64712],[12.97096,77.64729],[12.96888,77.64772],[12.96887,77.64802],[12.96878,77.64874],[12.96863,77.64956],[12.96843,77.65045],[12.96815,77.65156],[12.968,77.65225],[12.96792,77.65271],[12.96779,77.6537],[12.9677,77.65456],[12.96747,77.65606],[12.96727,77.65783],[12.96656,77.65771],[12.96636,77.65769],[12.965762,77.657616]],"stops":[{"id":"21259","name":"Vidhana Soudha Karnataka High Court","lat":12.9802,"lon":77.59296,"sequence":1},{"id":"21525","name":"GPO","lat":12.98136,"lon":77.59408,"sequence":2},{"id":"26121","name":"Indian Express","lat":12.98387,"lon":77.59645,"sequence":3},{"id":"30209","name":"BRV Talkies Cubbon Road","lat":12.97941,"lon":77.60223,"sequence":4},{"id":"22253","name":"Maniksha Parade Ground","lat":12.97773,"lon":77.60747,"sequence":5},{"id":"22256","name":"Manipal Centre MG Road","lat":12.97571,"lon":77.61358,"sequence":6},{"id":"22226","name":"Lido Talkies","lat":12.97277,"lon":77.62074,"sequence":7},{"id":"22006","name":"Halasuru Police Station","lat":12.97516,"lon":77.62544,"sequence":8},{"id":"22005","name":"Halasuru","lat":12.97859,"lon":77.62923,"sequence":9},{"id":"22222","name":"Lakshmipura","lat":12.97827,"lon":77.63218,"sequence":10},{"id":"21921","name":"Double Road Indiranagara","lat":12.97843,"lon":77.63654,"sequence":11},{"id":"33037","name":"Indiranagara Metro Station","lat":12.97849,"lon":77.63848,"sequence":12},{"id":"22390","name":"Indiranagara Police Station/KFC","lat":12.97849,"lon":77.6412,"sequence":13},{"id":"21855","name":"CMH Hospital","lat":12.97861,"lon":77.64648,"sequence":14},{"id":"22548","name":"Thippasandra","lat":12.97371,"lon":77.6469,"sequence":15},{"id":"31156","name":"Kodihalli","lat":12.96857,"lon":77.64962,"sequence":16},{"id":"27670","name":"Jeevan bhima nagar Petrol Bunk","lat":12.9675,"lon":77.65613,"sequence":17},{"id":"26321","name":"Jeevanbheema Nagara","lat":12.96576,"lon":77.65763,"sequence":18}]},{"direction":"DOWN","headsign":"Vidhana Soudha Karnataka High Court","path":[[12.965762,77.657616],[12.96636,77.65769],[12.96656,77.65771],[12.96727,77.65783],[12.96747,77.65606],[12.9677,77.65456],[12.96779,77.6537],[12.96792,77.65271],[12.968,77.65225],[12.96815,77.65156],[12.96843,77.65045],[12.96863,77.64956],[12.96878,77.64874],[12.96887,77.64802],[12.96888,77.64772],[12.97096,77.64729],[12.97201,77.64712],[12.9727,77.64698],[12.97293,77.64695],[12.973612,77.64693],[12.97403,77.6469],[12.97416,77.64685],[12.97452,77.64682],[12.97517,77.64679],[12.97622,77.64672],[12.97642,77.64671],[12.97758,77.64664],[12.97818,77.64661],[12.97858,77.64657],[12.97849,77.64539],[12.97844,77.64415],[12.97836,77.64158],[12.97834,77.64027],[12.97831,77.63959],[12.97829,77.63662],[12.97815,77.63372],[12.97813,77.6329],[12.97823,77.63161],[12.97843,77.62976],[12.97845,77.62928],[12.97842,77.62906],[12.97838,77.62889],[12.97832,77.62879],[12.97815,77.62852],[12.97809,77.62846],[12.977956,77.62828],[12.97764,77.62774],[12.9775,77.62753],[12.9774,77.62747],[12.97708,77.6272],[12.97681,77.62702],[12.97641,77.62679],[12.97625,77.62668],[12.97606,77.62652],[12.97575,77.62623],[12.97555,77.62608],[12.97546,77.626],[12.97523,77.6257],[12.97495,77.62529],[12.97464,77.62477],[12.97411,77.62399],[12.97329,77.62262],[12.97316,77.62236],[12.97308,77.62215],[12.97283,77.62161],[12.97278,77.62144],[12.97272,77.62109],[12.97267,77.6207],[12.97262,77.62005],[12.97296,77.62007],[12.97375,77.62009],[12.97388,77.62008],[12.97427,77.62006],[12.97471,77.62008],[12.97472,77.61986],[12.97475,77.61962],[12.97484,77.61917],[12.97505,77.61842],[12.97582,77.61618],[12.97634,77.61483],[12.97613,77.61477],[12.97527,77.61451],[12.97527,77.61432],[12.97555,77.61334],[12.97598,77.61198],[12.9771,77.6089],[12.97758,77.60727],[12.97782,77.60651],[12.97805,77.60588],[12.97836,77.60491],[12.9789,77.60333],[12.97911,77.60262],[12.97964,77.60095],[12.98051,77.5983],[12.98083,77.5974],[12.98077,77.59721],[12.98096,77.59703],[12.98111,77.59681],[12.9812,77.59657],[12.98182,77.59475],[12.98156,77.59454],[12.98078,77.59377],[12.9798,77.59286],[12.97862,77.59172],[12.978236,77.591324]],"stops":[{"id":"26321","name":"Jeevanbheema Nagara","lat":12.96576,"lon":77.65763,"sequence":1},{"id":"35941","name":"JBN Petrol Bunk","lat":12.96739,"lon":77.65645,"sequence":2},{"id":"22180","name":"Kodihalli","lat":12.96851,"lon":77.64976,"sequence":3},{"id":"22549","name":"Thippasandra","lat":12.97361,"lon":77.64689,"sequence":4},{"id":"24707","name":"CMH Hospital","lat":12.97849,"lon":77.64655,"sequence":5},{"id":"22388","name":"Indiranagara Police Station/KFC","lat":12.97833,"lon":77.64065,"sequence":6},{"id":"26134","name":"Indiranagara Metro Station","lat":12.97826,"lon":77.6386,"sequence":7},{"id":"21922","name":"Double Road Indiranagara","lat":12.97821,"lon":77.63645,"sequence":8},{"id":"22223","name":"Lakshmipura","lat":12.97816,"lon":77.63228,"sequence":9},{"id":"20806","name":"Halasuru","lat":12.97793,"lon":77.6283,"sequence":10},{"id":"20807","name":"Halasuru Police Station","lat":12.97515,"lon":77.62564,"sequence":11},{"id":"20969","name":"Lido Talkies","lat":12.97277,"lon":77.62141,"sequence":12},{"id":"22255","name":"Manipal Centre MG Road","lat":12.97552,"lon":77.61356,"sequence":13},{"id":"22252","name":"Maniksha Parade Ground","lat":12.97746,"lon":77.60771,"sequence":14},{"id":"21785","name":"BRV Talkies Cubbon Road","lat":12.97911,"lon":77.60273,"sequence":15},{"id":"20799","name":"GPO","lat":12.98137,"lon":77.59436,"sequence":16},{"id":"21258","name":"Vidhana Soudha Karnataka High Court","lat":12.97821,"lon":77.59135,"sequence":17}]}]}