{"short_name":"13 SJHS-SBS","long_name":"Shivajinagara Bus Station ⇔ St Josephs Indian School/ Malya Hospital","directions":[{"direction":"UP","headsign":"Shivajinagara Bus Station","path":[[12.970511,77.59426],[12.96975,77.59442],[12.96745,77.59496],[12.96679,77.59508],[12.96659,77.59512],[12.96644,77.59517],[12.96617,77.59529],[12.9653,77.59584],[12.96521,77.59591],[12.96508,77.59608],[12.96503,77.59619],[12.96498,77.59637],[12.96494,77.59668],[12.96486,77.59695],[12.96514,77.59713],[12.96563,77.59766],[12.96592,77.59801],[12.96604,77.59813],[12.96617,77.59823],[12.96746,77.5996],[12.96769,77.5999],[12.96793,77.60023],[12.9689,77.6018],[12.9691,77.60207],[12.96929,77.60227],[12.96962,77.60267],[12.9702,77.60348],[12.9706,77.6041],[12.97086,77.60468],[12.97104,77.60478],[12.971926,77.60439],[12.97222,77.60423],[12.97232,77.60413],[12.97275,77.60341],[12.97281,77.60327],[12.97308,77.60325],[12.97402,77.60307],[12.97457,77.60293],[12.97555,77.60255],[12.97637,77.6025],[12.97647,77.60202],[12.9765,77.6018],[12.97665,77.60176],[12.9769,77.60184],[12.97734,77.60194],[12.977785,77.60206],[12.97922,77.6024],[12.97931,77.60247],[12.97957,77.60254],[12.98014,77.60273],[12.98074,77.60295],[12.98193,77.60334],[12.98206,77.6034],[12.98217,77.60347],[12.98225,77.60341],[12.98249,77.60332],[12.98281,77.60325],[12.98295,77.60297],[12.98328,77.60304]],"stops":[{"id":"21193","name":"St Josephs Indian School/ Malya Hospital","lat":12.97052,"lon":77.5943,"sequence":1},{"id":"21125","name":"Richmond Circle","lat":12.96738,"lon":77.59946,"sequence":2},{"id":"21194","name":"St Joseph College","lat":12.97036,"lon":77.60368,"sequence":3},{"id":"23433","name":"St Joseph Boys High School Musuem Road","lat":12.97176,"lon":77.60441,"sequence":4},{"id":"21572","name":"MG Road","lat":12.97779,"lon":77.60204,"sequence":5},{"id":"21173","name":"Shivajinagara Bus Station","lat":12.98328,"lon":77.60304,"sequence":6}]}]}