{"short_name":"143","long_name":"Neelasandra Bus Stand ⇔ KR Market","directions":[{"direction":"UP","headsign":"Neelasandra Bus Stand","path":[[12.9641,77.57897],[12.96431,77.57901],[12.96414,77.58081],[12.96403,77.58222],[12.96401,77.58235],[12.96402,77.58254],[12.96399,77.58272],[12.96393,77.58346],[12.96391,77.58402],[12.96478,77.58407],[12.965,77.58411],[12.96522,77.58419],[12.96528,77.58424],[12.96536,77.58461],[12.96554,77.58518],[12.96588,77.58642],[12.96563,77.5867],[12.96527,77.58706],[12.96512,77.58725],[12.96495,77.58749],[12.96498,77.58755],[12.96498,77.5876],[12.96465,77.588],[12.9646,77.58803],[12.96452,77.58803],[12.9644,77.58817],[12.96346,77.58915],[12.96314,77.58945],[12.96299,77.58957],[12.96287,77.58982],[12.96273,77.59027],[12.9627,77.59044],[12.96259,77.59152],[12.96248,77.59201],[12.96249,77.59222],[12.96228,77.59329],[12.96227,77.59358],[12.96228,77.59377],[12.9623,77.59413],[12.96234,77.59443],[12.96242,77.59464],[12.96252,77.59484],[12.96241,77.59502],[12.96211,77.59734],[12.96184,77.59816],[12.96162,77.59903],[12.9614,77.59963],[12.9612,77.60004],[12.96105,77.60029],[12.96052,77.60103],[12.96039,77.60124],[12.96007,77.60171],[12.95994,77.60195],[12.95988,77.60212],[12.95981,77.60246],[12.95969,77.60285],[12.95947,77.60344],[12.95919,77.60399],[12.95908,77.60416],[12.95897,77.6043],[12.95865,77.60466],[12.95856,77.60482],[12.958088,77.60604],[12.95873,77.6061],[12.958722,77.606155],[12.95981,77.60631],[12.96099,77.60651],[12.96128,77.60658],[12.96211,77.60669],[12.96257,77.60673],[12.96306,77.60674],[12.96336,77.60673],[12.9648,77.60673],[12.96537,77.60678],[12.96601,77.60678],[12.96626,77.60675],[12.966579,77.606674],[12.96804,77.60621],[12.96889,77.60581],[12.96945,77.60551],[12.96971,77.60539],[12.96998,77.60525],[12.97089,77.60481],[12.97149,77.60611],[12.97153,77.60653],[12.97152,77.60682],[12.97146,77.60699],[12.97107,77.6069],[12.9705,77.60674],[12.9698,77.60651],[12.96932,77.60637],[12.96878,77.60627],[12.96847,77.60624],[12.96809,77.60631],[12.96791,77.60637],[12.96714,77.60792],[12.96664,77.60884],[12.96631,77.60905],[12.96595,77.60929],[12.965036,77.61004],[12.96403,77.61079],[12.96177,77.61254],[12.96141,77.61249],[12.96023,77.61234],[12.95927,77.61224],[12.95921,77.61223],[12.95851,77.61215],[12.9583,77.61369],[12.95824,77.61425],[12.95823,77.6144],[12.95828,77.61445],[12.95827,77.61448],[12.95823,77.61451],[12.9582,77.6145],[12.95817,77.61445],[12.9577,77.61443],[12.9574,77.61439],[12.95744,77.61414],[12.95754,77.61415],[12.95765,77.61421],[12.957686,77.61427]],"stops":[{"id":"20940","name":"KR Market","lat":12.9641,"lon":77.57897,"sequence":1},{"id":"31416","name":"Town Hall","lat":12.96409,"lon":77.58404,"sequence":2},{"id":"20728","name":"Corporation","lat":12.9648,"lon":77.58778,"sequence":3},{"id":"21196","name":"Subbaiah Circle","lat":12.96262,"lon":77.59111,"sequence":4},{"id":"31349","name":"Akkithimmanahalli","lat":12.96194,"lon":77.5978,"sequence":5},{"id":"35117","name":"Nanjappa Circle","lat":12.96064,"lon":77.60095,"sequence":6},{"id":"23670","name":"Elgin Floor Mill","lat":12.95873,"lon":77.6061,"sequence":7},{"id":"23671","name":"Johnson Market","lat":12.96336,"lon":77.60672,"sequence":8},{"id":"22486","name":"Shoolay Circle Brigade Road","lat":12.96656,"lon":77.6066,"sequence":9},{"id":"22385","name":"Philomenas Hospital","lat":12.96506,"lon":77.61007,"sequence":10},{"id":"29591","name":"Austin Town","lat":12.9616,"lon":77.61254,"sequence":11},{"id":"22349","name":"Neelasandra Bus Stand","lat":12.95766,"lon":77.61429,"sequence":12}]},{"direction":"DOWN","headsign":"KR Market","path":[[12.957595,77.61442],[12.95817,77.61447],[12.95818,77.61445],[12.95823,77.61442],[12.95827,77.61445],[12.95828,77.61447],[12.95868,77.61451],[12.95905,77.61456],[12.95929,77.61458],[12.95951,77.6146],[12.96014,77.61463],[12.96095,77.61473],[12.96154,77.61477],[12.96155,77.61361],[12.96158,77.61296],[12.96163,77.6127],[12.96175,77.61244],[12.96184,77.61236],[12.964765,77.61013],[12.96589,77.60922],[12.96646,77.60878],[12.96652,77.60875],[12.96661,77.60874],[12.96644,77.60783],[12.96617,77.60658],[12.96612,77.6062],[12.96591,77.60496],[12.96574,77.60381],[12.96561,77.60269],[12.96539,77.60109],[12.96508,77.60105],[12.96475,77.601],[12.96401,77.60102],[12.96368,77.60108],[12.96358,77.60115],[12.96328,77.6012],[12.96323,77.60123],[12.9632,77.60122],[12.9622,77.60135],[12.9612,77.60151],[12.96087,77.60156],[12.96061,77.60159],[12.96046,77.60156],[12.96027,77.60146],[12.96075,77.6007],[12.96112,77.60005],[12.96135,77.59956],[12.96161,77.59889],[12.96201,77.59755],[12.96206,77.59733],[12.96228,77.59601],[12.96238,77.59528],[12.96239,77.59511],[12.96231,77.59494],[12.96224,77.59483],[12.96214,77.59472],[12.96217,77.59468],[12.96228,77.59458],[12.96216,77.5945],[12.96212,77.59372],[12.96223,77.59287],[12.96249,77.59169],[12.96257,77.59113],[12.96262,77.5906],[12.96262,77.59046],[12.9626,77.59033],[12.96254,77.59005],[12.96249,77.58992],[12.96227,77.58958],[12.96181,77.58912],[12.96156,77.58882],[12.96101,77.58831],[12.96099,77.58817],[12.96108,77.58757],[12.96135,77.58516],[12.96141,77.58445],[12.96144,77.58425],[12.96148,77.58417],[12.96178,77.58436],[12.96284,77.58491],[12.96322,77.58505],[12.9634,77.58511],[12.96358,77.58495],[12.96364,77.58488],[12.96367,77.58479],[12.9637,77.58462],[12.96362,77.58401],[12.96349,77.58334],[12.96347,77.58299],[12.9634,77.58237],[12.96339,77.58196],[12.9634,77.58173],[12.96347,77.58107],[12.96344,77.58084],[12.96344,77.58074],[12.96352,77.57982],[12.96354,77.57895],[12.96382,77.5789],[12.9641,77.57897]],"stops":[{"id":"22349","name":"Neelasandra Bus Stand","lat":12.95766,"lon":77.61429,"sequence":1},{"id":"23672","name":"Austin Town","lat":12.96152,"lon":77.61459,"sequence":2},{"id":"35219","name":"Philomenas Hospital","lat":12.96481,"lon":77.61005,"sequence":3},{"id":"21126","name":"Richmond Circle","lat":12.9658,"lon":77.60433,"sequence":4},{"id":"35278","name":"Nanjappa Circle","lat":12.96058,"lon":77.60095,"sequence":5},{"id":"23668","name":"Akkithimmanahalli","lat":12.96186,"lon":77.59789,"sequence":6},{"id":"23999","name":"Subbaiah Circle","lat":12.96255,"lon":77.5911,"sequence":7},{"id":"21100","name":"Jai Bheem Circle (Poornima Theatre)","lat":12.961,"lon":77.58802,"sequence":8},{"id":"21232","name":"Town Hall","lat":12.96355,"lon":77.58375,"sequence":9},{"id":"20940","name":"KR Market","lat":12.9641,"lon":77.57897,"sequence":10}]}]}