{"short_name":"163-C","long_name":"Lakshman Rao Nagara Anepalya ⇔ KR Market","directions":[{"direction":"UP","headsign":"Lakshman Rao Nagara Anepalya","path":[[12.9641,77.57897],[12.96431,77.57901],[12.96414,77.58081],[12.96403,77.58222],[12.96401,77.58235],[12.96402,77.58254],[12.96399,77.58272],[12.96393,77.58346],[12.96391,77.58402],[12.96478,77.58407],[12.965,77.58411],[12.96522,77.58419],[12.96528,77.58424],[12.96536,77.58461],[12.96554,77.58518],[12.96588,77.58642],[12.96563,77.5867],[12.96527,77.58706],[12.96512,77.58725],[12.96495,77.58749],[12.96498,77.58755],[12.96498,77.5876],[12.96465,77.588],[12.9646,77.58803],[12.96452,77.58803],[12.9644,77.58817],[12.96346,77.58915],[12.96314,77.58945],[12.96299,77.58957],[12.96287,77.58982],[12.96273,77.59027],[12.9627,77.59044],[12.96259,77.59152],[12.96248,77.59201],[12.96249,77.59222],[12.96228,77.59329],[12.96227,77.59358],[12.96228,77.59377],[12.9623,77.59413],[12.96234,77.59443],[12.96242,77.59464],[12.96252,77.59484],[12.96241,77.59502],[12.96211,77.59734],[12.96184,77.59816],[12.96162,77.59903],[12.9614,77.59963],[12.9612,77.60004],[12.96105,77.60029],[12.96052,77.60103],[12.96039,77.60124],[12.96007,77.60171],[12.95994,77.60195],[12.95988,77.60212],[12.95981,77.60246],[12.95969,77.60285],[12.95947,77.60344],[12.95919,77.60399],[12.95908,77.60416],[12.95897,77.6043],[12.95865,77.60466],[12.95856,77.60482],[12.95806,77.60612],[12.95605,77.60576],[12.95571,77.60568],[12.95493,77.60556],[12.952892,77.6053],[12.95196,77.60522],[12.95183,77.60523],[12.95071,77.60561],[12.95042,77.60572],[12.95012,77.60586],[12.94974,77.60599],[12.94972,77.60628],[12.94923,77.60973],[12.94903,77.61073],[12.949,77.61097],[12.949,77.61116],[12.94909,77.6115],[12.94941,77.61174],[12.94955,77.6119],[12.94974,77.61253],[12.94985,77.61282],[12.95018,77.61396],[12.95026,77.61431],[12.9505,77.61515],[12.95054,77.61547],[12.95051,77.6161],[12.95049,77.61618],[12.95059,77.61618],[12.95053,77.61676],[12.95047,77.61711],[12.95043,77.6175]],"stops":[{"id":"20940","name":"KR Market","lat":12.9641,"lon":77.57897,"sequence":1},{"id":"31416","name":"Town Hall","lat":12.96409,"lon":77.58404,"sequence":2},{"id":"20728","name":"Corporation","lat":12.9648,"lon":77.58778,"sequence":3},{"id":"21196","name":"Subbaiah Circle","lat":12.96262,"lon":77.59111,"sequence":4},{"id":"31349","name":"Akkithimmanahalli","lat":12.96194,"lon":77.5978,"sequence":5},{"id":"35117","name":"Nanjappa Circle","lat":12.96064,"lon":77.60095,"sequence":6},{"id":"23800","name":"Anepalya","lat":12.95289,"lon":77.60532,"sequence":7},{"id":"35220","name":"Pothalappa Garden","lat":12.9498,"lon":77.60597,"sequence":8},{"id":"33670","name":"Lakshman Rao Nagara Anepalya","lat":12.9504,"lon":77.61751,"sequence":9}]},{"direction":"DOWN","headsign":"KR Market","path":[[12.9503,77.61748],[12.95044,77.61663],[12.95049,77.61618],[12.95051,77.6161],[12.95054,77.61547],[12.9505,77.61515],[12.95026,77.61431],[12.95018,77.61396],[12.94985,77.61282],[12.94974,77.61253],[12.94955,77.6119],[12.94941,77.61174],[12.94909,77.6115],[12.94903,77.6113],[12.94902,77.61117],[12.94902,77.61104],[12.94934,77.60919],[12.94953,77.60791],[12.94971,77.60659],[12.94975,77.60623],[12.94974,77.606],[12.94668,77.60694],[12.94625,77.60704],[12.94624,77.60695],[12.947,77.60674],[12.9492,77.60606],[12.94996,77.60584],[12.95023,77.60572],[12.95075,77.60551],[12.95157,77.60526],[12.95183,77.60521],[12.95278,77.60524],[12.95425,77.60533],[12.95567,77.60555],[12.95719,77.60589],[12.96065,77.60647],[12.96148,77.60663],[12.9621,77.60671],[12.96258,77.60675],[12.96337,77.60675],[12.96383,77.60673],[12.96441,77.60671],[12.96476,77.60673],[12.96512,77.60677],[12.96603,77.6068],[12.96608,77.60674],[12.96617,77.60658],[12.96574,77.60381],[12.96561,77.60269],[12.96539,77.60109],[12.96508,77.60105],[12.96475,77.601],[12.96401,77.60102],[12.96368,77.60108],[12.96358,77.60115],[12.96328,77.6012],[12.96323,77.60123],[12.9632,77.60122],[12.9622,77.60135],[12.9612,77.60151],[12.96087,77.60156],[12.96061,77.60159],[12.96046,77.60156],[12.96027,77.60146],[12.96075,77.6007],[12.96112,77.60005],[12.96135,77.59956],[12.96161,77.59889],[12.96201,77.59755],[12.96206,77.59733],[12.96228,77.59601],[12.96238,77.59528],[12.96239,77.59511],[12.96231,77.59494],[12.96224,77.59483],[12.96214,77.59472],[12.96217,77.59468],[12.96228,77.59458],[12.96216,77.5945],[12.96212,77.59372],[12.96223,77.59287],[12.96249,77.59169],[12.96257,77.59113],[12.96262,77.5906],[12.96262,77.59046],[12.9626,77.59033],[12.96254,77.59005],[12.96249,77.58992],[12.96227,77.58958],[12.96181,77.58912],[12.96156,77.58882],[12.96101,77.58831],[12.96099,77.58817],[12.96108,77.58757],[12.96135,77.58516],[12.96141,77.58445],[12.96144,77.58425],[12.96148,77.58417],[12.96178,77.58436],[12.96284,77.58491],[12.96322,77.58505],[12.9634,77.58511],[12.96358,77.58495],[12.96364,77.58488],[12.96367,77.58479],[12.9637,77.58462],[12.96362,77.58401],[12.96349,77.58334],[12.96347,77.58299],[12.9634,77.58237],[12.96339,77.58196],[12.9634,77.58173],[12.96347,77.58107],[12.96344,77.58084],[12.96344,77.58074],[12.96352,77.57982],[12.96354,77.57886],[12.96359,77.57888],[12.96367,77.57887],[12.964101,77.578964]],"stops":[{"id":"28480","name":"Lakshman Rao Nagara Anepalya","lat":12.95029,"lon":77.61754,"sequence":1},{"id":"23892","name":"Pothalappa Garden","lat":12.94962,"lon":77.60587,"sequence":2},{"id":"23818","name":"Anepalya","lat":12.95303,"lon":77.60518,"sequence":3},{"id":"23670","name":"Elgin Floor Mill","lat":12.95873,"lon":77.6061,"sequence":4},{"id":"23671","name":"Johnson Market","lat":12.96336,"lon":77.60672,"sequence":5},{"id":"21126","name":"Richmond Circle","lat":12.9658,"lon":77.60433,"sequence":6},{"id":"35278","name":"Nanjappa Circle","lat":12.96058,"lon":77.60095,"sequence":7},{"id":"23668","name":"Akkithimmanahalli","lat":12.96186,"lon":77.59789,"sequence":8},{"id":"23999","name":"Subbaiah Circle","lat":12.96255,"lon":77.5911,"sequence":9},{"id":"21100","name":"Jai Bheem Circle (Poornima Theatre)","lat":12.961,"lon":77.58802,"sequence":10},{"id":"21232","name":"Town Hall","lat":12.96355,"lon":77.58375,"sequence":11},{"id":"20940","name":"KR Market","lat":12.9641,"lon":77.57897,"sequence":12}]}]}