{"short_name":"201-G KRM-BEMLF","long_name":"Koramangala Bus Station ⇔ BEML Factory","directions":[{"direction":"UP","headsign":"BEML Factory","path":[[12.940696,77.62467],[12.94044,77.62493],[12.93981,77.62549],[12.93933,77.62573],[12.93912,77.62582],[12.9385,77.6261],[12.93789,77.62651],[12.93737,77.62693],[12.93764,77.62725],[12.93793,77.62767],[12.93809,77.62795],[12.93826,77.62833],[12.93834,77.62855],[12.93855,77.62933],[12.9386,77.62971],[12.93861,77.63003],[12.9386,77.6306],[12.93861,77.63135],[12.9386,77.63313],[12.93861,77.63363],[12.93864,77.63408],[12.93869,77.63434],[12.93877,77.6346],[12.93894,77.63502],[12.93905,77.63524],[12.93923,77.6355],[12.93944,77.63576],[12.93977,77.63608],[12.94015,77.63636],[12.94058,77.63663],[12.9443,77.63891],[12.94549,77.63966],[12.94668,77.64038],[12.94722,77.64068],[12.9473,77.64071],[12.94759,77.64077],[12.94783,77.64076],[12.94797,77.64073],[12.94821,77.64064],[12.94841,77.64049],[12.94882,77.64005],[12.94933,77.63948],[12.94952,77.6393],[12.94963,77.63924],[12.94992,77.63913],[12.95014,77.6391],[12.95026,77.6391],[12.9504,77.63912],[12.95064,77.6392],[12.95152,77.63965],[12.95312,77.6406],[12.95421,77.64118],[12.95442,77.64123],[12.95609,77.64134],[12.95696,77.64134],[12.95775,77.64131],[12.95821,77.64132],[12.95941,77.64145],[12.95996,77.64153],[12.96065,77.64168],[12.96116,77.64169],[12.96131,77.64156],[12.96136,77.64148],[12.96139,77.64133],[12.96138,77.64114],[12.96128,77.64097],[12.96122,77.64091],[12.96114,77.64087],[12.96102,77.64086],[12.9609,77.6409],[12.96083,77.64097],[12.96076,77.64109],[12.96074,77.64169],[12.96069,77.64224],[12.96058,77.64318],[12.9605,77.64351],[12.96032,77.64474],[12.96022,77.64557],[12.95997,77.64793],[12.95968,77.65025],[12.95942,77.65449],[12.95934,77.65666],[12.95928,77.65748],[12.9592,77.65826],[12.95912,77.6593],[12.95913,77.65968],[12.95933,77.66086],[12.95935,77.66112],[12.95934,77.66152],[12.95922,77.66236],[12.95906,77.66327],[12.95888,77.66404],[12.95869,77.66498],[12.95872,77.66506],[12.95873,77.66515],[12.95849,77.66635],[12.95865,77.66632],[12.95892,77.66632],[12.95943,77.66634],[12.95977,77.66632],[12.95991,77.6663],[12.96033,77.66615],[12.96067,77.66593],[12.96095,77.66571],[12.96177,77.66498],[12.96295,77.66422],[12.96497,77.66287],[12.9662,77.66198],[12.96861,77.66038],[12.96875,77.6603],[12.96915,77.66005],[12.97006,77.65945],[12.97047,77.65916],[12.97122,77.65873],[12.9713,77.6589],[12.971373,77.6591]],"stops":[{"id":"35267","name":"Koramangala Bus Station","lat":12.94072,"lon":77.6247,"sequence":1},{"id":"22503","name":"Sony World 100ft Road  Koramangala","lat":12.93793,"lon":77.62766,"sequence":2},{"id":"22510","name":"Shrinivagilu Ejipura","lat":12.93859,"lon":77.63265,"sequence":3},{"id":"22290","name":"Military Bridge","lat":12.9459,"lon":77.63992,"sequence":4},{"id":"24821","name":"Dell","lat":12.95275,"lon":77.64044,"sequence":5},{"id":"21917","name":"Domlur Flyover","lat":12.96048,"lon":77.64352,"sequence":6},{"id":"22178","name":"Kodihalli","lat":12.96,"lon":77.64758,"sequence":7},{"id":"22336","name":"NAL/Manipal Hospital","lat":12.95964,"lon":77.65076,"sequence":8},{"id":"22316","name":"Murugeshpalya","lat":12.95936,"lon":77.65618,"sequence":9},{"id":"22193","name":"Konena Agrahara","lat":12.95914,"lon":77.65962,"sequence":10},{"id":"35189","name":"HAL Main Gate","lat":12.95852,"lon":77.66629,"sequence":11},{"id":"35810","name":"Jeevan Bheemanagara Cross1","lat":12.96687,"lon":77.66151,"sequence":12},{"id":"36497","name":"BEML Factory","lat":12.97146,"lon":77.65908,"sequence":13}]}]}