{"short_name":"210-Z BSK-RMLO","long_name":"Ramanjaneya Layout Chikkallasandra ⇔ Banashankari Bus Station","directions":[{"direction":"DOWN","headsign":"Banashankari Bus Station","path":[[12.910629,77.54542],[12.91044,77.54549],[12.91036,77.54555],[12.91034,77.54559],[12.91035,77.54569],[12.91062,77.54647],[12.910632,77.54543],[12.91044,77.54549],[12.91036,77.54555],[12.91034,77.54559],[12.91035,77.54569],[12.91083,77.54707],[12.91086,77.54711],[12.9109,77.54712],[12.91124,77.54709],[12.91142,77.54724],[12.91139,77.54733],[12.91142,77.54758],[12.91148,77.54787],[12.91155,77.54794],[12.91152,77.54801],[12.91162,77.54826],[12.91158,77.54835],[12.91155,77.5485],[12.91195,77.54864],[12.91222,77.54876],[12.91303,77.54898],[12.91342,77.54907],[12.91429,77.54933],[12.91416,77.55002],[12.91399,77.54998],[12.91391,77.55],[12.91339,77.55044],[12.9128,77.55088],[12.91261,77.55106],[12.91249,77.55122],[12.91208,77.55191],[12.91186,77.55217],[12.91166,77.55223],[12.91176,77.55245],[12.91175,77.55263],[12.9117,77.55284],[12.91146,77.55366],[12.91134,77.55415],[12.91136,77.55438],[12.91155,77.55474],[12.91158,77.55484],[12.91159,77.55493],[12.91158,77.55517],[12.9115,77.5557],[12.91153,77.55587],[12.91169,77.55624],[12.91171,77.55641],[12.91166,77.55687],[12.91157,77.55849],[12.91208,77.55863],[12.91245,77.55876],[12.91284,77.55886],[12.9129,77.55884],[12.91363,77.55891],[12.91366,77.55899],[12.91369,77.55936],[12.91378,77.55961],[12.9138,77.55974],[12.91405,77.56003],[12.91421,77.56019],[12.91446,77.56041],[12.91491,77.56086],[12.91505,77.56097],[12.91541,77.56114],[12.91568,77.56124],[12.91574,77.5613],[12.91576,77.56139],[12.91574,77.56149],[12.91564,77.5617],[12.91541,77.56203],[12.91528,77.56231],[12.91515,77.56273],[12.91503,77.56325],[12.91482,77.56389],[12.91459,77.56474],[12.91443,77.56531],[12.91433,77.56559],[12.9143,77.56572],[12.91411,77.56601],[12.91401,77.56619],[12.91387,77.56688],[12.91388,77.56725],[12.91386,77.56731],[12.91397,77.56751],[12.91418,77.56777],[12.91498,77.56863],[12.9153,77.56903],[12.91536,77.56914],[12.9156,77.56987],[12.91565,77.56997],[12.91572,77.57004],[12.91603,77.57019],[12.91613,77.57025],[12.91623,77.57033],[12.91631,77.57042],[12.91641,77.57068],[12.91653,77.57111],[12.91656,77.57141],[12.91653,77.57208],[12.91657,77.57258],[12.91661,77.57288],[12.91687,77.5735],[12.91712,77.57349],[12.91713,77.5735],[12.91718,77.57272],[12.91736,77.5727]],"stops":[{"id":"27933","name":"Ramanjaneya Layout Chikkallasandra","lat":12.91062,"lon":77.54539,"sequence":1},{"id":"33746","name":"Mahesh Medicals","lat":12.91409,"lon":77.55,"sequence":2},{"id":"21840","name":"Chikkallasandra Aralimara","lat":12.91168,"lon":77.55226,"sequence":3},{"id":"22403","name":"Prarthana School","lat":12.91166,"lon":77.5574,"sequence":4},{"id":"22133","name":"Kadirenahalli Village","lat":12.91574,"lon":77.56141,"sequence":5},{"id":"20896","name":"Kadirenahalli Cross","lat":12.91391,"lon":77.56657,"sequence":6},{"id":"20624","name":"Banashankari Bus Station","lat":12.91736,"lon":77.5727,"sequence":7}]}]}