{"short_name":"210-X BSK-CNDRN","long_name":"Chandra Nagara ⇔ Banashankari Bus Station","directions":[{"direction":"UP","headsign":"Chandra Nagara","path":[[12.91779,77.57272],[12.91789,77.57322],[12.91774,77.57361],[12.91697,77.57363],[12.91665,77.57287],[12.91659,77.57253],[12.91657,77.57224],[12.91658,77.57124],[12.91655,77.57109],[12.91638,77.57052],[12.91633,77.57042],[12.91624,77.57031],[12.91601,77.57014],[12.91571,77.57],[12.91564,77.56993],[12.91554,77.56969],[12.91544,77.5693],[12.91538,77.56914],[12.91532,77.56903],[12.91498,77.56863],[12.91466,77.56829],[12.91404,77.56757],[12.9139,77.56738],[12.91386,77.56725],[12.91266,77.56726],[12.91255,77.56718],[12.91234,77.56734],[12.91168,77.56718],[12.91143,77.56711],[12.9107,77.56695],[12.91022,77.56687],[12.90962,77.56683],[12.90953,77.5668],[12.90948,77.56675],[12.90945,77.56667],[12.90944,77.56657],[12.90949,77.5659],[12.90948,77.56467],[12.90944,77.56416],[12.90897,77.56417],[12.90846,77.56413],[12.90815,77.56407],[12.90751,77.5639],[12.90709,77.56371],[12.90543,77.56279],[12.90423,77.56221],[12.903133,77.561646],[12.90258,77.56134],[12.90228,77.5612],[12.90207,77.56115],[12.90194,77.5611],[12.90187,77.56104],[12.90086,77.55982],[12.90074,77.55965],[12.89985,77.55857],[12.89914,77.55791],[12.89884,77.55767],[12.89841,77.55827],[12.89795,77.55881],[12.89833,77.55913],[12.89947,77.56046],[12.89974,77.56073],[12.89932,77.56123],[12.89953,77.5615],[12.89973,77.5617],[12.89925,77.56228],[12.89919,77.5624],[12.89921,77.56253],[12.89937,77.56297],[12.89985,77.56339],[12.90044,77.56409],[12.90009,77.56437],[12.900611,77.565125]],"stops":[{"id":"20623","name":"Banashankari Bus Station","lat":12.91779,"lon":77.57272,"sequence":1},{"id":"20897","name":"Kadirenahalli Cross","lat":12.91364,"lon":77.56727,"sequence":2},{"id":"21874","name":"Dayananda Sagar College","lat":12.90948,"lon":77.56553,"sequence":3},{"id":"22213","name":"Kumaraswamy Layout Police Station","lat":12.9053,"lon":77.56274,"sequence":4},{"id":"22211","name":"Kumaraswamy Layout","lat":12.90313,"lon":77.56165,"sequence":5},{"id":"22619","name":"West Cross Kumaraswamy Layout","lat":12.90094,"lon":77.55993,"sequence":6},{"id":"22080","name":"ISRO Layout","lat":12.89978,"lon":77.5585,"sequence":7},{"id":"32224","name":"Chandra Nagara Cross","lat":12.89938,"lon":77.56118,"sequence":8},{"id":"24406","name":"Chandra Nagara","lat":12.89945,"lon":77.56486,"sequence":9}]}]}