{"short_name":"211UB","long_name":"Judicial Layout 8th Main ⇔ Banashankari Bus Station","directions":[{"direction":"UP","headsign":"Judicial Layout 8th Main","path":[[12.91779,77.57272],[12.91789,77.57322],[12.91763,77.57365],[12.91696,77.57365],[12.91631,77.5737],[12.916,77.57371],[12.9153,77.57367],[12.91464,77.57356],[12.91346,77.57336],[12.91245,77.57311],[12.91218,77.57305],[12.91181,77.573],[12.91147,77.57297],[12.91009,77.57297],[12.9097,77.57299],[12.90925,77.573],[12.90836,77.57306],[12.90827,77.57308],[12.90789,77.57312],[12.90777,77.57314],[12.9064,77.57329],[12.9054,77.5735],[12.905,77.57356],[12.90475,77.57356],[12.90457,77.57353],[12.90415,77.57335],[12.90377,77.5733],[12.90343,77.57332],[12.90264,77.57347],[12.9021,77.57354],[12.90185,77.57355],[12.90155,77.57349],[12.90036,77.57312],[12.89966,77.57292],[12.89945,77.57283],[12.89901,77.5726],[12.89816,77.57203],[12.89741,77.5714],[12.89719,77.57125],[12.897,77.5711],[12.89587,77.57013],[12.89482,77.56918],[12.89415,77.5685],[12.89373,77.56808],[12.89278,77.56703],[12.89142,77.56561],[12.89033,77.56433],[12.8896,77.56358],[12.88954,77.56351],[12.8893,77.56327],[12.88859,77.56248],[12.88805,77.56182],[12.88782,77.56152],[12.88758,77.56119],[12.88722,77.56065],[12.88699,77.56016],[12.88659,77.55898],[12.88572,77.55627],[12.88555,77.55581],[12.88543,77.55536],[12.88497,77.55383],[12.88461,77.5528],[12.88439,77.55212],[12.88405,77.5508],[12.88342,77.5487],[12.88327,77.54796],[12.88317,77.54765],[12.8831,77.54751],[12.8829,77.54724],[12.88279,77.54713],[12.8826,77.54697],[12.88249,77.5469],[12.88235,77.54684],[12.8809,77.54625],[12.88067,77.54617],[12.88035,77.54605],[12.87995,77.54586],[12.87935,77.5456],[12.87849,77.54529],[12.87702,77.54466],[12.87657,77.54445],[12.87597,77.54411],[12.87565,77.54385],[12.87551,77.5437],[12.87523,77.54331],[12.87508,77.54307],[12.87494,77.54276],[12.87454,77.54178],[12.87444,77.54157],[12.87414,77.54105],[12.87395,77.54076],[12.87371,77.54045],[12.87335,77.54008],[12.87292,77.5397],[12.87197,77.53893],[12.87175,77.53893],[12.87169,77.5389],[12.87095,77.5383],[12.8708,77.53817],[12.87076,77.5381],[12.87073,77.53794],[12.87029,77.53754],[12.86939,77.53683],[12.86926,77.53727],[12.86923,77.53742],[12.86906,77.53787],[12.86893,77.53808],[12.86879,77.53837],[12.86875,77.53842],[12.86862,77.53867],[12.86843,77.53911],[12.86832,77.53943],[12.86781,77.53937],[12.86776,77.53929],[12.86747,77.53936],[12.86702,77.53935],[12.86636,77.53921],[12.86584,77.53914],[12.86575,77.53997],[12.86572,77.54001],[12.86565,77.54003],[12.86447,77.54001],[12.86436,77.53994],[12.86433,77.54054],[12.86361,77.54051]],"stops":[{"id":"20623","name":"Banashankari Bus Station","lat":12.91779,"lon":77.57272,"sequence":1},{"id":"22459","name":"Sarakki","lat":12.9097,"lon":77.57299,"sequence":2},{"id":"22101","name":"Jaraganahalli Cross","lat":12.9014,"lon":77.57344,"sequence":3},{"id":"22638","name":"Yalachenahalli","lat":12.89654,"lon":77.57076,"sequence":4},{"id":"22284","name":"Metro","lat":12.89336,"lon":77.56772,"sequence":5},{"id":"22190","name":"Konanakunte Cross","lat":12.89053,"lon":77.56459,"sequence":6},{"id":"38358","name":"Konanakunte Cross Metro Station","lat":12.88907,"lon":77.56306,"sequence":7},{"id":"39689","name":"Cura Hospital","lat":12.88787,"lon":77.56161,"sequence":8},{"id":"21909","name":"Doddakallasandra","lat":12.88574,"lon":77.5565,"sequence":9},{"id":"38362","name":"Doddakallasandra Metro Station","lat":12.88467,"lon":77.55312,"sequence":10},{"id":"21982","name":"Gubbalala Gate","lat":12.88423,"lon":77.55153,"sequence":11},{"id":"22408","name":"Raghuvanahalli Cross","lat":12.88067,"lon":77.54621,"sequence":12},{"id":"38360","name":"Vajarahalli Metro Station","lat":12.87768,"lon":77.54498,"sequence":13},{"id":"21723","name":"Bayyanapalya","lat":12.87558,"lon":77.54374,"sequence":14},{"id":"37739","name":"Thalaghattapura Metro Station","lat":12.87128,"lon":77.53854,"sequence":15},{"id":"22538","name":"Thalagattapura","lat":12.86958,"lon":77.53705,"sequence":16},{"id":"30471","name":"Judicial Layout 8th Main","lat":12.86361,"lon":77.54051,"sequence":17}]}]}