{"short_name":"215-CA","long_name":"Jambu Savari Dinne ⇔ Jayanagara Bus Station","directions":[{"direction":"UP","headsign":"Jambu Savari Dinne","path":[[12.928678,77.58419],[12.92868,77.58385],[12.9284,77.58381],[12.9279,77.58359],[12.92758,77.58348],[12.92729,77.58353],[12.92681,77.58357],[12.92631,77.5838],[12.9244,77.58377],[12.92435,77.5838],[12.92429,77.58381],[12.92336,77.58382],[12.92333,77.58459],[12.92335,77.58541],[12.92334,77.58601],[12.92209,77.58599],[12.92081,77.58592],[12.91995,77.58592],[12.91946,77.58589],[12.91689,77.58591],[12.91654,77.58588],[12.91612,77.58587],[12.91579,77.58586],[12.9149,77.58587],[12.91395,77.58585],[12.91355,77.58583],[12.91273,77.58582],[12.91233,77.58581],[12.91103,77.5858],[12.90998,77.58576],[12.90894,77.58574],[12.90843,77.58574],[12.90822,77.58576],[12.90762,77.58577],[12.90504,77.58577],[12.90497,77.58573],[12.90271,77.58576],[12.90195,77.58587],[12.90144,77.58585],[12.90064,77.58581],[12.90028,77.58581],[12.90009,77.58582],[12.89964,77.58585],[12.89836,77.58589],[12.8975,77.5859],[12.8969,77.58604],[12.89691,77.5862],[12.89604,77.58617],[12.89576,77.58621],[12.89318,77.58642],[12.89308,77.58639],[12.89296,77.58641],[12.8927,77.58644],[12.89285,77.58745],[12.89258,77.58753],[12.89216,77.58768],[12.89159,77.58778],[12.891391,77.58784],[12.8914,77.58787],[12.89137,77.58788],[12.89127,77.58769],[12.891245,77.5877],[12.89119,77.58755],[12.89117,77.58735],[12.89118,77.58717],[12.89123,77.58694],[12.89144,77.58643],[12.89169,77.58592],[12.89184,77.58547],[12.8918,77.58536],[12.8919,77.58439],[12.89214,77.58275],[12.89218,77.58234],[12.89219,77.58207],[12.89218,77.58189],[12.89053,77.58189],[12.89031,77.5819],[12.88839,77.58195],[12.88831,77.58195],[12.88824,77.58191],[12.88783,77.58192],[12.88753,77.58193],[12.88612,77.5822],[12.88565,77.58226],[12.8852,77.58242],[12.8845,77.58271],[12.88273,77.58331],[12.88226,77.58345],[12.88177,77.58362],[12.88157,77.58368],[12.88101,77.58388],[12.88028,77.58408],[12.87994,77.58416],[12.87962,77.58418],[12.87931,77.58415],[12.87914,77.58411],[12.87834,77.58398],[12.87759,77.58395],[12.87649,77.584],[12.87496,77.58412],[12.87446,77.58413],[12.87416,77.58407],[12.87313,77.58374],[12.87295,77.58369],[12.87234,77.58349],[12.87229,77.58348],[12.87196,77.5834],[12.8712,77.58323],[12.87114,77.58322],[12.87105,77.5832],[12.87062,77.58314],[12.87064,77.58278],[12.87063,77.58254],[12.87067,77.58225],[12.87065,77.5822],[12.87058,77.58215],[12.87011,77.58208],[12.87005,77.58204],[12.86866,77.58185],[12.86767,77.58186],[12.86754,77.58184],[12.8675,77.58182],[12.86746,77.58175],[12.86738,77.58148],[12.86731,77.58136],[12.86726,77.58131],[12.86696,77.58118],[12.86661,77.58108],[12.8661,77.58094],[12.86595,77.58092],[12.86582,77.58092]],"stops":[{"id":"21544","name":"Jayanagara Bus Station","lat":12.92852,"lon":77.58418,"sequence":1},{"id":"39972","name":"Jayanagara Telephone Exchange","lat":12.92339,"lon":77.58395,"sequence":2},{"id":"39973","name":"MP Office Bangalore South","lat":12.9199,"lon":77.58597,"sequence":3},{"id":"35080","name":"Marenahalli","lat":12.9149,"lon":77.58588,"sequence":4},{"id":"23450","name":"R V Dental College","lat":12.90988,"lon":77.58579,"sequence":5},{"id":"33177","name":"JP Nagara 15th Cross","lat":12.90665,"lon":77.58581,"sequence":6},{"id":"34195","name":"Nandini Hotel JP Nagara","lat":12.90512,"lon":77.58581,"sequence":7},{"id":"28061","name":"Auto Gas/Royal School","lat":12.90133,"lon":77.58585,"sequence":8},{"id":"28376","name":"Shobha Tulip JP Nagara","lat":12.89805,"lon":77.58591,"sequence":9},{"id":"31886","name":"Nayara Petrol Pump Puttenahalli Lake","lat":12.89127,"lon":77.58769,"sequence":10},{"id":"23452","name":"Sri Dharmaraya Circle","lat":12.89213,"lon":77.58192,"sequence":11},{"id":"23453","name":"RBI Layout","lat":12.88806,"lon":77.58198,"sequence":12},{"id":"23454","name":"Gowrava Nagara","lat":12.88476,"lon":77.58266,"sequence":13},{"id":"23455","name":"Navodaya Nagara","lat":12.88137,"lon":77.58381,"sequence":14},{"id":"23456","name":"Kothanuru Dinne Ganesha Temple","lat":12.87711,"lon":77.58399,"sequence":15},{"id":"23457","name":"Kothanur Dinne Water Tank","lat":12.87455,"lon":77.58419,"sequence":16},{"id":"35060","name":"BK Circle","lat":12.87056,"lon":77.58309,"sequence":17},{"id":"35114","name":"Surabhi Layout","lat":12.8675,"lon":77.58184,"sequence":18},{"id":"35343","name":"Jambu Savari Dinne","lat":12.86581,"lon":77.58098,"sequence":19}]},{"direction":"DOWN","headsign":"Jayanagara Bus Station","path":[[12.86581,77.58092],[12.86588,77.58092],[12.86622,77.58098],[12.86685,77.58116],[12.86719,77.58127],[12.86726,77.58131],[12.86735,77.5814],[12.86745,77.58179],[12.86749,77.58184],[12.86753,77.58186],[12.86768,77.58188],[12.8681,77.58186],[12.86839,77.58186],[12.86867,77.58188],[12.86996,77.58201],[12.87004,77.58203],[12.87016,77.58202],[12.87056,77.58208],[12.87062,77.5821],[12.87069,77.58216],[12.87074,77.58227],[12.87071,77.58254],[12.87063,77.58277],[12.8706,77.58316],[12.8709,77.5832],[12.87179,77.58336],[12.87286,77.58365],[12.87375,77.58394],[12.87414,77.58406],[12.874439,77.58413],[12.87479,77.58413],[12.87553,77.58408],[12.87649,77.584],[12.877,77.58397],[12.87802,77.58396],[12.87828,77.58397],[12.87861,77.58401],[12.87871,77.58403],[12.87937,77.58414],[12.87959,77.58418],[12.87997,77.58415],[12.88036,77.58406],[12.88101,77.58387],[12.8824,77.5834],[12.88313,77.58318],[12.88342,77.58308],[12.88419,77.58283],[12.884686,77.58263],[12.88498,77.58254],[12.88525,77.58242],[12.88547,77.58234],[12.88568,77.58228],[12.88606,77.58222],[12.88676,77.58208],[12.8873,77.58198],[12.88794,77.58191],[12.88807,77.58191],[12.88838,77.58184],[12.88871,77.58185],[12.89004,77.58179],[12.89029,77.5818],[12.89049,77.58179],[12.89111,77.58179],[12.89141,77.5818],[12.89216,77.58181],[12.89305,77.58176],[12.89364,77.5817],[12.89374,77.58175],[12.89387,77.58173],[12.89411,77.58169],[12.89453,77.58169],[12.89527,77.58172],[12.89547,77.58174],[12.89575,77.58175],[12.89629,77.58181],[12.89658,77.58187],[12.89712,77.58205],[12.8974,77.58224],[12.89761,77.58241],[12.89792,77.58264],[12.89805,77.58267],[12.89813,77.58266],[12.89817,77.58264],[12.8982,77.5826],[12.89822,77.58255],[12.89826,77.58215],[12.89829,77.58206],[12.89833,77.58198],[12.89845,77.58189],[12.89956,77.58177],[12.90098,77.58158],[12.90111,77.58158],[12.90137,77.58161],[12.90149,77.58169],[12.90153,77.58174],[12.90159,77.58189],[12.90177,77.58247],[12.90198,77.58281],[12.9021,77.5829],[12.90237,77.58305],[12.90276,77.58357],[12.90296,77.58387],[12.90304,77.58394],[12.90354,77.58429],[12.90405,77.5846],[12.90468,77.58492],[12.90479,77.58494],[12.90546,77.58498],[12.90547,77.58569],[12.90643,77.5857],[12.90678,77.58568],[12.90822,77.58568],[12.90844,77.58569],[12.90997,77.58569],[12.91102,77.58571],[12.91356,77.58572],[12.91433,77.58575],[12.91614,77.58578],[12.917,77.58582],[12.91702,77.58541],[12.91701,77.58474],[12.91705,77.58356],[12.91791,77.5836],[12.91933,77.58362],[12.91985,77.58364],[12.92122,77.58365],[12.92285,77.58373],[12.92425,77.58374],[12.92427,77.58489],[12.92552,77.58491],[12.9263,77.58496],[12.92725,77.58495],[12.92723,77.58533],[12.92865,77.58533],[12.92867,77.58476]],"stops":[{"id":"35343","name":"Jambu Savari Dinne","lat":12.86581,"lon":77.58098,"sequence":1},{"id":"35351","name":"Surabhi Layout","lat":12.86759,"lon":77.58183,"sequence":2},{"id":"30131","name":"BK Circle","lat":12.87067,"lon":77.58316,"sequence":3},{"id":"23469","name":"Kothanur Dinne Water Tank","lat":12.87444,"lon":77.58413,"sequence":4},{"id":"23470","name":"Kothanuru Dinne Ganesha Temple","lat":12.87705,"lon":77.58395,"sequence":5},{"id":"23471","name":"Navodaya Nagara","lat":12.88129,"lon":77.58376,"sequence":6},{"id":"23472","name":"Gowrava Nagara","lat":12.88469,"lon":77.58264,"sequence":7},{"id":"23473","name":"RBI Layout","lat":12.88801,"lon":77.5819,"sequence":8},{"id":"23474","name":"Sri Dharmaraya Circle","lat":12.89224,"lon":77.58172,"sequence":9},{"id":"27792","name":"Puttenahallipalya","lat":12.89562,"lon":77.58173,"sequence":10},{"id":"35349","name":"Puttenahalli","lat":12.89819,"lon":77.58253,"sequence":11},{"id":"27559","name":"Inchara Hotel JP Nagar","lat":12.90252,"lon":77.5832,"sequence":12},{"id":"35347","name":"JP Nagara 15th Cross","lat":12.90707,"lon":77.58567,"sequence":13},{"id":"24042","name":"RV Dental College","lat":12.91137,"lon":77.5857,"sequence":14},{"id":"35074","name":"Marenahalli","lat":12.91552,"lon":77.58575,"sequence":15},{"id":"22920","name":"Jayanagara 5th Block","lat":12.91727,"lon":77.58359,"sequence":16},{"id":"21444","name":"Jayanagara 38th Cross","lat":12.92146,"lon":77.58365,"sequence":17},{"id":"21542","name":"Jayanagara Telephone Exchange","lat":12.92374,"lon":77.58374,"sequence":18},{"id":"23374","name":"Jayanagara Bus Station","lat":12.92864,"lon":77.58475,"sequence":19}]}]}