{"short_name":"222-N JBWH-D12G","long_name":"Jnana Bharathi West Side Hospital ⇔ Depot-12 Gate","directions":[{"direction":"UP","headsign":"Depot-12 Gate","path":[[12.9313,77.48991],[12.93114,77.49047],[12.9311,77.49054],[12.93103,77.49062],[12.93078,77.49067],[12.93068,77.49074],[12.93062,77.49087],[12.92946,77.49068],[12.92873,77.4906],[12.92811,77.49059],[12.92755,77.49044],[12.92727,77.49032],[12.92667,77.49018],[12.92622,77.49004],[12.92542,77.48967],[12.92515,77.48952],[12.92454,77.48938],[12.92421,77.48938],[12.92349,77.48927],[12.92344,77.48924],[12.92318,77.48881],[12.92279,77.48856],[12.92299,77.48804],[12.92349,77.48654],[12.9237,77.48598],[12.92403,77.48502],[12.92264,77.4845],[12.92245,77.48444],[12.92147,77.48409],[12.92075,77.48381],[12.92013,77.48359],[12.9198,77.48346],[12.91914,77.48323],[12.91794,77.48278],[12.91651,77.48226],[12.91628,77.48216],[12.91576,77.48198],[12.9155,77.48188],[12.91537,77.48184],[12.9147,77.48159],[12.91428,77.48141],[12.91411,77.48136],[12.91373,77.48123],[12.91296,77.48094],[12.91216,77.48063],[12.91197,77.48056],[12.91159,77.48041],[12.91087,77.48016],[12.91066,77.48014],[12.91058,77.48015],[12.91041,77.48021],[12.91001,77.48029],[12.90981,77.48031],[12.90967,77.4803],[12.90959,77.48024],[12.9095,77.48016],[12.90944,77.48006],[12.90936,77.47987],[12.90885,77.47843],[12.90865,77.47795],[12.90835,77.47732],[12.90809,77.47713],[12.90799,77.477],[12.90775,77.47658],[12.90752,77.47621],[12.90744,77.476],[12.90724,77.47558],[12.90717,77.4754],[12.90708,77.47506],[12.90693,77.47419],[12.90682,77.47384],[12.9067,77.47359],[12.90658,77.47337],[12.90632,77.47298],[12.90606,77.47265],[12.90572,77.47218],[12.90538,77.47164],[12.90527,77.47148],[12.90492,77.47108],[12.90469,77.47087]],"stops":[{"id":"33161","name":"Jnana Bharathi West Side Hospital","lat":12.9313,"lon":77.48993,"sequence":1},{"id":"28344","name":"Shivanahalli","lat":12.92844,"lon":77.49061,"sequence":2},{"id":"27710","name":"Police Quarters","lat":12.92326,"lon":77.48896,"sequence":3},{"id":"22168","name":"Kengeri Satellite Town","lat":12.92355,"lon":77.48485,"sequence":4},{"id":"21111","name":"Kengeri Railway Station","lat":12.91692,"lon":77.48242,"sequence":5},{"id":"22166","name":"Kengeri Post Office","lat":12.9155,"lon":77.48189,"sequence":6},{"id":"20883","name":"Kommaghatta Junction","lat":12.91444,"lon":77.48149,"sequence":7},{"id":"20781","name":"Kengeri Ganesha Temple","lat":12.91143,"lon":77.48037,"sequence":8},{"id":"35721","name":"Depot-12 Gate","lat":12.90471,"lon":77.47084,"sequence":9}]}]}