{"short_name":"223-H KGR-DNH","long_name":"Dhananayakanahalli ⇔ Kengeri Bus Station","directions":[{"direction":"UP","headsign":"Dhananayakanahalli","path":[[12.91378,77.48711],[12.91357,77.48695],[12.91359,77.48662],[12.9137,77.48629],[12.91311,77.48571],[12.91278,77.48535],[12.91267,77.48525],[12.91259,77.4852],[12.91239,77.48511],[12.91222,77.48507],[12.91142,77.48483],[12.91095,77.48467],[12.91073,77.48454],[12.9105,77.48431],[12.91041,77.48416],[12.91037,77.48407],[12.91033,77.48385],[12.91032,77.48319],[12.91036,77.48243],[12.91029,77.48195],[12.91021,77.48168],[12.91,77.48118],[12.90979,77.48056],[12.90973,77.48049],[12.9097,77.48043],[12.90967,77.48029],[12.90934,77.47942],[12.90915,77.47898],[12.90912,77.47884],[12.90913,77.47875],[12.90916,77.47867],[12.9092,77.47862],[12.90924,77.4786],[12.90934,77.47857],[12.90945,77.47861],[12.90953,77.47869],[12.9097,77.47909],[12.90984,77.47949],[12.91,77.47991],[12.91007,77.48002],[12.91013,77.48007],[12.9103,77.48014],[12.91048,77.48018],[12.91066,77.48014],[12.91088,77.48018],[12.91162,77.48041],[12.912,77.48056],[12.91274,77.48083],[12.91448,77.4815],[12.91462,77.48133],[12.91491,77.48103],[12.91518,77.48071],[12.91547,77.48043],[12.91584,77.48],[12.91605,77.47979],[12.9162,77.47968],[12.91709,77.47927],[12.91724,77.47918],[12.91742,77.47905],[12.91768,77.47883],[12.91785,77.47866],[12.91809,77.47841],[12.91846,77.47799],[12.91927,77.47728],[12.9197,77.47698],[12.92023,77.47658],[12.92069,77.47628],[12.92088,77.47618],[12.92104,77.47612],[12.92148,77.47599],[12.92162,77.47594],[12.92172,77.47586],[12.92179,77.47579],[12.92209,77.47527],[12.92235,77.47479],[12.92285,77.47377],[12.923,77.47349],[12.92313,77.4733],[12.92331,77.47311],[12.923393,77.473045],[12.92406,77.47265],[12.9243,77.47273],[12.92531,77.47301],[12.92658,77.4734],[12.927,77.47355],[12.92924,77.47444],[12.92993,77.47326],[12.92996,77.47324],[12.93,77.47325],[12.93019,77.47337],[12.93073,77.47365],[12.93086,77.4737],[12.931,77.4723],[12.93229,77.47237],[12.93336,77.47244],[12.93444,77.472496],[12.935,77.47254],[12.93504,77.47188],[12.93506,77.47181],[12.93511,77.47178],[12.93516,77.47177],[12.93551,77.47181],[12.93583,77.47186],[12.93599,77.47187],[12.93613,77.47192],[12.9365,77.47197],[12.9369,77.47197],[12.93741,77.47207],[12.93755,77.47079],[12.9376,77.47003],[12.93774,77.46988],[12.93782,77.46976],[12.93787,77.46962],[12.93785,77.46905],[12.93786,77.46876],[12.93794,77.4683],[12.93841,77.46821],[12.93872,77.46798],[12.93885,77.46782]],"stops":[{"id":"20925","name":"Kengeri Bus Station","lat":12.91379,"lon":77.4871,"sequence":1},{"id":"21094","name":"Kengeri Police Station","lat":12.91007,"lon":77.48146,"sequence":2},{"id":"20782","name":"Kengeri Ganesha Temple","lat":12.91126,"lon":77.48029,"sequence":3},{"id":"20882","name":"Kommaghatta Junction","lat":12.91444,"lon":77.48144,"sequence":4},{"id":"28049","name":"Robin Theatre","lat":12.91601,"lon":77.4798,"sequence":5},{"id":"31878","name":"Bande Mutt Gate Kengeri","lat":12.91899,"lon":77.47749,"sequence":6},{"id":"31936","name":"Beedi Karmikara Colony Gate","lat":12.92231,"lon":77.47482,"sequence":7},{"id":"33458","name":"Kengeri Club","lat":12.92351,"lon":77.47287,"sequence":8},{"id":"32315","name":"Chikkanahalli","lat":12.93444,"lon":77.47249,"sequence":9},{"id":"24969","name":"Dhananayakanahalli","lat":12.93885,"lon":77.46781,"sequence":10}]},{"direction":"DOWN","headsign":"Kengeri Bus Station","path":[[12.93885,77.46782],[12.93872,77.46798],[12.93841,77.46821],[12.93794,77.4683],[12.93786,77.46876],[12.93749,77.46876],[12.93689,77.46879],[12.93631,77.46878],[12.93601,77.4688],[12.93544,77.46881],[12.93518,77.46905],[12.93514,77.4691],[12.93485,77.4691],[12.93491,77.46936],[12.93495,77.46988],[12.93494,77.47016],[12.93489,77.47031],[12.93453,77.47109],[12.93448,77.47116],[12.93437,77.47172],[12.93419,77.47249],[12.93455,77.4725],[12.93452,77.47306],[12.93366,77.47301],[12.93329,77.47299],[12.93263,77.47293],[12.93105,77.47284],[12.93091,77.47404],[12.93086,77.4746],[12.9308,77.47471],[12.93077,77.47486],[12.93074,77.47515],[12.92923,77.47452],[12.92657,77.47348],[12.92491,77.47298],[12.92423,77.4728],[12.92412,77.47273],[12.92406,77.47265],[12.92346,77.473],[12.92331,77.47311],[12.92313,77.4733],[12.923,77.47349],[12.92285,77.47377],[12.92235,77.47479],[12.92209,77.47527],[12.92179,77.47579],[12.92172,77.47586],[12.92162,77.47594],[12.92148,77.47599],[12.92104,77.47612],[12.92088,77.47618],[12.92069,77.47628],[12.92023,77.47658],[12.9197,77.47698],[12.91927,77.47728],[12.91846,77.47799],[12.91809,77.47841],[12.91785,77.47866],[12.91768,77.47883],[12.91742,77.47905],[12.91724,77.47918],[12.91709,77.47927],[12.9162,77.47968],[12.91605,77.47979],[12.91584,77.48],[12.91547,77.48043],[12.91518,77.48071],[12.91491,77.48103],[12.91462,77.48133],[12.91448,77.4815],[12.91274,77.48083],[12.912,77.48056],[12.91162,77.48041],[12.91088,77.48018],[12.91066,77.48014],[12.91058,77.48015],[12.91041,77.48021],[12.91023,77.4803],[12.91017,77.48035],[12.91013,77.48043],[12.91011,77.48057],[12.9101,77.4807],[12.91012,77.48094],[12.91018,77.48123],[12.91018,77.48131],[12.91039,77.48187],[12.91044,77.48216],[12.91046,77.48273],[12.91043,77.4834],[12.91043,77.48374],[12.91048,77.48404],[12.91051,77.48412],[12.91066,77.4843],[12.91087,77.48448],[12.911,77.48456],[12.91143,77.48471],[12.91246,77.48501],[12.91266,77.48511],[12.91281,77.48523],[12.91355,77.48601],[12.914039,77.48647]],"stops":[{"id":"24969","name":"Dhananayakanahalli","lat":12.93885,"lon":77.46781,"sequence":1},{"id":"32318","name":"Chikkanahalli","lat":12.93457,"lon":77.47251,"sequence":2},{"id":"31024","name":"Kengeri Club","lat":12.92359,"lon":77.47297,"sequence":3},{"id":"29824","name":"Beedi Karmikara Colony Gate","lat":12.92236,"lon":77.47481,"sequence":4},{"id":"29696","name":"Bande Mutt Gate Kengeri","lat":12.91911,"lon":77.47745,"sequence":5},{"id":"34427","name":"Robin Theatre","lat":12.91605,"lon":77.47982,"sequence":6},{"id":"20883","name":"Kommaghatta Junction","lat":12.91444,"lon":77.48149,"sequence":7},{"id":"20781","name":"Kengeri Ganesha Temple","lat":12.91143,"lon":77.48037,"sequence":8},{"id":"21095","name":"Kengeri Police Station","lat":12.91044,"lon":77.48206,"sequence":9},{"id":"20926","name":"Kengeri Bus Station","lat":12.91406,"lon":77.48645,"sequence":10}]}]}