{"short_name":"225-C BEML5-JNSVS","long_name":"Jnanakshi Vidyaniketan School ⇔ BEML Layout 5th stage","directions":[{"direction":"UP","headsign":"Jnanakshi Vidyaniketan School","path":[[12.906889,77.52136],[12.90686,77.52109],[12.91,77.52104],[12.91119,77.52093],[12.91271,77.52081],[12.91368,77.52075],[12.91477,77.52066],[12.91474,77.52024],[12.91473,77.51981],[12.91474,77.51941],[12.91498,77.5173],[12.91518,77.51574],[12.91526,77.51526],[12.91536,77.5145],[12.91544,77.51376],[12.91545,77.51352],[12.91477,77.51352],[12.91447,77.51354],[12.91344,77.51371],[12.91286,77.51373],[12.91214,77.5137]],"stops":[{"id":"29871","name":"BEML Layout 5th stage","lat":12.90685,"lon":77.52137,"sequence":1},{"id":"33643","name":"Kuvempu Circle","lat":12.90994,"lon":77.521,"sequence":2},{"id":"25151","name":"Double Road BEML Layout","lat":12.91478,"lon":77.52064,"sequence":3},{"id":"30429","name":"Jnanakshi Layout","lat":12.91296,"lon":77.51365,"sequence":4},{"id":"36741","name":"Jnanakshi Vidyaniketan School","lat":12.91215,"lon":77.51376,"sequence":5}]},{"direction":"DOWN","headsign":"BEML Layout 5th stage","path":[[12.911847,77.51356],[12.91286,77.51361],[12.91315,77.51363],[12.9134,77.51362],[12.91447,77.51345],[12.91557,77.51341],[12.91555,77.51377],[12.91547,77.51453],[12.91526,77.51603],[12.91485,77.5194],[12.91485,77.5198],[12.9149,77.52065],[12.91368,77.52075],[12.91271,77.52081],[12.91119,77.52093],[12.91,77.52104],[12.90686,77.52109],[12.906889,77.52136]],"stops":[{"id":"36742","name":"Jnanakshi Vidyaniketan School","lat":12.91185,"lon":77.51349,"sequence":1},{"id":"33165","name":"Jnanakshi Layout","lat":12.91291,"lon":77.51358,"sequence":2},{"id":"32567","name":"Double Road BEML Layout","lat":12.91492,"lon":77.52067,"sequence":3},{"id":"33644","name":"Kuvempu Circle","lat":12.90995,"lon":77.52104,"sequence":4},{"id":"29871","name":"BEML Layout 5th stage","lat":12.90685,"lon":77.52137,"sequence":5}]}]}