{"short_name":"225-C BEML5-JNKLO","long_name":"Jnanakshi Layout ⇔ BEML Layout 5th Stage","directions":[{"direction":"UP","headsign":"Jnanakshi Layout","path":[[12.90684,77.52106],[12.90784,77.52104],[12.9082,77.52106],[12.90867,77.52103],[12.90955,77.52102],[12.91054,77.52096],[12.91096,77.52092],[12.91115,77.52091],[12.91215,77.52084],[12.91304,77.52077],[12.91417,77.5207],[12.91454,77.52067],[12.9148,77.52066],[12.91474,77.51944],[12.91499,77.51732],[12.9151,77.51656],[12.91518,77.51588],[12.91528,77.51527],[12.91538,77.5145],[12.91547,77.51376],[12.91548,77.51347],[12.91507,77.51349],[12.91498,77.51353],[12.91447,77.51356],[12.91322,77.51372],[12.91298,77.51373]],"stops":[{"id":"35925","name":"BEML Layout 5th Stage","lat":12.90692,"lon":77.52105,"sequence":1},{"id":"33643","name":"Kuvempu Circle","lat":12.90994,"lon":77.521,"sequence":2},{"id":"25151","name":"Double Road BEML Layout","lat":12.91478,"lon":77.52064,"sequence":3},{"id":"30429","name":"Jnanakshi Layout","lat":12.91296,"lon":77.51365,"sequence":4}]},{"direction":"DOWN","headsign":"BEML Layout 5th Stage","path":[[12.91287,77.51363],[12.91322,77.51364],[12.9135,77.51362],[12.91414,77.51353],[12.91479,77.51346],[12.91498,77.51346],[12.91507,77.51349],[12.91558,77.51347],[12.91557,77.51377],[12.91549,77.51453],[12.91532,77.51568],[12.91483,77.51943],[12.91489,77.52043],[12.91489,77.52066],[12.91454,77.52067],[12.91417,77.5207],[12.91304,77.52077],[12.91115,77.52091],[12.91096,77.52092],[12.91054,77.52096],[12.90955,77.52102],[12.90867,77.52103],[12.9082,77.52106],[12.90784,77.52104],[12.90684,77.52106]],"stops":[{"id":"33165","name":"Jnanakshi Layout","lat":12.91291,"lon":77.51358,"sequence":1},{"id":"32566","name":"Double Road BEML Layout","lat":12.91559,"lon":77.51341,"sequence":2},{"id":"32567","name":"Double Road BEML Layout","lat":12.91492,"lon":77.52067,"sequence":3},{"id":"33644","name":"Kuvempu Circle","lat":12.90995,"lon":77.52104,"sequence":4},{"id":"35925","name":"BEML Layout 5th Stage","lat":12.90692,"lon":77.52105,"sequence":5}]}]}