{"short_name":"225-G BGPN-BEML5","long_name":"BEML Layout 5th stage ⇔ Bangarappa Nagara","directions":[{"direction":"UP","headsign":"BEML Layout 5th stage","path":[[12.924775,77.52635],[12.92499,77.52623],[12.92519,77.5262],[12.92527,77.52604],[12.92525,77.52599],[12.92541,77.52551],[12.92552,77.52501],[12.92555,77.52471],[12.92554,77.52447],[12.92541,77.52384],[12.92528,77.52336],[12.92522,77.52308],[12.92512,77.52308],[12.92329,77.52256],[12.92379,77.52136],[12.92276,77.52092],[12.92259,77.52071],[12.92237,77.52067],[12.9207,77.52049],[12.92028,77.52043],[12.92015,77.52043],[12.92,77.52039],[12.91969,77.52023],[12.91957,77.52029],[12.91869,77.52038],[12.91814,77.5204],[12.91782,77.52041],[12.91731,77.52044],[12.91481,77.52066],[12.91454,77.52067],[12.91304,77.52074],[12.91158,77.52091],[12.91119,77.52094],[12.91076,77.52094],[12.91,77.52102],[12.90887,77.52101],[12.90786,77.52104],[12.90686,77.52101],[12.906889,77.52136]],"stops":[{"id":"29703","name":"Bangarappa Nagara","lat":12.92477,"lon":77.52634,"sequence":1},{"id":"29870","name":"BEML Complex","lat":12.91968,"lon":77.52026,"sequence":2},{"id":"32567","name":"Double Road BEML Layout","lat":12.91492,"lon":77.52067,"sequence":3},{"id":"29871","name":"BEML Layout 5th stage","lat":12.90685,"lon":77.52137,"sequence":4}]},{"direction":"DOWN","headsign":"Bangarappa Nagara","path":[[12.906889,77.52136],[12.90686,77.52101],[12.90786,77.52104],[12.90887,77.52101],[12.91,77.52102],[12.91076,77.52094],[12.91119,77.52094],[12.91158,77.52091],[12.91304,77.52074],[12.91454,77.52067],[12.91481,77.52066],[12.91731,77.52044],[12.91782,77.52041],[12.91814,77.5204],[12.91869,77.52038],[12.91957,77.52029],[12.91969,77.52023],[12.92,77.52039],[12.92015,77.52043],[12.92028,77.52043],[12.9207,77.52049],[12.92237,77.52067],[12.92259,77.52071],[12.92276,77.52092],[12.92379,77.52136],[12.92329,77.52256],[12.92512,77.52308],[12.92522,77.52308],[12.92529,77.52305],[12.92549,77.52381],[12.92562,77.52444],[12.92563,77.5247],[12.92561,77.52501],[12.92549,77.52554],[12.92533,77.526],[12.92527,77.52604],[12.92519,77.5262],[12.92499,77.52623],[12.924775,77.52635]],"stops":[{"id":"29871","name":"BEML Layout 5th stage","lat":12.90685,"lon":77.52137,"sequence":1},{"id":"33643","name":"Kuvempu Circle","lat":12.90994,"lon":77.521,"sequence":2},{"id":"25151","name":"Double Road BEML Layout","lat":12.91478,"lon":77.52064,"sequence":3},{"id":"31960","name":"BEML Complex","lat":12.91963,"lon":77.52023,"sequence":4},{"id":"29703","name":"Bangarappa Nagara","lat":12.92477,"lon":77.52634,"sequence":5}]}]}