{"short_name":"238-UC D31G-VSL","long_name":"Sir M Vishweshwaraiah Layout 9th Blk Mallathahalli ⇔ Depot-31 Gate","directions":[{"direction":"UP","headsign":"Sir M Vishweshwaraiah Layout 9th Blk Mallathahalli","path":[[12.9931,77.52146],[12.99265,77.52128],[12.99161,77.52092],[12.99117,77.52079],[12.99088,77.52079],[12.99018,77.52058],[12.98801,77.51984],[12.98784,77.51979],[12.98722,77.51956],[12.98735,77.51926],[12.98779,77.51799],[12.98813,77.51722],[12.98818,77.51706],[12.98826,77.51666],[12.98827,77.51639],[12.98824,77.51616],[12.98819,77.51598],[12.98795,77.51535],[12.9878,77.51487],[12.98773,77.51448],[12.98772,77.51386],[12.98775,77.51345],[12.98781,77.51298],[12.98793,77.51241],[12.98733,77.51218],[12.98674,77.51197],[12.98621,77.51174],[12.98553,77.51135],[12.98542,77.51128],[12.98513,77.51105],[12.98493,77.51092],[12.98477,77.51086],[12.98454,77.5108],[12.98418,77.51079],[12.98366,77.51084],[12.9833,77.51091],[12.98269,77.51109],[12.98245,77.51111],[12.98184,77.51108],[12.98089,77.51106],[12.98053,77.51103],[12.9803,77.51098],[12.97978,77.51081],[12.97943,77.51072],[12.97823,77.51044],[12.97714,77.5102],[12.97642,77.51],[12.97537,77.50965],[12.97448,77.5093],[12.97408,77.50912],[12.97331,77.50866],[12.97213,77.5079],[12.972,77.50782],[12.97067,77.50688],[12.97051,77.5068],[12.97029,77.5067],[12.96981,77.50653],[12.96883,77.50615],[12.96777,77.50566],[12.96761,77.50558],[12.96654,77.50513],[12.96621,77.50503],[12.96581,77.50495],[12.96524,77.5049],[12.96478,77.5049],[12.96448,77.50493],[12.96357,77.50514],[12.963343,77.505135],[12.96284,77.50504],[12.96127,77.50466],[12.96068,77.50449],[12.960213,77.50431],[12.95953,77.50406],[12.95833,77.5036],[12.95801,77.50345],[12.95756,77.50326],[12.95819,77.50164],[12.95836,77.50135],[12.95856,77.50108],[12.95947,77.5016],[12.9602,77.50188],[12.96096,77.50213],[12.961,77.50177],[12.96098,77.50161],[12.96109,77.5011],[12.9612,77.50067],[12.96208,77.49757],[12.9623,77.4964],[12.96241,77.49559]],"stops":[{"id":"21887","name":"Depot-31 Gate","lat":12.99306,"lon":77.52146,"sequence":1},{"id":"21204","name":"Summanahalli","lat":12.98739,"lon":77.51914,"sequence":2},{"id":"20937","name":"Kottigepalya","lat":12.98787,"lon":77.51509,"sequence":3},{"id":"22614","name":"Vokkaliga School Kottigepalya","lat":12.98622,"lon":77.51176,"sequence":4},{"id":"35404","name":"BDA Complex Nagarabhavi","lat":12.97938,"lon":77.51073,"sequence":5},{"id":"21642","name":"Papareddypalya Aladamara","lat":12.97518,"lon":77.5096,"sequence":6},{"id":"22374","name":"Papareddypalya","lat":12.97207,"lon":77.50791,"sequence":7},{"id":"35406","name":"Deepa Complex","lat":12.96636,"lon":77.50508,"sequence":8},{"id":"21643","name":"Ambedkar Institute of Technology","lat":12.96338,"lon":77.50515,"sequence":9},{"id":"22169","name":"Kengunte Circle (IIPM)","lat":12.96045,"lon":77.50441,"sequence":10},{"id":"25166","name":"Durga Bakery Mallathahallli","lat":12.96098,"lon":77.50162,"sequence":11},{"id":"33064","name":"ITI Layout Cross","lat":12.96189,"lon":77.49811,"sequence":12},{"id":"26495","name":"Sir M Vishweshwaraiah Layout 9th Blk Mallathahalli","lat":12.96233,"lon":77.49634,"sequence":13}]}]}