{"short_name":"238-U KBS-CLO","long_name":"Chandra Layout ⇔ Kempegowda Bus Station","directions":[{"direction":"UP","headsign":"Chandra Layout","path":[[12.97751,77.57141],[12.97749,77.57098],[12.97934,77.5711],[12.97987,77.57115],[12.97988,77.57106],[12.97992,77.57101],[12.97998,77.57098],[12.98002,77.57098],[12.98005,77.57099],[12.98034,77.57079],[12.98047,77.57072],[12.98071,77.57063],[12.98108,77.57058],[12.98124,77.57053],[12.98183,77.57015],[12.98209,77.56993],[12.98224,77.56976],[12.98232,77.56961],[12.98235,77.56951],[12.9825,77.56884],[12.98251,77.5687],[12.98249,77.56856],[12.98241,77.56816],[12.98214,77.56732],[12.98198,77.56677],[12.98192,77.5664],[12.98189,77.56637],[12.98185,77.56626],[12.98182,77.56606],[12.98182,77.56589],[12.98186,77.56548],[12.98195,77.56486],[12.98195,77.56478],[12.98194,77.5647],[12.98191,77.56463],[12.98186,77.56457],[12.9818,77.56452],[12.98167,77.56446],[12.98132,77.56442],[12.97972,77.56444],[12.97926,77.56446],[12.97898,77.56453],[12.97809,77.56486],[12.97788,77.56489],[12.9776,77.56486],[12.97733,77.56482],[12.97601,77.56454],[12.97586,77.56444],[12.97578,77.5643],[12.97574,77.56396],[12.97572,77.56359],[12.97571,77.56331],[12.97572,77.56323],[12.97566,77.56258],[12.97568,77.56173],[12.97565,77.56164],[12.97564,77.56154],[12.9757,77.56031],[12.97572,77.55932],[12.97568,77.55768],[12.97553,77.5547],[12.97543,77.55335],[12.9754,77.55322],[12.97528,77.55292],[12.97489,77.55227],[12.97482,77.55216],[12.97434,77.55157],[12.97417,77.55133],[12.97389,77.55089],[12.97384,77.55079],[12.97378,77.55061],[12.97373,77.55028],[12.97375,77.55008],[12.97378,77.54996],[12.97386,77.54975],[12.97398,77.54953],[12.974376,77.54903],[12.9749,77.54842],[12.97452,77.54812],[12.97435,77.54793],[12.97413,77.54765],[12.97408,77.54752],[12.97406,77.54741],[12.97402,77.54664],[12.97401,77.54531],[12.97399,77.54466],[12.97381,77.54329],[12.97394,77.54324],[12.97361,77.54192],[12.97344,77.54098],[12.97311,77.53947],[12.97297,77.53906],[12.97289,77.53888],[12.97278,77.5387],[12.97257,77.53839],[12.97234,77.53815],[12.97221,77.53804],[12.971962,77.53787],[12.97187,77.53783],[12.971,77.53748],[12.97076,77.53737],[12.97007,77.53707],[12.96884,77.53666],[12.96754,77.53618],[12.96604,77.53556],[12.96457,77.5349],[12.96434,77.53481],[12.96087,77.53332],[12.9605,77.53319],[12.96027,77.53316],[12.96005,77.53317],[12.95996,77.5323],[12.95993,77.53164],[12.95996,77.53145],[12.96019,77.5309],[12.96035,77.53041],[12.96049,77.52987],[12.96054,77.52961],[12.95876,77.52896],[12.95757,77.52859],[12.95703,77.52837],[12.95746,77.52776],[12.9576,77.52754],[12.95825,77.52632],[12.959249,77.52671]],"stops":[{"id":"20921","name":"Kempegowda Bus Station","lat":12.97751,"lon":77.57141,"sequence":1},{"id":"35387","name":"Okalipura","lat":12.98229,"lon":77.56783,"sequence":2},{"id":"21025","name":"Minerva Mill","lat":12.9795,"lon":77.56445,"sequence":3},{"id":"20577","name":"Magadi Road 1st Cross","lat":12.97569,"lon":77.563,"sequence":4},{"id":"20584","name":"Magadi Road 5th Cross","lat":12.97567,"lon":77.56081,"sequence":5},{"id":"20558","name":"Magadi Road 10th Cross","lat":12.97556,"lon":77.55562,"sequence":6},{"id":"38801","name":"Magadi Road Metro Station","lat":12.97553,"lon":77.55486,"sequence":7},{"id":"21101","name":"Prasanna Theatre","lat":12.97401,"lon":77.55122,"sequence":8},{"id":"20975","name":"Magadi Road TollGate","lat":12.97458,"lon":77.54876,"sequence":9},{"id":"20996","name":"Manuvana","lat":12.97401,"lon":77.54656,"sequence":10},{"id":"21269","name":"Vijayanagara Vijaya Bank","lat":12.97359,"lon":77.54155,"sequence":11},{"id":"21623","name":"Vijayanagara","lat":12.97197,"lon":77.53786,"sequence":12},{"id":"21010","name":"Maruthi Mandira","lat":12.96784,"lon":77.53629,"sequence":13},{"id":"21267","name":"Vijayanagara Bus Station","lat":12.966,"lon":77.53555,"sequence":14},{"id":"20852","name":"Income Tax Layout","lat":12.96007,"lon":77.53112,"sequence":15},{"id":"20714","name":"Chandra Public School","lat":12.96046,"lon":77.52963,"sequence":16},{"id":"20779","name":"Ganesha Temple Chandra Layout","lat":12.95803,"lon":77.52876,"sequence":17},{"id":"20712","name":"Chandra Layout Circle","lat":12.95815,"lon":77.5265,"sequence":18},{"id":"22776","name":"Chandra Layout","lat":12.95925,"lon":77.52671,"sequence":19}]},{"direction":"DOWN","headsign":"Kempegowda Bus Station","path":[[12.959249,77.52671],[12.95832,77.52635],[12.95783,77.52737],[12.95757,77.52781],[12.95731,77.52819],[12.95736,77.52836],[12.95741,77.52843],[12.95757,77.52859],[12.95876,77.52896],[12.96054,77.52961],[12.96042,77.53015],[12.96025,77.53074],[12.95996,77.53145],[12.95993,77.53164],[12.95993,77.53184],[12.95996,77.5323],[12.96003,77.53301],[12.9603,77.533],[12.96074,77.5331],[12.96192,77.53357],[12.9634,77.53421],[12.96462,77.53472],[12.96478,77.53458],[12.96615,77.53517],[12.9661,77.53534],[12.96759,77.53601],[12.96887,77.53655],[12.97004,77.53693],[12.97105,77.53728],[12.97213,77.53776],[12.97255,77.53802],[12.97268,77.53813],[12.97284,77.5383],[12.97309,77.53869],[12.97321,77.53902],[12.97373,77.54117],[12.97391,77.54229],[12.97401,77.54267],[12.97411,77.54318],[12.97415,77.54349],[12.97424,77.54474],[12.97445,77.54482],[12.97443,77.54698],[12.97449,77.54769],[12.97452,77.54775],[12.97457,77.5478],[12.97478,77.54798],[12.97492,77.54809],[12.9751,77.54824],[12.97521,77.54832],[12.975,77.54849],[12.97416,77.54951],[12.97386,77.55002],[12.97381,77.55022],[12.97382,77.55045],[12.97387,77.55062],[12.97397,77.55085],[12.97412,77.55111],[12.97441,77.55152],[12.97491,77.55215],[12.97516,77.5525],[12.97529,77.55271],[12.97545,77.55305],[12.97554,77.55348],[12.9757,77.55625],[12.97579,77.55865],[12.97578,77.56032],[12.97572,77.56163],[12.97568,77.56173],[12.97566,77.56258],[12.97572,77.56323],[12.97576,77.56331],[12.97583,77.56426],[12.97587,77.56436],[12.97595,77.56443],[12.97599,77.56446],[12.9761,77.5645],[12.97717,77.56472],[12.97774,77.56482],[12.97798,77.56481],[12.9781,77.56478],[12.97896,77.56445],[12.97927,77.56438],[12.979451,77.56436],[12.97982,77.56436],[12.98171,77.56427],[12.98187,77.5643],[12.98202,77.56439],[12.98212,77.56451],[12.98217,77.56463],[12.98218,77.56469],[12.98201,77.56585],[12.98197,77.56635],[12.98201,77.56658],[12.98235,77.56764],[12.98255,77.56817],[12.98287,77.56882],[12.98292,77.569],[12.98297,77.56935],[12.98296,77.56951],[12.98293,77.56963],[12.98281,77.56982],[12.98246,77.57021],[12.98242,77.57028],[12.9824,77.57035],[12.98239,77.57051],[12.9824,77.57056],[12.98243,77.57063],[12.98248,77.57069],[12.98257,77.57078],[12.98265,77.57084],[12.98275,77.57089],[12.98319,77.57105],[12.98343,77.57118],[12.98375,77.5714],[12.98449,77.57181],[12.98459,77.57188],[12.9851,77.57208],[12.98455,77.57227],[12.98364,77.57256],[12.98344,77.57261],[12.98301,77.57274],[12.98279,77.57274],[12.98214,77.5726],[12.9806,77.5723],[12.98032,77.5723],[12.97996,77.57227],[12.97973,77.5723],[12.97952,77.57239],[12.97939,77.57248],[12.97856,77.57314],[12.97746,77.57411],[12.97749,77.57327]],"stops":[{"id":"22776","name":"Chandra Layout","lat":12.95925,"lon":77.52671,"sequence":1},{"id":"20713","name":"Chandra Layout Circle","lat":12.95817,"lon":77.52669,"sequence":2},{"id":"20780","name":"Ganesha Temple Chandra Layout","lat":12.95772,"lon":77.52863,"sequence":3},{"id":"20715","name":"Chandra Public School","lat":12.96029,"lon":77.52954,"sequence":4},{"id":"20853","name":"Income Tax Layout","lat":12.96014,"lon":77.53108,"sequence":5},{"id":"39679","name":"Attiguppe Metro Station","lat":12.96245,"lon":77.53377,"sequence":6},{"id":"35395","name":"Vijayanagara Bus Station","lat":12.96558,"lon":77.53492,"sequence":7},{"id":"21011","name":"Maruthi Mandira","lat":12.96783,"lon":77.53611,"sequence":8},{"id":"21266","name":"Vijayanagara","lat":12.97192,"lon":77.53766,"sequence":9},{"id":"20997","name":"Manuvana","lat":12.97431,"lon":77.54454,"sequence":10},{"id":"20976","name":"Magadi Road TollGate","lat":12.97462,"lon":77.54898,"sequence":11},{"id":"21102","name":"Prasanna Theatre","lat":12.97542,"lon":77.55288,"sequence":12},{"id":"38800","name":"Magadi Road Metro Station","lat":12.97562,"lon":77.55479,"sequence":13},{"id":"20559","name":"Magadi Road 10th Cross","lat":12.97574,"lon":77.55706,"sequence":14},{"id":"20585","name":"Magadi Road 5th Cross","lat":12.97578,"lon":77.56071,"sequence":15},{"id":"20578","name":"Magadi Road 1st Cross","lat":12.97569,"lon":77.5628,"sequence":16},{"id":"21026","name":"Minerva Mill","lat":12.97945,"lon":77.56435,"sequence":17},{"id":"21071","name":"Okalipura","lat":12.98267,"lon":77.56837,"sequence":18},{"id":"20922","name":"Kempegowda Bus Station","lat":12.97749,"lon":77.57327,"sequence":19}]}]}