{"short_name":"248-A","long_name":"Laggere New Bus Stand ⇔ Jalahalli Cross","directions":[{"direction":"UP","headsign":"Laggere New Bus Stand","path":[[13.03956,77.51837],[13.03903,77.51829],[13.03786,77.51826],[13.03721,77.5183],[13.03656,77.51832],[13.03614,77.5183],[13.03556,77.51817],[13.03519,77.51807],[13.03443,77.51791],[13.03406,77.51787],[13.03333,77.51787],[13.03319,77.51789],[13.0329,77.51796],[13.03271,77.51803],[13.03163,77.51845],[13.03091,77.51875],[13.03026,77.519],[13.02993,77.51914],[13.02928,77.51939],[13.02903,77.5195],[13.02845,77.51979],[13.02734,77.52021],[13.02712,77.52031],[13.02594,77.5208],[13.02456,77.52128],[13.02409,77.5215],[13.02392,77.5216],[13.02381,77.52169],[13.023618,77.52193],[13.02344,77.52218],[13.02323,77.52251],[13.02303,77.52287],[13.02282,77.52322],[13.02273,77.52338],[13.02265,77.52357],[13.02149,77.52236],[13.02103,77.52182],[13.02019,77.5209],[13.02004,77.52077],[13.01987,77.52067],[13.01982,77.52065],[13.01953,77.52052],[13.01925,77.52042],[13.01919,77.5204],[13.01884,77.52022],[13.01871,77.52017],[13.01862,77.52018],[13.01843,77.52024],[13.01829,77.52027],[13.01777,77.52029],[13.01648,77.5203],[13.01575,77.52035],[13.01451,77.52065],[13.01418,77.52075],[13.01334,77.52097],[13.01275,77.52117],[13.01262,77.52125],[13.01245,77.5214],[13.01229,77.52162],[13.01207,77.52185],[13.01191,77.52198],[13.01177,77.52207],[13.01156,77.52214],[13.01095,77.52212],[13.0109,77.52217],[13.01083,77.52218],[13.0108,77.52242],[13.01064,77.5233],[13.01054,77.5242],[13.01042,77.52474],[13.01054,77.52486],[13.01054,77.52504]],"stops":[{"id":"20870","name":"Jalahalli Cross","lat":13.03959,"lon":77.51839,"sequence":1},{"id":"21210","name":"Systems Peenya","lat":13.03506,"lon":77.51806,"sequence":2},{"id":"27085","name":"TVS Cross Peenya","lat":13.02837,"lon":77.51984,"sequence":3},{"id":"34264","name":"Rajagopala Nagara Police Station","lat":13.02362,"lon":77.52196,"sequence":4},{"id":"28442","name":"Laggere Cross","lat":13.02245,"lon":77.5234,"sequence":5},{"id":"28964","name":"MEI Colony Laggere","lat":13.01998,"lon":77.52075,"sequence":6},{"id":"34226","name":"Parvathi Nagara","lat":13.01629,"lon":77.52032,"sequence":7},{"id":"35519","name":"Aladamara Laggere","lat":13.01332,"lon":77.52098,"sequence":8},{"id":"28443","name":"Laggere New Bus Stand","lat":13.01054,"lon":77.52504,"sequence":9}]},{"direction":"DOWN","headsign":"Jalahalli Cross","path":[[13.01054,77.52504],[13.01046,77.52526],[13.01028,77.52532],[13.010294,77.52532],[13.01031,77.52526],[13.01034,77.52501],[13.01042,77.52474],[13.01054,77.5242],[13.01064,77.5233],[13.01082,77.52229],[13.01083,77.52218],[13.01079,77.52217],[13.01073,77.52213],[13.01071,77.5221],[13.0107,77.52205],[13.01074,77.52195],[13.01079,77.52192],[13.0109,77.52192],[13.01094,77.52195],[13.01145,77.5214],[13.01152,77.52134],[13.01166,77.52128],[13.0119,77.52128],[13.01245,77.5214],[13.01262,77.52125],[13.01275,77.52117],[13.01334,77.52097],[13.01418,77.52075],[13.01451,77.52065],[13.01575,77.52035],[13.01648,77.5203],[13.01777,77.52029],[13.01829,77.52027],[13.01843,77.52024],[13.01862,77.52018],[13.01871,77.52017],[13.01884,77.52022],[13.01919,77.5204],[13.01925,77.52042],[13.01953,77.52052],[13.01982,77.52065],[13.01987,77.52067],[13.02004,77.52077],[13.02012,77.52083],[13.02103,77.52182],[13.02149,77.52236],[13.02258,77.52349],[13.02294,77.52283],[13.02317,77.52245],[13.02367,77.52172],[13.02377,77.52161],[13.02388,77.52153],[13.0242,77.52136],[13.02451,77.52122],[13.0256,77.52082],[13.02605,77.52066],[13.02673,77.52037],[13.02785,77.51993],[13.02838,77.5197],[13.028686,77.519585],[13.02868,77.51957],[13.02867,77.51971],[13.02873,77.51971],[13.02941,77.51983],[13.03038,77.52007],[13.03076,77.52016],[13.03113,77.52026],[13.03148,77.52032],[13.03342,77.52074],[13.03487,77.52111],[13.03569,77.52127],[13.03641,77.52144],[13.03687,77.52153],[13.03713,77.52159],[13.03748,77.5217],[13.03769,77.52179],[13.03782,77.52189],[13.03922,77.5194],[13.03966,77.51859],[13.03965,77.51849],[13.03956,77.51837]],"stops":[{"id":"28443","name":"Laggere New Bus Stand","lat":13.01054,"lon":77.52504,"sequence":1},{"id":"29476","name":"Aladamara Laggere","lat":13.01327,"lon":77.52095,"sequence":2},{"id":"34225","name":"Parvathi Nagara","lat":13.01623,"lon":77.5203,"sequence":3},{"id":"33916","name":"MEI Colony Laggere","lat":13.01996,"lon":77.5207,"sequence":4},{"id":"33651","name":"Laggere Cross","lat":13.02265,"lon":77.52348,"sequence":5},{"id":"27712","name":"Rajagopala Nagara Police Station","lat":13.02356,"lon":77.52182,"sequence":6},{"id":"21236","name":"TVS Cross Peenya","lat":13.02868,"lon":77.51957,"sequence":7},{"id":"20870","name":"Jalahalli Cross","lat":13.03959,"lon":77.51839,"sequence":8}]}]}