{"short_name":"248-AB NGSMS-CKB","long_name":"Chikka Banavara ⇔ Nagasandra Metro Station","directions":[{"direction":"UP","headsign":"Chikka Banavara","path":[[13.048117,77.499596],[13.04781,77.50052],[13.04749,77.50141],[13.04736,77.50173],[13.04614,77.50523],[13.04581,77.50642],[13.04571,77.50667],[13.04565,77.50699],[13.04556,77.50731],[13.04584,77.50748],[13.04609,77.50759],[13.04709,77.50797],[13.04726,77.50801],[13.04747,77.508],[13.04792,77.5079],[13.04821,77.50784],[13.04851,77.50777],[13.04898,77.50767],[13.04929,77.50762],[13.04972,77.50762],[13.05003,77.50764],[13.05084,77.50773],[13.05148,77.50777],[13.05156,77.50778],[13.05217,77.50783],[13.05269,77.50781],[13.05295,77.50778],[13.05395,77.50762],[13.05482,77.50753],[13.05533,77.50749],[13.05575,77.50744],[13.05591,77.50742],[13.05624,77.50735],[13.05664,77.50727],[13.05715,77.50714],[13.05779,77.50703],[13.05875,77.50693],[13.05979,77.50688],[13.06063,77.50681],[13.06096,77.50676],[13.06106,77.50672],[13.06151,77.50648],[13.06301,77.50555],[13.06308,77.50554],[13.06331,77.5054],[13.06382,77.50507],[13.06467,77.50456],[13.06533,77.50413],[13.06554,77.50398],[13.06568,77.50385],[13.06597,77.50365],[13.06632,77.50342],[13.06658,77.50331],[13.06675,77.50329],[13.06704,77.50332],[13.06899,77.50363],[13.07075,77.50389],[13.07086,77.50389],[13.07098,77.50388],[13.07127,77.50382],[13.07236,77.50332],[13.07268,77.5032],[13.07316,77.50307],[13.07335,77.50305],[13.07343,77.50306],[13.07366,77.50316],[13.07393,77.50336],[13.07502,77.50428],[13.07512,77.50438],[13.07516,77.50445],[13.07546,77.50466],[13.07557,77.50468],[13.07562,77.50466],[13.07567,77.50462],[13.07646,77.50381],[13.0768,77.50349],[13.07743,77.503],[13.07767,77.50279],[13.07821,77.50227],[13.07887,77.50161],[13.07904,77.5015],[13.0791,77.50149],[13.07921,77.50152],[13.07959,77.50183],[13.08028,77.50232],[13.08042,77.50244],[13.08054,77.50258]],"stops":[{"id":"29231","name":"Nagasandra Metro Staiton","lat":13.04817,"lon":77.49961,"sequence":1},{"id":"20593","name":"8th Mile Dasarahalli","lat":13.04622,"lon":77.50755,"sequence":2},{"id":"21278","name":"Widia School","lat":13.0511,"lon":77.50773,"sequence":3},{"id":"20620","name":"Bagalagunte","lat":13.05657,"lon":77.50728,"sequence":4},{"id":"20678","name":"Bone Mill","lat":13.06385,"lon":77.50503,"sequence":5},{"id":"21154","name":"Sapthagiri College","lat":13.06685,"lon":77.50328,"sequence":6},{"id":"21156","name":"Sapthagiri Hospital","lat":13.07067,"lon":77.50387,"sequence":7},{"id":"20872","name":"Janapriya Apartment","lat":13.07349,"lon":77.50307,"sequence":8},{"id":"21108","name":"Chikkabanavara Railway Station","lat":13.07543,"lon":77.50464,"sequence":9},{"id":"20718","name":"Chikka Banavara","lat":13.08046,"lon":77.50248,"sequence":10}]},{"direction":"DOWN","headsign":"Nagasandra Metro Station","path":[[13.08054,77.50258],[13.08042,77.50244],[13.08028,77.50232],[13.07959,77.50183],[13.07921,77.50152],[13.0791,77.50149],[13.07904,77.5015],[13.07887,77.50161],[13.07821,77.50227],[13.07767,77.50279],[13.07743,77.503],[13.0768,77.50349],[13.07646,77.50381],[13.07567,77.50462],[13.07562,77.50466],[13.07557,77.50468],[13.07546,77.50466],[13.0752,77.50448],[13.07504,77.50438],[13.07394,77.50347],[13.07367,77.50328],[13.0736,77.50324],[13.07352,77.5032],[13.07338,77.50316],[13.07323,77.50315],[13.07295,77.50319],[13.07245,77.50336],[13.07128,77.50389],[13.07119,77.50392],[13.07089,77.50396],[13.07073,77.50396],[13.06899,77.50371],[13.06884,77.50369],[13.06859,77.50365],[13.06754,77.50348],[13.06684,77.50336],[13.06667,77.50335],[13.0665,77.50341],[13.0663,77.50352],[13.06571,77.50389],[13.06563,77.50391],[13.06554,77.50398],[13.06467,77.50456],[13.06382,77.50507],[13.06308,77.50554],[13.06304,77.50561],[13.06242,77.50599],[13.06155,77.50656],[13.06108,77.50681],[13.06095,77.50685],[13.06064,77.50688],[13.05981,77.50698],[13.05913,77.507],[13.05851,77.50704],[13.05778,77.50713],[13.05758,77.50714],[13.05736,77.50718],[13.05681,77.5073],[13.05607,77.50749],[13.05415,77.50768],[13.05255,77.50791],[13.05208,77.50791],[13.05156,77.50786],[13.0511,77.50784],[13.05062,77.50779],[13.05008,77.50775],[13.04971,77.5077],[13.04933,77.50769],[13.04873,77.50779],[13.04757,77.50805],[13.04739,77.50808],[13.04717,77.50807],[13.04694,77.508],[13.04568,77.50749],[13.04539,77.50733],[13.04525,77.50723],[13.0452,77.50715],[13.04532,77.50679],[13.04586,77.50489],[13.04613,77.50415],[13.04652,77.50293],[13.047016,77.50158],[13.0473,77.50087],[13.047767,77.49946]],"stops":[{"id":"20717","name":"Chikka Banavara","lat":13.08043,"lon":77.5026,"sequence":1},{"id":"21109","name":"Chikkabanavara Railway Station","lat":13.07547,"lon":77.50469,"sequence":2},{"id":"20873","name":"Janapriya Apartment","lat":13.07319,"lon":77.50318,"sequence":3},{"id":"21157","name":"Sapthagiri Hospital","lat":13.07066,"lon":77.50395,"sequence":4},{"id":"21155","name":"Sapthagiri College","lat":13.06675,"lon":77.50335,"sequence":5},{"id":"20676","name":"Bone Mill","lat":13.06385,"lon":77.50508,"sequence":6},{"id":"20619","name":"Bagalagunte","lat":13.05665,"lon":77.50735,"sequence":7},{"id":"21279","name":"Widia School","lat":13.05126,"lon":77.50786,"sequence":8},{"id":"20594","name":"8th Mile Dasarahalli","lat":13.04541,"lon":77.50795,"sequence":9},{"id":"24818","name":"Deepak Factory","lat":13.04704,"lon":77.50159,"sequence":10},{"id":"34055","name":"Nagasandra Metro Station","lat":13.04779,"lon":77.49947,"sequence":11}]}]}