{"short_name":"25-B AGL-BSK-DOWN","long_name":"Banashankari Bus Station ⇔ Anugraha Badavane (Bilekahalli)","directions":[{"direction":"UP","headsign":"Banashankari Bus Station","path":[[12.903304,77.609024],[12.9035,77.60897],[12.9045,77.60917],[12.90503,77.60931],[12.90546,77.60945],[12.90536,77.60977],[12.90529,77.61017],[12.90514,77.61145],[12.90566,77.61145],[12.90596,77.61143],[12.90636,77.61137],[12.90683,77.61121],[12.90767,77.61088],[12.90781,77.61083],[12.90947,77.61012],[12.90962,77.61007],[12.90985,77.61002],[12.91029,77.61001],[12.91221,77.61003],[12.91298,77.61007],[12.91396,77.61005],[12.91408,77.61002],[12.91562,77.61003],[12.91633,77.61005],[12.91647,77.61006],[12.91648,77.60876],[12.91654,77.60768],[12.91654,77.60725],[12.91652,77.60698],[12.91653,77.60596],[12.91657,77.60539],[12.91658,77.60411],[12.91661,77.60308],[12.9166,77.60188],[12.91667,77.5998],[12.91667,77.5978],[12.91674,77.59651],[12.91674,77.59505],[12.91681,77.59334],[12.91684,77.591],[12.91695,77.58949],[12.91686,77.5879],[12.91683,77.58697],[12.91693,77.58504],[12.91693,77.58471],[12.91705,77.58415],[12.91707,77.58374],[12.91709,77.58195],[12.91712,77.58131],[12.91715,77.5811],[12.91711,77.58067],[12.91699,77.58034],[12.91699,77.58026],[12.91708,77.57865],[12.91711,77.5784],[12.91716,77.57814],[12.9172,77.57801],[12.91738,77.57756],[12.91746,77.57726],[12.91751,77.57679],[12.91755,77.576],[12.91756,77.57459],[12.91751,77.57431],[12.91742,77.57411],[12.91696,77.57365],[12.91687,77.5735],[12.91712,77.57349],[12.91713,77.5735],[12.91718,77.57272],[12.91736,77.5727]],"stops":[{"id":"38116","name":"Anugraha Badavane (Bilekahalli)","lat":12.90328,"lon":77.60895,"sequence":1},{"id":"28617","name":"Mahadeshwara Nagara","lat":12.90784,"lon":77.61076,"sequence":2},{"id":"20571","name":"BTM Layout 16th Main","lat":12.91644,"lon":77.60928,"sequence":3},{"id":"21021","name":"MICO Layout BTM","lat":12.91657,"lon":77.60427,"sequence":4},{"id":"20768","name":"East End Jayanagara","lat":12.91665,"lon":77.59855,"sequence":5},{"id":"21106","name":"Ragigudda Temple","lat":12.91678,"lon":77.59349,"sequence":6},{"id":"20582","name":"Jayanagara 5th Block","lat":12.91701,"lon":77.58413,"sequence":7},{"id":"21148","name":"Sangam Circle","lat":12.91704,"lon":77.57875,"sequence":8},{"id":"20624","name":"Banashankari Bus Station","lat":12.91736,"lon":77.5727,"sequence":9}]},{"direction":"DOWN","headsign":"Anugraha Badavane (Bilekahalli)","path":[[12.91779,77.57272],[12.91789,77.57322],[12.91768,77.57359],[12.91763,77.57364],[12.91771,77.57469],[12.9177,77.57601],[12.91767,77.57699],[12.91763,77.57737],[12.91756,77.57761],[12.9175,77.57774],[12.91732,77.57801],[12.91729,77.57811],[12.91728,77.57847],[12.91731,77.579],[12.91727,77.57939],[12.91726,77.57977],[12.91718,77.58086],[12.9172,77.58123],[12.91717,77.58374],[12.91715,77.58412],[12.91709,77.58474],[12.91708,77.58633],[12.91711,77.58675],[12.91722,77.58728],[12.91723,77.58833],[12.91718,77.58842],[12.91715,77.58941],[12.91701,77.59077],[12.91698,77.59163],[12.91697,77.59262],[12.91687,77.59661],[12.91682,77.5998],[12.9168,77.60016],[12.91679,77.60188],[12.91674,77.60536],[12.916675,77.60718],[12.91641,77.61014],[12.91535,77.61014],[12.91472,77.61011],[12.91407,77.6101],[12.91396,77.61005],[12.91298,77.61007],[12.91221,77.61003],[12.91029,77.61001],[12.90985,77.61002],[12.90962,77.61007],[12.90947,77.61012],[12.90781,77.61083],[12.90767,77.61088],[12.90683,77.61121],[12.90636,77.61137],[12.90596,77.61143],[12.90566,77.61145],[12.90514,77.61145],[12.90508,77.61144],[12.90514,77.61079],[12.90526,77.60992],[12.90532,77.60966],[12.9054,77.60943],[12.90503,77.60931],[12.9045,77.60917],[12.9035,77.60897],[12.903304,77.609024]],"stops":[{"id":"20623","name":"Banashankari Bus Station","lat":12.91779,"lon":77.57272,"sequence":1},{"id":"21149","name":"Sangam Circle","lat":12.91763,"lon":77.57733,"sequence":2},{"id":"20583","name":"Jayanagara 5th Block","lat":12.91719,"lon":77.58297,"sequence":3},{"id":"21006","name":"Marenahalli Petrol Bunk(Ragigudda Metro Station)","lat":12.9172,"lon":77.58948,"sequence":4},{"id":"21107","name":"Ragigudda Temple","lat":12.91701,"lon":77.59303,"sequence":5},{"id":"20769","name":"East End Jayanagara","lat":12.9169,"lon":77.59802,"sequence":6},{"id":"21022","name":"MICO Layout BTM","lat":12.91682,"lon":77.60407,"sequence":7},{"id":"20689","name":"BTM Layout Water Tank","lat":12.91673,"lon":77.60713,"sequence":8},{"id":"31345","name":"BTM Layout 16th Main","lat":12.91627,"lon":77.61014,"sequence":9},{"id":"22869","name":"BTM Layout 12th Main 7th Cross","lat":12.91393,"lon":77.61007,"sequence":10},{"id":"35353","name":"Mahadeshwara Nagara","lat":12.90779,"lon":77.61094,"sequence":11},{"id":"38116","name":"Anugraha Badavane (Bilekahalli)","lat":12.90328,"lon":77.60895,"sequence":12}]}]}