{"short_name":"255-C DSP-PLH","long_name":"Pillahalli ⇔ Dasanapura","directions":[{"direction":"DOWN","headsign":"Dasanapura","path":[[13.10285,77.42905],[13.10285,77.4295],[13.10272,77.43028],[13.10278,77.43063],[13.10328,77.43236],[13.10323,77.43253],[13.10328,77.43262],[13.10344,77.4327],[13.10363,77.43275],[13.10397,77.43338],[13.10415,77.43374],[13.10456,77.43449],[13.10467,77.43461],[13.105,77.43458],[13.10521,77.43463],[13.10568,77.43491],[13.10588,77.43511],[13.10677,77.43571],[13.10692,77.43597],[13.10732,77.43633],[13.10799,77.43668],[13.10888,77.43704],[13.10916,77.43717],[13.10944,77.43737],[13.11032,77.43778],[13.1108,77.43793],[13.1115,77.43822],[13.11135,77.43874],[13.11107,77.43999],[13.11092,77.44087],[13.11077,77.4419],[13.1106,77.44329],[13.11053,77.4435],[13.11048,77.44359],[13.11038,77.44368],[13.11015,77.44377],[13.10971,77.4439],[13.10943,77.44397],[13.10925,77.44399],[13.10789,77.44412],[13.10715,77.44412],[13.10643,77.44399],[13.10485,77.44392],[13.10424,77.44392],[13.10367,77.44395],[13.10316,77.44404],[13.10281,77.44413],[13.10136,77.44444],[13.10084,77.44454],[13.09933,77.44486],[13.09858,77.44499],[13.09823,77.44504],[13.09676,77.44515],[13.09564,77.44521],[13.09473,77.44524],[13.09369,77.44529],[13.09058,77.44535],[13.09029,77.44537],[13.08997,77.44538],[13.08975,77.4454],[13.08947,77.44545],[13.08931,77.4455],[13.08913,77.44558],[13.08811,77.44613],[13.08718,77.44658],[13.08665,77.44682],[13.08469,77.44766],[13.08444,77.44781],[13.0839,77.44829],[13.08206,77.44983],[13.08193,77.44993],[13.08165,77.45017],[13.0814,77.45035],[13.08127,77.45041],[13.08089,77.45049],[13.08037,77.45055],[13.07702,77.45103],[13.07512,77.45137],[13.07477,77.45147],[13.07411,77.45174],[13.07362,77.45218],[13.07348,77.45228],[13.07336,77.45234],[13.07233,77.45266],[13.071667,77.45282],[13.07078,77.45296],[13.07058,77.45297],[13.07034,77.45293],[13.06931,77.45252],[13.06869,77.4523],[13.06834,77.4522],[13.06775,77.45202],[13.06715,77.45184],[13.06689,77.45172],[13.0667,77.45202],[13.06627,77.45282],[13.06539,77.45432],[13.06463,77.45565],[13.06376,77.45706],[13.06269,77.45885],[13.06138,77.46111],[13.06114,77.46149],[13.06048,77.46257],[13.05971,77.46389],[13.05949,77.4644],[13.05931,77.46496],[13.05888,77.46665],[13.05878,77.4666],[13.05857,77.46647],[13.05896,77.46495],[13.05913,77.46442],[13.05922,77.46418],[13.05939,77.46383],[13.06057,77.46178],[13.06134,77.46053],[13.06172,77.45987],[13.06332,77.45722],[13.06435,77.45542],[13.06467,77.4549],[13.06499,77.45433],[13.06519,77.45403],[13.06608,77.45251],[13.06657,77.45162],[13.06689,77.451],[13.06874,77.44769],[13.06932,77.4466],[13.06967,77.44602],[13.07057,77.44439],[13.07113,77.44334],[13.07182,77.44212],[13.07258,77.44071],[13.07415,77.43792],[13.07517,77.43608],[13.07588,77.4347],[13.07593,77.43462],[13.07632,77.43383],[13.07662,77.434],[13.07632,77.43464],[13.07601,77.43525],[13.07567,77.43587],[13.075413,77.436356]],"stops":[{"id":"27683","name":"Pillahalli","lat":13.10279,"lon":77.42899,"sequence":1},{"id":"27685","name":"Pillahalli Colony","lat":13.10435,"lon":77.43402,"sequence":2},{"id":"27687","name":"Pillahalli Cross","lat":13.11149,"lon":77.43832,"sequence":3},{"id":"33879","name":"Mattahalli Cross","lat":13.11033,"lon":77.44373,"sequence":4},{"id":"29550","name":"APMC Yard","lat":13.10494,"lon":77.44396,"sequence":5},{"id":"34931","name":"Vaderahalli Cross","lat":13.0993,"lon":77.44488,"sequence":6},{"id":"33527","name":"Kodipalya","lat":13.09612,"lon":77.44521,"sequence":7},{"id":"34048","name":"Nagaruru Cross","lat":13.09215,"lon":77.44534,"sequence":8},{"id":"26910","name":"The Golden Palm Resort Nagarur colony Nelamangala","lat":13.08893,"lon":77.44564,"sequence":9},{"id":"33819","name":"Mantri Layout (M L A LAYOUT)","lat":13.08448,"lon":77.4478,"sequence":10},{"id":"32093","name":"Biscuits Factory","lat":13.08217,"lon":77.44976,"sequence":11},{"id":"39643","name":"Padmavathi Srinivasa Temple Cross","lat":13.07514,"lon":77.45139,"sequence":12},{"id":"34168","name":"Nisarga Layout","lat":13.07167,"lon":77.45283,"sequence":13},{"id":"33752","name":"Makali Cross","lat":13.06706,"lon":77.45182,"sequence":14},{"id":"22973","name":"Depot-40 Gate","lat":13.06872,"lon":77.44766,"sequence":15},{"id":"29439","name":"Adakimaranahalli","lat":13.07028,"lon":77.44482,"sequence":16},{"id":"21873","name":"Dasanapura","lat":13.07542,"lon":77.43636,"sequence":17}]}]}