{"short_name":"257-E DSP-ALR","long_name":"Alurupalya ⇔ Dasanapura","directions":[{"direction":"UP","headsign":"Alurupalya","path":[[13.075416,77.436356],[13.07398,77.4389],[13.07297,77.44078],[13.07124,77.44391],[13.06997,77.44615],[13.06964,77.4468],[13.06893,77.44813],[13.0685,77.44887],[13.0669,77.45175],[13.06631,77.45276],[13.066,77.45333],[13.0654,77.45432],[13.06589,77.45463],[13.06736,77.45546],[13.06867,77.45625],[13.0691,77.45647],[13.06956,77.45667],[13.07002,77.45684],[13.07084,77.45721],[13.07144,77.45756],[13.07199,77.45781],[13.07218,77.45786],[13.07275,77.45797],[13.07359,77.45806],[13.07375,77.45815],[13.07391,77.45829],[13.074,77.45834],[13.07409,77.45837],[13.07471,77.4584],[13.07493,77.45843],[13.07552,77.4586],[13.07578,77.45861],[13.07653,77.4585],[13.07674,77.45852],[13.07695,77.45859],[13.07723,77.45873],[13.07735,77.45877],[13.07753,77.45881],[13.07776,77.45888],[13.07903,77.45939],[13.07958,77.45957],[13.07991,77.45964],[13.08041,77.45968],[13.0805,77.4597],[13.08066,77.45978],[13.08079,77.45991],[13.08115,77.46042],[13.08173,77.46115],[13.08253,77.46228],[13.08261,77.46249],[13.08259,77.46283],[13.0826,77.46291],[13.08264,77.46302],[13.08272,77.46312],[13.08371,77.46415],[13.08398,77.46447],[13.08413,77.4646],[13.0843,77.4647],[13.08443,77.46481],[13.08452,77.46498],[13.08464,77.46532],[13.08468,77.4654],[13.08476,77.4655],[13.08487,77.46556],[13.08525,77.46565],[13.0855,77.46568],[13.08588,77.46569],[13.08606,77.46565],[13.08632,77.46553],[13.08674,77.46554],[13.08774,77.46567],[13.08837,77.46574],[13.08928,77.46588],[13.08968,77.46591],[13.09029,77.46586],[13.09077,77.46576],[13.09099,77.46566],[13.09131,77.46543],[13.09139,77.4654],[13.09148,77.4654],[13.09164,77.46546],[13.09196,77.46568],[13.0922,77.46577],[13.09233,77.46581],[13.09289,77.46596],[13.09313,77.46606],[13.09343,77.46625],[13.09368,77.46647],[13.09392,77.46671],[13.09413,77.46684],[13.09421,77.46688],[13.0946,77.46712],[13.09471,77.46721],[13.0948,77.46731],[13.09494,77.46755],[13.09501,77.46772],[13.09507,77.46795],[13.09512,77.46824],[13.09519,77.46838],[13.09654,77.46995],[13.097115,77.47056]],"stops":[{"id":"21873","name":"Dasanapura","lat":13.07542,"lon":77.43636,"sequence":1},{"id":"38538","name":"Ravuthanahalli Cross","lat":13.07362,"lon":77.43959,"sequence":2},{"id":"21639","name":"Adakimaranahalli","lat":13.07065,"lon":77.4449,"sequence":3},{"id":"33750","name":"Makali","lat":13.06555,"lon":77.45442,"sequence":4},{"id":"33754","name":"Makali Govt High School","lat":13.06894,"lon":77.45638,"sequence":5},{"id":"32898","name":"Heggadadevanapura","lat":13.07597,"lon":77.45854,"sequence":6},{"id":"34231","name":"Patel Thota Aluru","lat":13.08022,"lon":77.45962,"sequence":7},{"id":"29485","name":"Aluru","lat":13.08482,"lon":77.46553,"sequence":8},{"id":"35508","name":"Alurupalya","lat":13.09721,"lon":77.47062,"sequence":9}]},{"direction":"DOWN","headsign":"Dasanapura","path":[[13.097183,77.47061],[13.09714,77.47058],[13.09694,77.47038],[13.09654,77.46995],[13.09519,77.46838],[13.09512,77.46824],[13.09507,77.46795],[13.09501,77.46772],[13.09494,77.46755],[13.0948,77.46731],[13.09471,77.46721],[13.0946,77.46712],[13.09421,77.46688],[13.09413,77.46684],[13.09392,77.46671],[13.09368,77.46647],[13.09343,77.46625],[13.09313,77.46606],[13.09289,77.46596],[13.09233,77.46581],[13.0922,77.46577],[13.09196,77.46568],[13.09164,77.46546],[13.09148,77.4654],[13.09139,77.4654],[13.09131,77.46543],[13.09099,77.46566],[13.09077,77.46576],[13.09029,77.46586],[13.08968,77.46591],[13.08928,77.46588],[13.08837,77.46574],[13.08774,77.46567],[13.08674,77.46554],[13.08632,77.46553],[13.08606,77.46565],[13.08588,77.46569],[13.0855,77.46568],[13.08525,77.46565],[13.08487,77.46556],[13.08476,77.4655],[13.08468,77.4654],[13.08464,77.46532],[13.08452,77.46498],[13.08443,77.46481],[13.0843,77.4647],[13.08413,77.4646],[13.08398,77.46447],[13.08371,77.46415],[13.08272,77.46312],[13.08264,77.46302],[13.0826,77.46291],[13.08259,77.46283],[13.08261,77.46249],[13.08253,77.46228],[13.08173,77.46115],[13.08115,77.46042],[13.08079,77.45991],[13.08066,77.45978],[13.0805,77.4597],[13.08041,77.45968],[13.07991,77.45964],[13.07958,77.45957],[13.07903,77.45939],[13.07776,77.45888],[13.07753,77.45881],[13.07735,77.45877],[13.07723,77.45873],[13.07695,77.45859],[13.07674,77.45852],[13.07653,77.4585],[13.07578,77.45861],[13.07552,77.4586],[13.07493,77.45843],[13.07471,77.4584],[13.07409,77.45837],[13.074,77.45834],[13.07391,77.45829],[13.07375,77.45815],[13.07359,77.45806],[13.07275,77.45797],[13.07218,77.45786],[13.07199,77.45781],[13.07144,77.45756],[13.07084,77.45721],[13.07002,77.45684],[13.06956,77.45667],[13.0691,77.45647],[13.06867,77.45625],[13.06736,77.45546],[13.06589,77.45463],[13.0654,77.45432],[13.06509,77.45488],[13.06146,77.46101],[13.05984,77.46367],[13.05961,77.46414],[13.05949,77.46447],[13.05933,77.46496],[13.05899,77.46632],[13.05889,77.46667],[13.0588,77.46663],[13.05864,77.46652],[13.05855,77.46644],[13.05915,77.46442],[13.05933,77.46396],[13.05951,77.4636],[13.06015,77.4625],[13.06056,77.46183],[13.06094,77.46117],[13.06104,77.46101],[13.06343,77.45702],[13.06407,77.45592],[13.06575,77.45306],[13.06654,77.45161],[13.06753,77.44984],[13.06771,77.44948],[13.06816,77.44872],[13.06856,77.448],[13.06872,77.44767],[13.06965,77.44601],[13.07004,77.44534],[13.07118,77.4433],[13.07347,77.43914],[13.0748,77.43676],[13.075221,77.43598]],"stops":[{"id":"29488","name":"Alurupalya","lat":13.09723,"lon":77.47067,"sequence":1},{"id":"35511","name":"Aluru","lat":13.08487,"lon":77.46561,"sequence":2},{"id":"27638","name":"Patel Thota Aluru","lat":13.0803,"lon":77.45971,"sequence":3},{"id":"25827","name":"Heggadadevanapura","lat":13.07599,"lon":77.45857,"sequence":4},{"id":"28646","name":"Makali Govt High School","lat":13.06889,"lon":77.45639,"sequence":5},{"id":"33750","name":"Makali","lat":13.06555,"lon":77.45442,"sequence":6},{"id":"22973","name":"Depot-40 Gate","lat":13.06872,"lon":77.44766,"sequence":7},{"id":"29439","name":"Adakimaranahalli","lat":13.07028,"lon":77.44482,"sequence":8},{"id":"38537","name":"Ravuthanahalli Cross","lat":13.07334,"lon":77.43938,"sequence":9},{"id":"24788","name":"Dasanapura","lat":13.07523,"lon":77.43599,"sequence":10}]}]}