{"short_name":"266-M D45-KDSH","long_name":"Kondashettyhalli ⇔ Depot-45 Gate","directions":[{"direction":"UP","headsign":"Kondashettyhalli","path":[[13.0829,77.55074],[13.08248,77.55047],[13.08227,77.55029],[13.08219,77.55019],[13.08213,77.54999],[13.08207,77.54901],[13.08201,77.54888],[13.0816,77.54839],[13.08156,77.54838],[13.08153,77.54835],[13.08152,77.54831],[13.08153,77.54827],[13.08156,77.54824],[13.08164,77.54824],[13.08178,77.54821],[13.08206,77.54827],[13.08247,77.54834],[13.08253,77.5484],[13.08268,77.54844],[13.08396,77.54868],[13.08431,77.54866],[13.08477,77.54849],[13.08502,77.54845],[13.08512,77.54846],[13.08527,77.5485],[13.08562,77.54862],[13.0857,77.54862],[13.08584,77.54856],[13.08625,77.54828],[13.08676,77.54789],[13.08767,77.54714],[13.08798,77.54684],[13.08807,77.54677],[13.08815,77.54674],[13.08825,77.54665],[13.08837,77.54654],[13.08859,77.54629],[13.08869,77.54616],[13.08884,77.54591],[13.08906,77.54549],[13.08917,77.5452],[13.089316,77.54466],[13.08965,77.54318],[13.08981,77.54236],[13.09017,77.54108],[13.0906,77.53889],[13.09075,77.53823],[13.09134,77.53543],[13.09138,77.5352],[13.09152,77.53459],[13.09162,77.53432],[13.09176,77.53412],[13.09189,77.53404],[13.09209,77.53399],[13.09251,77.53391],[13.09288,77.53381],[13.09464,77.53339],[13.09626,77.53305],[13.0967,77.5329],[13.09735,77.53274],[13.099,77.53238],[13.09932,77.5323],[13.09978,77.53215],[13.10002,77.53201],[13.10033,77.53172],[13.10078,77.53127],[13.10107,77.53091],[13.10158,77.53033],[13.10193,77.53018],[13.10211,77.53013],[13.10274,77.52992],[13.1034,77.52962],[13.10456,77.52902],[13.10523,77.52872],[13.10572,77.52856],[13.10599,77.52849],[13.10666,77.52829],[13.10754,77.52794],[13.1079,77.52786],[13.10813,77.52784],[13.10842,77.52785],[13.10864,77.52788],[13.10909,77.52799],[13.10953,77.52808],[13.10992,77.52805],[13.11028,77.52795],[13.11046,77.52788],[13.11066,77.52776],[13.11072,77.52767],[13.11115,77.5268],[13.11164,77.52595],[13.11182,77.52568],[13.11198,77.52549],[13.1121,77.52542],[13.11241,77.5253],[13.11252,77.52518],[13.11259,77.52499],[13.112665,77.52493],[13.11291,77.52482],[13.113,77.52479],[13.11329,77.52473],[13.11349,77.5247],[13.11351,77.52376],[13.11356,77.52314],[13.11395,77.5202],[13.11406,77.51927],[13.11416,77.5188],[13.1144,77.51803],[13.11452,77.51752],[13.11462,77.51706],[13.11482,77.51594],[13.11483,77.51562],[13.1148,77.51537],[13.11468,77.51489],[13.1153,77.51465],[13.11564,77.51454],[13.11725,77.51414],[13.11749,77.51409],[13.11771,77.51403],[13.11876,77.51379],[13.11889,77.51374],[13.11954,77.51372],[13.12146,77.51386],[13.12195,77.51387],[13.12279,77.51393],[13.12311,77.51398],[13.12347,77.51406],[13.12404,77.51418],[13.12468,77.51421],[13.12524,77.51409],[13.12582,77.51388],[13.12607,77.51387],[13.126378,77.51404]],"stops":[{"id":"36327","name":"Depot-45 Gate","lat":13.0829,"lon":77.55072,"sequence":1},{"id":"33956","name":"MS Palya","lat":13.08185,"lon":77.54822,"sequence":2},{"id":"28127","name":"Sambhram College","lat":13.08824,"lon":77.54663,"sequence":3},{"id":"29896","name":"Best County","lat":13.0893,"lon":77.54466,"sequence":4},{"id":"33339","name":"Kanshiram Nagara","lat":13.09058,"lon":77.5389,"sequence":5},{"id":"33685","name":"Lakshmipura Cross","lat":13.09209,"lon":77.53397,"sequence":6},{"id":"28948","name":"Medi Agrahara Cross","lat":13.1013,"lon":77.53061,"sequence":7},{"id":"32355","name":"Choudappa Layout","lat":13.10978,"lon":77.52807,"sequence":8},{"id":"32498","name":"Dodda Byalakere","lat":13.11267,"lon":77.52494,"sequence":9},{"id":"34314","name":"Raghavendra Dhama","lat":13.11472,"lon":77.51484,"sequence":10},{"id":"31223","name":"Kondashettyhalli","lat":13.1264,"lon":77.514,"sequence":11}]},{"direction":"DOWN","headsign":"Depot-45 Gate","path":[[13.1266,77.51417],[13.12607,77.51387],[13.12582,77.51388],[13.12524,77.51409],[13.12502,77.51413],[13.12468,77.51421],[13.12404,77.51418],[13.12347,77.51406],[13.12311,77.51398],[13.12279,77.51393],[13.12195,77.51387],[13.12146,77.51386],[13.11954,77.51372],[13.11917,77.51373],[13.11876,77.51383],[13.11815,77.51396],[13.11767,77.51407],[13.11659,77.5143],[13.11564,77.51454],[13.11468,77.51487],[13.1148,77.51535],[13.11483,77.51562],[13.11483,77.51585],[13.11481,77.51605],[13.11462,77.51707],[13.1145,77.51759],[13.11436,77.51814],[13.11414,77.51887],[13.11406,77.51926],[13.11395,77.5202],[13.11378,77.52131],[13.11359,77.5228],[13.11349,77.52379],[13.11347,77.52429],[13.11347,77.52471],[13.11324,77.52473],[13.11298,77.5248],[13.1129,77.52483],[13.11279,77.5249],[13.11264,77.52498],[13.1126,77.52503],[13.11254,77.52521],[13.11249,77.52527],[13.11245,77.52529],[13.11206,77.52545],[13.11196,77.52552],[13.11179,77.52574],[13.11165,77.52596],[13.111,77.52708],[13.11071,77.52779],[13.11018,77.52799],[13.10986,77.52808],[13.10977,77.52809],[13.10939,77.52808],[13.1087,77.52791],[13.10842,77.52787],[13.10804,77.52786],[13.10761,77.52794],[13.10728,77.52806],[13.10701,77.52818],[13.10663,77.52832],[13.10607,77.52849],[13.10559,77.52862],[13.10523,77.52874],[13.10494,77.52887],[13.10414,77.52926],[13.10336,77.52966],[13.1031,77.52977],[13.10238,77.53008],[13.10221,77.53012],[13.10193,77.53019],[13.1017,77.53028],[13.10154,77.5304],[13.10093,77.53107],[13.10078,77.53127],[13.10011,77.53195],[13.09999,77.53204],[13.09978,77.53215],[13.09915,77.53237],[13.09815,77.53265],[13.09634,77.53308],[13.095,77.53335],[13.09296,77.53381],[13.09234,77.53396],[13.0921,77.53398],[13.09182,77.53412],[13.0917,77.53423],[13.09161,77.53437],[13.09151,77.53467],[13.09121,77.53614],[13.0908,77.53805],[13.0902,77.54108],[13.08985,77.54242],[13.0894,77.54433],[13.0893,77.54485],[13.08915,77.54538],[13.08902,77.5457],[13.08872,77.5462],[13.08841,77.54656],[13.08816,77.54678],[13.08804,77.54692],[13.08722,77.54764],[13.08705,77.54777],[13.08681,77.54797],[13.08588,77.54865],[13.08581,77.54868],[13.08565,77.5487],[13.08549,77.54865],[13.08526,77.54857],[13.08504,77.54854],[13.08483,77.54857],[13.08447,77.5487],[13.08429,77.54875],[13.08421,77.54875],[13.08404,77.54872],[13.08396,77.54869],[13.0839,77.54868],[13.08249,77.54841],[13.08242,77.54842],[13.08186,77.5483],[13.08178,77.54829],[13.08168,77.54831],[13.08167,77.54835],[13.08189,77.54863],[13.08203,77.54876],[13.0821,77.54885],[13.08215,77.54896],[13.0822,77.54941],[13.08223,77.54999],[13.08225,77.55008],[13.08232,77.55021],[13.08252,77.55038],[13.08275,77.55052],[13.08295,77.55067],[13.08308,77.55052]],"stops":[{"id":"33567","name":"Kondashettyhalli","lat":13.12655,"lon":77.51418,"sequence":1},{"id":"27814","name":"Raghavendra Dhama","lat":13.11473,"lon":77.51487,"sequence":2},{"id":"32499","name":"Dodda Byalakere","lat":13.11275,"lon":77.52495,"sequence":3},{"id":"24669","name":"Choudappa Layout","lat":13.10983,"lon":77.5281,"sequence":4},{"id":"33907","name":"Medi Agrahara Cross","lat":13.10134,"lon":77.53063,"sequence":5},{"id":"33684","name":"Lakshmipura Cross","lat":13.09209,"lon":77.534,"sequence":6},{"id":"30786","name":"Kanshiram Nagara","lat":13.09061,"lon":77.53889,"sequence":7},{"id":"31972","name":"Best County","lat":13.08933,"lon":77.54466,"sequence":8},{"id":"34459","name":"Sambhram College","lat":13.08826,"lon":77.54666,"sequence":9},{"id":"22305","name":"MS Palya","lat":13.08178,"lon":77.54849,"sequence":10},{"id":"35044","name":"Depot-45 Gate","lat":13.08298,"lon":77.55066,"sequence":11}]}]}