{"short_name":"266-T D45-LXP","long_name":"Lakshmipura ⇔ Depot-45 Gate","directions":[{"direction":"UP","headsign":"Lakshmipura","path":[[13.0829,77.55074],[13.08248,77.55047],[13.08227,77.55029],[13.08219,77.55019],[13.08213,77.54999],[13.08207,77.54901],[13.08201,77.54888],[13.0816,77.54839],[13.08156,77.54838],[13.08153,77.54835],[13.08152,77.54831],[13.08153,77.54827],[13.08156,77.54824],[13.08164,77.54824],[13.08178,77.54821],[13.08206,77.54827],[13.08247,77.54834],[13.08253,77.5484],[13.08268,77.54844],[13.08396,77.54868],[13.08431,77.54866],[13.08477,77.54849],[13.08502,77.54845],[13.08512,77.54846],[13.08527,77.5485],[13.08562,77.54862],[13.0857,77.54862],[13.08584,77.54856],[13.08625,77.54828],[13.08676,77.54789],[13.08767,77.54714],[13.08798,77.54684],[13.08807,77.54677],[13.08815,77.54674],[13.08825,77.54665],[13.08837,77.54654],[13.08859,77.54629],[13.08869,77.54616],[13.08884,77.54591],[13.08906,77.54549],[13.08917,77.5452],[13.0894,77.54433],[13.08965,77.54318],[13.08981,77.54236],[13.09017,77.54108],[13.0906,77.53889],[13.09075,77.53823],[13.09134,77.53543],[13.09138,77.5352],[13.09152,77.53459],[13.09162,77.53432],[13.09176,77.53412],[13.09189,77.53404],[13.09209,77.53399],[13.09213,77.53351],[13.0918,77.53268],[13.09161,77.53232],[13.09143,77.53204],[13.09124,77.53194],[13.09047,77.53185],[13.0899,77.53174],[13.08884,77.53143],[13.0885,77.53133],[13.0881,77.53121],[13.087773,77.531105]],"stops":[{"id":"36327","name":"Depot-45 Gate","lat":13.0829,"lon":77.55072,"sequence":1},{"id":"33956","name":"MS Palya","lat":13.08185,"lon":77.54822,"sequence":2},{"id":"28127","name":"Sambhram College","lat":13.08824,"lon":77.54663,"sequence":3},{"id":"29896","name":"Best County","lat":13.0893,"lon":77.54466,"sequence":4},{"id":"33339","name":"Kanshiram Nagara","lat":13.09058,"lon":77.5389,"sequence":5},{"id":"28500","name":"Lakshmipura Cross","lat":13.09212,"lon":77.5334,"sequence":6},{"id":"28496","name":"Lakshmipura","lat":13.08778,"lon":77.53108,"sequence":7}]},{"direction":"DOWN","headsign":"Depot-45 Gate","path":[[13.087757,77.53105],[13.08909,77.53146],[13.09007,77.53174],[13.09047,77.53181],[13.09118,77.53188],[13.09136,77.53193],[13.09149,77.53204],[13.09153,77.5321],[13.09168,77.53236],[13.0919,77.5328],[13.09216,77.53346],[13.0921,77.53398],[13.09189,77.53408],[13.09182,77.53412],[13.0917,77.53423],[13.09161,77.53437],[13.09151,77.53467],[13.09121,77.53614],[13.0908,77.53805],[13.0902,77.54108],[13.08985,77.54242],[13.0894,77.54433],[13.0893,77.54485],[13.08915,77.54538],[13.08908,77.54557],[13.08895,77.54583],[13.08872,77.5462],[13.08841,77.54656],[13.08816,77.54678],[13.08804,77.54692],[13.08722,77.54764],[13.08705,77.54777],[13.08681,77.54797],[13.08588,77.54865],[13.08581,77.54868],[13.08565,77.5487],[13.08549,77.54865],[13.08526,77.54857],[13.08504,77.54854],[13.08483,77.54857],[13.08447,77.5487],[13.08429,77.54875],[13.08421,77.54875],[13.08404,77.54872],[13.08396,77.54869],[13.0839,77.54868],[13.08249,77.54841],[13.08242,77.54842],[13.08186,77.5483],[13.08178,77.54829],[13.08168,77.54831],[13.08167,77.54835],[13.08189,77.54863],[13.08203,77.54876],[13.0821,77.54885],[13.08215,77.54896],[13.0822,77.54941],[13.08223,77.54999],[13.08228,77.55015],[13.08232,77.55021],[13.08245,77.55033],[13.08275,77.55052],[13.08295,77.55067]],"stops":[{"id":"33683","name":"Lakshmipura","lat":13.08776,"lon":77.53104,"sequence":1},{"id":"33684","name":"Lakshmipura Cross","lat":13.09209,"lon":77.534,"sequence":2},{"id":"30786","name":"Kanshiram Nagara","lat":13.09061,"lon":77.53889,"sequence":3},{"id":"31972","name":"Best County","lat":13.08933,"lon":77.54466,"sequence":4},{"id":"34459","name":"Sambhram College","lat":13.08826,"lon":77.54666,"sequence":5},{"id":"22305","name":"MS Palya","lat":13.08178,"lon":77.54849,"sequence":6},{"id":"35044","name":"Depot-45 Gate","lat":13.08298,"lon":77.55066,"sequence":7}]}]}