{"short_name":"282 BLR-VNC","long_name":"Vidyanagara Cross Chikkajala ⇔ Bagalur","directions":[{"direction":"UP","headsign":"Vidyanagara Cross","path":[[13.13462,77.66804],[13.13471,77.66809],[13.13582,77.6683],[13.13608,77.66837],[13.13642,77.66852],[13.13662,77.66866],[13.13675,77.66878],[13.13707,77.66917],[13.13723,77.66932],[13.13742,77.66946],[13.13895,77.6703],[13.13933,77.67048],[13.1398,77.67065],[13.14039,77.67083],[13.14141,77.67117],[13.14157,77.67124],[13.14164,77.67106],[13.14226,77.66974],[13.1425,77.6693],[13.14265,77.66907],[13.14309,77.66856],[13.14328,77.66837],[13.14346,77.66826],[13.14416,77.66797],[13.14602,77.66701],[13.14628,77.66683],[13.14655,77.66656],[13.1467,77.66637],[13.14683,77.66616],[13.14694,77.66591],[13.14708,77.66552],[13.14793,77.66347],[13.14853,77.66224],[13.14886,77.66162],[13.14898,77.66134],[13.1492,77.66053],[13.14953,77.6592],[13.1496,77.65895],[13.14965,77.65884],[13.14979,77.65879],[13.15084,77.65876],[13.15141,77.65873],[13.15181,77.65864],[13.15189,77.65871],[13.15205,77.65879],[13.15263,77.65893],[13.15351,77.65909],[13.1538,77.65921],[13.15451,77.65936],[13.15644,77.65962],[13.15645,77.65893],[13.157422,77.6591],[13.15645,77.65893],[13.15647,77.65679],[13.15646,77.65581],[13.15643,77.65502],[13.15669,77.65473],[13.15732,77.65398],[13.15749,77.65375],[13.15754,77.65363],[13.15758,77.65345],[13.15761,77.65244],[13.15798,77.65011],[13.15826,77.64851],[13.15851,77.64699],[13.15859,77.64669],[13.15864,77.64658],[13.15923,77.64676],[13.16045,77.64702],[13.16104,77.64711],[13.16251,77.64713],[13.16265,77.64712],[13.16265,77.64708],[13.16267,77.64705],[13.16269,77.64703],[13.16273,77.64703],[13.16267,77.64682],[13.16268,77.64662],[13.16274,77.64626],[13.16276,77.64593],[13.16273,77.64498],[13.16277,77.64464],[13.16284,77.6444],[13.16289,77.64429],[13.1632,77.64374],[13.16326,77.64356],[13.16333,77.64318],[13.16332,77.643],[13.16328,77.64281],[13.16321,77.64266],[13.16314,77.64258],[13.16298,77.64247],[13.16277,77.64241],[13.16184,77.6424],[13.16172,77.64235],[13.16165,77.64226],[13.16184,77.64162],[13.16208,77.64088],[13.16209,77.64082],[13.16208,77.64074],[13.16205,77.64069],[13.162,77.64066],[13.16187,77.64064],[13.16155,77.64065],[13.15977,77.64077],[13.15957,77.64072],[13.15955,77.64069],[13.15953,77.64059],[13.15954,77.64053],[13.1604,77.63813],[13.16043,77.63801],[13.16047,77.63772],[13.16047,77.6374],[13.16045,77.63709],[13.16026,77.63557],[13.16019,77.63515],[13.16013,77.6346],[13.16014,77.63396],[13.16024,77.63297],[13.1603,77.63211],[13.1603,77.63175],[13.16028,77.63155],[13.16024,77.63136],[13.16006,77.63082],[13.15991,77.63046],[13.15981,77.63014],[13.15979,77.62993],[13.1598,77.62982],[13.15986,77.6296],[13.16023,77.62875],[13.16064,77.62791],[13.1611,77.62703],[13.16097,77.62693]],"stops":[{"id":"23267","name":"Bagalur","lat":13.13461,"lon":77.66794,"sequence":1},{"id":"29624","name":"Bagalur Colony","lat":13.14146,"lon":77.67118,"sequence":2},{"id":"38891","name":"Razakpalya Cross","lat":13.14965,"lon":77.65882,"sequence":3},{"id":"38894","name":"Depot-52 Gate Departure","lat":13.15742,"lon":77.65912,"sequence":4},{"id":"39464","name":"Huttanahalli Dinne","lat":13.1586,"lon":77.64661,"sequence":5},{"id":"39463","name":"Huttanahalli Basaveshwara Circle","lat":13.16269,"lon":77.64701,"sequence":6},{"id":"23022","name":"Akkayammana Betta","lat":13.16162,"lon":77.64223,"sequence":7},{"id":"34887","name":"Vidyanagara Chikkajala","lat":13.15958,"lon":77.64073,"sequence":8},{"id":"31582","name":"Venkateshwara College","lat":13.16039,"lon":77.63637,"sequence":9},{"id":"27274","name":"Vidyanagara Cross","lat":13.161,"lon":77.6269,"sequence":10}]},{"direction":"DOWN","headsign":"Bagalur","path":[[13.161002,77.627235],[13.16064,77.62791],[13.16023,77.62875],[13.15986,77.6296],[13.1598,77.62982],[13.15979,77.62993],[13.15981,77.63014],[13.15991,77.63046],[13.16006,77.63082],[13.16024,77.63136],[13.16028,77.63155],[13.1603,77.63175],[13.1603,77.63211],[13.16027,77.63257],[13.16014,77.63396],[13.16013,77.6346],[13.16019,77.63515],[13.16026,77.63557],[13.16045,77.63709],[13.16047,77.6374],[13.16047,77.63772],[13.16043,77.63801],[13.1604,77.63813],[13.15954,77.64053],[13.15953,77.64059],[13.15955,77.64069],[13.15957,77.64072],[13.15977,77.64077],[13.16155,77.64065],[13.16187,77.64064],[13.162,77.64066],[13.16205,77.64069],[13.16208,77.64074],[13.16209,77.64082],[13.16208,77.64088],[13.16184,77.64162],[13.16165,77.64226],[13.16172,77.64235],[13.16184,77.6424],[13.16277,77.64241],[13.16298,77.64247],[13.16314,77.64258],[13.16321,77.64266],[13.16328,77.64281],[13.16332,77.643],[13.16333,77.64318],[13.16326,77.64356],[13.1632,77.64374],[13.16289,77.64429],[13.16284,77.6444],[13.16277,77.64464],[13.16273,77.64498],[13.16276,77.64593],[13.16274,77.64626],[13.16268,77.64662],[13.16267,77.64682],[13.16273,77.64703],[13.16277,77.64705],[13.16278,77.64709],[13.16275,77.64715],[13.1627,77.64716],[13.16265,77.64712],[13.16251,77.64713],[13.16104,77.64711],[13.16045,77.64702],[13.15923,77.64676],[13.15864,77.64658],[13.15859,77.64669],[13.15851,77.64699],[13.15826,77.64851],[13.15798,77.65011],[13.15761,77.65244],[13.15758,77.65345],[13.15754,77.65363],[13.15749,77.65375],[13.15732,77.65398],[13.15669,77.65473],[13.15643,77.65502],[13.15646,77.65581],[13.15647,77.65679],[13.15645,77.65893],[13.157377,77.659096],[13.15645,77.65893],[13.15644,77.65962],[13.15451,77.65936],[13.1538,77.65921],[13.15351,77.65909],[13.15263,77.65893],[13.15205,77.65879],[13.15189,77.65871],[13.15181,77.65864],[13.15141,77.65873],[13.15084,77.65876],[13.14979,77.65879],[13.14965,77.65884],[13.1496,77.65895],[13.14953,77.6592],[13.1492,77.66053],[13.14898,77.66134],[13.14886,77.66162],[13.14853,77.66224],[13.14793,77.66347],[13.14708,77.66552],[13.14694,77.66591],[13.14683,77.66616],[13.1467,77.66637],[13.14655,77.66656],[13.14628,77.66683],[13.14602,77.66701],[13.14416,77.66797],[13.14346,77.66826],[13.14328,77.66837],[13.14309,77.66856],[13.14265,77.66907],[13.1425,77.6693],[13.14226,77.66974],[13.14164,77.67106],[13.14154,77.67132],[13.14096,77.67111],[13.13978,77.67075],[13.1393,77.67059],[13.13918,77.67054],[13.13726,77.66948],[13.13708,77.66932],[13.13669,77.66884],[13.13659,77.66875],[13.13638,77.6686],[13.13616,77.6685],[13.13591,77.66842],[13.13524,77.66828],[13.13486,77.66819],[13.1347,77.66817],[13.13458,77.66812]],"stops":[{"id":"34886","name":"Vidyanagara Cross Chikkajala","lat":13.16101,"lon":77.62724,"sequence":1},{"id":"31582","name":"Venkateshwara College","lat":13.16039,"lon":77.63637,"sequence":2},{"id":"31417","name":"Vidyanagara Chikkajala 1","lat":13.15991,"lon":77.64068,"sequence":3},{"id":"29470","name":"Akkayammana Betta Huttanahalli Cross","lat":13.17134,"lon":77.61472,"sequence":4},{"id":"37947","name":"Huttanahalli Basaveshwara Circle","lat":13.16275,"lon":77.64701,"sequence":5},{"id":"39465","name":"Huttanahalli Dinne","lat":13.15864,"lon":77.64662,"sequence":6},{"id":"38895","name":"Depot-52 Gate Arrival","lat":13.15738,"lon":77.65908,"sequence":7},{"id":"38892","name":"Razakpalya Cross","lat":13.14968,"lon":77.65884,"sequence":8},{"id":"35634","name":"Bagalur Colony","lat":13.14146,"lon":77.6713,"sequence":9},{"id":"21699","name":"Bagalur","lat":13.13452,"lon":77.66809,"sequence":10}]}]}