{"short_name":"285 HRTA-HBLB","long_name":"Hebbala Bridge ⇔ Heritage Estate Rajanukunte","directions":[{"direction":"UP","headsign":"Hebbala Bridge","path":[[13.118231,77.5776],[13.11728,77.57798],[13.11697,77.57812],[13.11627,77.57841],[13.114776,77.57906],[13.11381,77.57944],[13.11362,77.57949],[13.11241,77.57959],[13.112,77.57966],[13.11121,77.57989],[13.10988,77.58032],[13.10939,77.58046],[13.10869,77.58069],[13.10797,77.58091],[13.1078,77.58097],[13.10746,77.58113],[13.10716,77.58132],[13.10626,77.58205],[13.106025,77.58227],[13.1054,77.58282],[13.10426,77.58393],[13.10359,77.58467],[13.10286,77.58558],[13.10228,77.58635],[13.10204,77.58662],[13.10147,77.58734],[13.10102,77.58786],[13.100399,77.58863],[13.09888,77.59047],[13.09813,77.59132],[13.09793,77.59152],[13.09668,77.59288],[13.09578,77.59381],[13.09548,77.59409],[13.09539,77.59421],[13.09537,77.5943],[13.09538,77.59441],[13.09483,77.59442],[13.09451,77.59438],[13.0942,77.59438],[13.09368,77.59435],[13.09186,77.59417],[13.09072,77.59412],[13.0902,77.59411],[13.08961,77.59408],[13.08683,77.59387],[13.08493,77.59366],[13.08421,77.59364],[13.08393,77.59358],[13.08337,77.59335],[13.08301,77.59323],[13.08237,77.59306],[13.08219,77.59307],[13.08203,77.59311],[13.08179,77.59349],[13.08158,77.5934],[13.08139,77.59337],[13.07812,77.59308],[13.07595,77.5929],[13.07543,77.59285],[13.07446,77.59284],[13.07375,77.5929],[13.0732,77.59294],[13.07226,77.59303],[13.07017,77.59317],[13.06867,77.59325],[13.06586,77.59349],[13.06541,77.59352],[13.06387,77.59356],[13.06319,77.59359],[13.06252,77.59359],[13.06064,77.59371],[13.06005,77.59373],[13.05832,77.59372],[13.05732,77.59369],[13.05586,77.59369],[13.05483,77.59372],[13.05399,77.5938],[13.05347,77.59383],[13.05288,77.59381],[13.05214,77.59368],[13.05023,77.59321],[13.04984,77.59307],[13.04977,77.59302],[13.04972,77.59295],[13.0497,77.59285],[13.04944,77.59277],[13.04887,77.59258],[13.04803,77.59221],[13.04738,77.59189],[13.04668,77.59158],[13.04637,77.59147],[13.04616,77.59156],[13.04602,77.59148],[13.04594,77.59145],[13.04542,77.59137],[13.0452,77.59132],[13.04446,77.59123],[13.04407,77.59118],[13.04391,77.59111],[13.04359,77.59088],[13.04268,77.59039],[13.04273,77.59023],[13.04275,77.59011],[13.04329,77.59033]],"stops":[{"id":"25864","name":"Heritage Estate Rajanukunte","lat":13.11825,"lon":77.57764,"sequence":1},{"id":"23082","name":"Ananthapura Gate","lat":13.11478,"lon":77.57907,"sequence":2},{"id":"34300","name":"Puttenahalli","lat":13.11016,"lon":77.58024,"sequence":3},{"id":"34849","name":"Wheel And Axle Plant","lat":13.10603,"lon":77.58227,"sequence":4},{"id":"25225","name":"Escorts","lat":13.10281,"lon":77.58566,"sequence":5},{"id":"28297","name":"Sheshadripuram College","lat":13.10041,"lon":77.58864,"sequence":6},{"id":"22357","name":"NES Office","lat":13.09784,"lon":77.59167,"sequence":7},{"id":"22845","name":"Yelahanka Police Station","lat":13.09478,"lon":77.59442,"sequence":8},{"id":"35608","name":"Allalasandra Gate","lat":13.08686,"lon":77.59386,"sequence":9},{"id":"35376","name":"Jakkur Aerodrum","lat":13.07701,"lon":77.59301,"sequence":10},{"id":"35685","name":"GKVK GATE","lat":13.07276,"lon":77.59292,"sequence":11},{"id":"35273","name":"Byatarayanapura","lat":13.06693,"lon":77.59337,"sequence":12},{"id":"35129","name":"Kodigehalli Gate","lat":13.05732,"lon":77.59368,"sequence":13},{"id":"28995","name":"Military Dairy Farm (Esteem Mall)","lat":13.04974,"lon":77.59303,"sequence":14},{"id":"25819","name":"Hebbala Bridge","lat":13.0432,"lon":77.5903,"sequence":15}]}]}