{"short_name":"290-E KLN-RKH","long_name":"Kalyananagara ⇔ RK Hegde Nagara","directions":[{"direction":"UP","headsign":"RK Hegde Nagara","path":[[13.026411,77.63642],[13.02672,77.63522],[13.02719,77.63388],[13.02763,77.63276],[13.0279,77.63221],[13.02805,77.63199],[13.02812,77.63192],[13.0282,77.63186],[13.02846,77.63171],[13.03044,77.63079],[13.03489,77.62856],[13.03658,77.6276],[13.03671,77.62751],[13.0369,77.62735],[13.03725,77.62697],[13.03754,77.62657],[13.03797,77.62592],[13.03809,77.62587],[13.03867,77.62542],[13.03895,77.62523],[13.03997,77.62447],[13.04019,77.62429],[13.04044,77.62435],[13.04113,77.62459],[13.04167,77.62475],[13.04183,77.62481],[13.04199,77.62489],[13.04228,77.62502],[13.04249,77.62513],[13.04344,77.62565],[13.04412,77.62613],[13.04543,77.62733],[13.0457,77.62753],[13.04645,77.62798],[13.04749,77.6286],[13.04908,77.62964],[13.04929,77.62977],[13.05073,77.63053],[13.05108,77.63075],[13.05123,77.63084],[13.05146,77.63092],[13.05241,77.63114],[13.05345,77.63156],[13.05424,77.63185],[13.05455,77.63191],[13.05485,77.63194],[13.05547,77.63209],[13.05569,77.6322],[13.05582,77.63229],[13.05601,77.63248],[13.05605,77.63256],[13.05611,77.6328],[13.05615,77.63285],[13.05623,77.63289],[13.05702,77.63297],[13.05739,77.63297],[13.05762,77.63294],[13.05875,77.63283],[13.05906,77.63281],[13.05985,77.63281],[13.06004,77.63283],[13.06041,77.6329],[13.06115,77.63311],[13.06145,77.63322],[13.06296,77.63349],[13.06437,77.63353],[13.06514,77.6335],[13.06527,77.63344],[13.06538,77.63343],[13.06883,77.63354],[13.06895,77.63356],[13.06902,77.63359],[13.06944,77.6336],[13.07134,77.63364]],"stops":[{"id":"20904","name":"Kalyananagara","lat":13.0264,"lon":77.63642,"sequence":1},{"id":"21528","name":"Hennur Junction","lat":13.02948,"lon":77.63125,"sequence":2},{"id":"20816","name":"HBR Layout","lat":13.035,"lon":77.62849,"sequence":3},{"id":"36305","name":"Nagawara Junction","lat":13.04054,"lon":77.62435,"sequence":4},{"id":"22383","name":"Nagavara Junction Petrol Bunk","lat":13.04192,"lon":77.6248,"sequence":5},{"id":"22600","name":"Vidyasagara","lat":13.04563,"lon":77.62747,"sequence":6},{"id":"22461","name":"Sarayipalya","lat":13.04746,"lon":77.62858,"sequence":7},{"id":"21668","name":"Ashwath Nagara Cross","lat":13.05078,"lon":77.63054,"sequence":8},{"id":"21667","name":"Ashwath Nagara","lat":13.05274,"lon":77.63125,"sequence":9},{"id":"22540","name":"Thanisandra","lat":13.05614,"lon":77.6328,"sequence":10},{"id":"21777","name":"Book Factory Thanisandra","lat":13.06161,"lon":77.63322,"sequence":11},{"id":"22125","name":"K Narayanapura Cross","lat":13.06824,"lon":77.63353,"sequence":12},{"id":"22429","name":"RK Hegde Nagara","lat":13.07158,"lon":77.63362,"sequence":13}]},{"direction":"DOWN","headsign":"Kalyananagara Bus Stand","path":[[13.07161,77.63371],[13.06901,77.63369],[13.06887,77.63374],[13.06841,77.63374],[13.06757,77.63371],[13.0654,77.63367],[13.06526,77.63366],[13.06515,77.6336],[13.06392,77.63361],[13.06334,77.63359],[13.06297,77.63358],[13.06153,77.63333],[13.06114,77.63319],[13.06084,77.6331],[13.06041,77.63298],[13.06005,77.63293],[13.05963,77.6329],[13.05906,77.6329],[13.05836,77.63296],[13.05791,77.63302],[13.05743,77.63306],[13.05725,77.63308],[13.05631,77.63298],[13.05621,77.63296],[13.05615,77.63294],[13.05608,77.6329],[13.05604,77.63284],[13.05596,77.63257],[13.05589,77.63245],[13.05574,77.63234],[13.05545,77.63218],[13.0553,77.63213],[13.05518,77.63209],[13.05455,77.632],[13.05399,77.63187],[13.05345,77.63164],[13.052895,77.631424],[13.05248,77.63123],[13.05231,77.63118],[13.05181,77.63111],[13.05146,77.63102],[13.05108,77.63084],[13.050758,77.63065],[13.05048,77.63048],[13.04928,77.62986],[13.04866,77.62947],[13.04827,77.62919],[13.04706,77.62843],[13.04584,77.62773],[13.04538,77.6274],[13.04431,77.6264],[13.04369,77.62594],[13.04339,77.62575],[13.04291,77.62547],[13.04179,77.62488],[13.04055,77.6245],[13.04045,77.62447],[13.04035,77.62443],[13.03956,77.62503],[13.03875,77.62559],[13.03841,77.62584],[13.03829,77.62588],[13.03822,77.62588],[13.03802,77.62607],[13.03791,77.62621],[13.03738,77.62703],[13.03719,77.62729],[13.03684,77.62762],[13.03661,77.62778],[13.0358,77.62824],[13.035169,77.62857],[13.03201,77.63019],[13.02991,77.63122],[13.02949,77.63144],[13.02939,77.63143],[13.02927,77.63147],[13.0292,77.63147],[13.02849,77.63178],[13.02826,77.63191],[13.02816,77.632],[13.02798,77.63226],[13.02781,77.63262],[13.028,77.63277],[13.02782,77.6332],[13.02713,77.63525],[13.0269,77.6361],[13.02667,77.63704],[13.026407,77.638405]],"stops":[{"id":"22430","name":"RK Hegde Nagara","lat":13.0719,"lon":77.63376,"sequence":1},{"id":"22126","name":"K Narayanapura Cross","lat":13.06833,"lon":77.63375,"sequence":2},{"id":"21778","name":"Book Factory Thanisandra","lat":13.06161,"lon":77.63334,"sequence":3},{"id":"22541","name":"Thanisandra","lat":13.0561,"lon":77.63291,"sequence":4},{"id":"21666","name":"Ashwath Nagara","lat":13.05289,"lon":77.63144,"sequence":5},{"id":"21669","name":"Ashwath Nagara Cross","lat":13.05075,"lon":77.63067,"sequence":6},{"id":"28167","name":"Sarayipalya","lat":13.04745,"lon":77.62868,"sequence":7},{"id":"22601","name":"Vidyasagara","lat":13.04559,"lon":77.62759,"sequence":8},{"id":"22382","name":"Nagavara Junction Petrol Bunk","lat":13.04189,"lon":77.62498,"sequence":9},{"id":"20884","name":"Nagawara Junction","lat":13.0402,"lon":77.62454,"sequence":10},{"id":"20815","name":"HBR Layout","lat":13.03517,"lon":77.62857,"sequence":11},{"id":"21522","name":"Hennur Junction","lat":13.02964,"lon":77.63134,"sequence":12},{"id":"36441","name":"Kalyananagara Bus Stand","lat":13.02642,"lon":77.63839,"sequence":13}]}]}