{"short_name":"293-S D48G-BGLR","long_name":"Bagalur ⇔ Depot-48 Gate","directions":[{"direction":"UP","headsign":"Bagalur","path":[[13.07756,77.65471],[13.07778,77.65396],[13.07798,77.65351],[13.07805,77.65341],[13.0782,77.65356],[13.07841,77.65371],[13.0786,77.65377],[13.07875,77.65379],[13.07888,77.65379],[13.07927,77.65373],[13.08024,77.6535],[13.08105,77.65332],[13.08144,77.65325],[13.0817,77.65326],[13.08195,77.65332],[13.08375,77.65403],[13.08415,77.65415],[13.08531,77.65432],[13.08628,77.65449],[13.08669,77.65459],[13.086748,77.65461],[13.08723,77.65475],[13.08781,77.65489],[13.08819,77.65487],[13.08911,77.65469],[13.08949,77.6546],[13.08966,77.65456],[13.09014,77.65449],[13.0903,77.65449],[13.09125,77.65458],[13.09145,77.65461],[13.09153,77.65466],[13.09169,77.65469],[13.09234,77.65482],[13.0926,77.65484],[13.0927,77.65479],[13.09276,77.65473],[13.09298,77.65442],[13.09309,77.65434],[13.09325,77.65434],[13.093246,77.65423],[13.09325,77.65434],[13.09346,77.65434],[13.09405,77.65438],[13.09422,77.65437],[13.09515,77.65446],[13.09595,77.65455],[13.09612,77.65458],[13.09623,77.65461],[13.09648,77.65471],[13.09681,77.6549],[13.09708,77.65512],[13.09784,77.65583],[13.0981,77.65611],[13.09822,77.65621],[13.09867,77.65651],[13.1001,77.65726],[13.1007,77.6576],[13.10122,77.65792],[13.10178,77.65831],[13.10239,77.65883],[13.10272,77.65905],[13.10298,77.6592],[13.10321,77.65931],[13.10447,77.65982],[13.10614,77.66084],[13.10625,77.66094],[13.10633,77.66109],[13.10635,77.66118],[13.10635,77.66127],[13.10623,77.66196],[13.10617,77.66239],[13.106,77.66383],[13.10592,77.66439],[13.10591,77.66464],[13.10598,77.66486],[13.10616,77.66504],[13.10633,77.66515],[13.10703,77.66545],[13.107705,77.66569],[13.10952,77.66625],[13.11282,77.6673],[13.11359,77.66753],[13.11692,77.66859],[13.11727,77.66866],[13.11779,77.66872],[13.11794,77.66872],[13.11883,77.66859],[13.11961,77.66844],[13.12007,77.66838],[13.12162,77.66828],[13.12216,77.66828],[13.122548,77.668274],[13.12289,77.6683],[13.12339,77.66839],[13.1237,77.66838],[13.1242,77.66827],[13.12464,77.66809],[13.12494,77.668],[13.12532,77.66796],[13.12574,77.6679],[13.12616,77.66778],[13.12642,77.66766],[13.12653,77.66757],[13.12675,77.66733],[13.12697,77.66717],[13.12708,77.66711],[13.12749,77.66693],[13.12786,77.6668],[13.12817,77.66673],[13.12852,77.66671],[13.12903,77.66671],[13.12955,77.66665],[13.13034,77.66651],[13.13073,77.6665],[13.13087,77.66652],[13.13099,77.66653],[13.1316,77.66672],[13.13187,77.66682],[13.1322,77.6669],[13.13247,77.66691],[13.13281,77.66686],[13.13333,77.6667],[13.13338,77.66665],[13.13351,77.66674],[13.13407,77.66707],[13.13417,77.66717],[13.13436,77.66732],[13.13447,77.66743],[13.13451,77.6675],[13.134641,77.66792]],"stops":[{"id":"35042","name":"Depot-48 Gate","lat":13.07753,"lon":77.65469,"sequence":1},{"id":"21794","name":"Byrathi Bande","lat":13.07803,"lon":77.6534,"sequence":2},{"id":"22331","name":"Nagenahalli","lat":13.08136,"lon":77.65328,"sequence":3},{"id":"21836","name":"Chikka Gubbi Cross","lat":13.08427,"lon":77.65414,"sequence":4},{"id":"30737","name":"Kanakashree Layout Chikka Gubbi","lat":13.08676,"lon":77.65457,"sequence":5},{"id":"22153","name":"Kannuru","lat":13.09328,"lon":77.65423,"sequence":6},{"id":"22131","name":"Kadasonnappanahalli Gate","lat":13.10154,"lon":77.65811,"sequence":7},{"id":"22059","name":"Hosuru Bande","lat":13.10601,"lon":77.66071,"sequence":8},{"id":"22532","name":"Tavakkal Hospital","lat":13.10594,"lon":77.66442,"sequence":9},{"id":"22014","name":"Sonnappanahalli(Hamsa Farm)","lat":13.10772,"lon":77.66564,"sequence":10},{"id":"40333","name":"Target Shooting Academy","lat":13.11442,"lon":77.66776,"sequence":11},{"id":"21810","name":"Chakkalatti","lat":13.12255,"lon":77.66823,"sequence":12},{"id":"39135","name":"Mary Immaculate School","lat":13.12579,"lon":77.66782,"sequence":13},{"id":"38654","name":"Bagluru Old police Station","lat":13.12952,"lon":77.66661,"sequence":14},{"id":"31859","name":"Bagalur Santhe Circle","lat":13.13351,"lon":77.66675,"sequence":15},{"id":"23267","name":"Bagalur","lat":13.13461,"lon":77.66794,"sequence":16}]},{"direction":"DOWN","headsign":"Depot-48 Gate","path":[[13.134595,77.66804],[13.13455,77.66794],[13.13449,77.66766],[13.13444,77.66755],[13.13438,77.66746],[13.1343,77.66738],[13.13402,77.66715],[13.13373,77.66696],[13.13344,77.6668],[13.133389,77.66681],[13.13306,77.66689],[13.13267,77.66698],[13.13231,77.667],[13.13204,77.66695],[13.13185,77.66689],[13.13107,77.66665],[13.13084,77.6666],[13.13047,77.66658],[13.13025,77.6666],[13.129767,77.66669],[13.12917,77.66677],[13.12842,77.66679],[13.12814,77.66682],[13.12801,77.66685],[13.1275,77.66701],[13.12736,77.66707],[13.12712,77.66719],[13.12701,77.66725],[13.12679,77.66742],[13.12655,77.66766],[13.12632,77.6678],[13.1262,77.66785],[13.12582,77.66796],[13.12549,77.66802],[13.12497,77.66807],[13.12408,77.66838],[13.12371,77.66845],[13.12342,77.66845],[13.12256,77.66835],[13.1216,77.66835],[13.11978,77.66849],[13.11888,77.66866],[13.11811,77.66879],[13.1176,77.66878],[13.11725,77.66874],[13.11691,77.66867],[13.11441,77.66786],[13.10775,77.66579],[13.10659,77.66536],[13.1061,77.66512],[13.10592,77.66498],[13.10587,77.66491],[13.10582,77.66479],[13.10581,77.66466],[13.10601,77.66322],[13.10609,77.66238],[13.10626,77.66143],[13.10628,77.66125],[13.10628,77.66114],[13.10626,77.66107],[13.10621,77.66099],[13.106,77.66082],[13.10532,77.6604],[13.10445,77.65989],[13.10377,77.65962],[13.10339,77.65945],[13.10318,77.65937],[13.10278,77.65919],[13.10252,77.65901],[13.10182,77.65844],[13.10118,77.65798],[13.10066,77.65766],[13.10006,77.65732],[13.09845,77.65647],[13.09815,77.65624],[13.09729,77.65539],[13.09694,77.65508],[13.09663,77.65488],[13.09636,77.65474],[13.0961,77.65465],[13.09594,77.65462],[13.09421,77.65445],[13.09405,77.65438],[13.09346,77.65434],[13.09325,77.65434],[13.093247,77.65426],[13.09325,77.65434],[13.09309,77.65434],[13.09298,77.65442],[13.09276,77.65473],[13.0927,77.65479],[13.0926,77.65484],[13.09234,77.65482],[13.09153,77.65466],[13.09145,77.65469],[13.09028,77.65457],[13.09008,77.65458],[13.08999,77.6546],[13.08966,77.65466],[13.08914,77.65479],[13.08833,77.65496],[13.0879,77.655],[13.0877,77.65497],[13.08626,77.65459],[13.0853,77.65443],[13.08413,77.65426],[13.08354,77.65407],[13.08193,77.65344],[13.08178,77.6534],[13.08146,77.65336],[13.0806,77.65355],[13.07929,77.65386],[13.07909,77.65389],[13.07886,77.65391],[13.07858,77.65388],[13.0784,77.65382],[13.07823,77.65373],[13.07798,77.65351],[13.07778,77.65396],[13.07756,77.65471]],"stops":[{"id":"21699","name":"Bagalur","lat":13.13452,"lon":77.66809,"sequence":1},{"id":"21700","name":"Bagalur Santhe‌ Circle","lat":13.1334,"lon":77.66686,"sequence":2},{"id":"38653","name":"Bagluru Old police Station","lat":13.12977,"lon":77.6667,"sequence":3},{"id":"39134","name":"Mary Immaculate School","lat":13.12589,"lon":77.66795,"sequence":4},{"id":"21811","name":"Chakkalatti","lat":13.12256,"lon":77.66836,"sequence":5},{"id":"40334","name":"Target Shooting Academy","lat":13.11442,"lon":77.66789,"sequence":6},{"id":"22501","name":"Sonnappanahalli","lat":13.10764,"lon":77.66576,"sequence":7},{"id":"22533","name":"Tavakkal Hospital","lat":13.10578,"lon":77.66442,"sequence":8},{"id":"22060","name":"Hosuru Bande","lat":13.10601,"lon":77.66086,"sequence":9},{"id":"22132","name":"Kadasonnappanahalli Gate","lat":13.10165,"lon":77.65832,"sequence":10},{"id":"22154","name":"Kannuru","lat":13.09326,"lon":77.65426,"sequence":11},{"id":"22150","name":"Kanakashree Layout Chikka Gubbi","lat":13.08679,"lon":77.65476,"sequence":12},{"id":"21837","name":"Chikka Gubbi Cross","lat":13.08439,"lon":77.65434,"sequence":13},{"id":"22333","name":"Nagenahalli","lat":13.08139,"lon":77.65341,"sequence":14},{"id":"30326","name":"Byrathi Bande","lat":13.07794,"lon":77.65355,"sequence":15},{"id":"35042","name":"Depot-48 Gate","lat":13.07753,"lon":77.65469,"sequence":16}]}]}