{"short_name":"301-T","long_name":"B Channasandra Bridge(Ramamurthy Nagara Ring Road) ⇔ TC Palya","directions":[{"direction":"UP","headsign":"B Channasandra Bridge(Ramamurthy Nagara Ring Road)","path":[[13.02168,77.69985],[13.02178,77.69953],[13.02235,77.69708],[13.02246,77.69685],[13.02254,77.69673],[13.02264,77.6965],[13.02269,77.69631],[13.02277,77.69609],[13.02282,77.69601],[13.02297,77.69588],[13.02349,77.69572],[13.02365,77.69565],[13.02376,77.69551],[13.0238,77.69544],[13.02388,77.6952],[13.024,77.69441],[13.02402,77.69353],[13.02404,77.69334],[13.02406,77.69326],[13.02413,77.69312],[13.02416,77.69304],[13.02419,77.69284],[13.02419,77.69275],[13.02404,77.69147],[13.02396,77.69121],[13.02389,77.69106],[13.02341,77.69041],[13.02319,77.69008],[13.02251,77.68924],[13.02226,77.68895],[13.02213,77.68874],[13.02208,77.68855],[13.02193,77.6877],[13.0219,77.68759],[13.02181,77.68739],[13.02176,77.68733],[13.02168,77.68728],[13.02162,77.68727],[13.02147,77.68728],[13.02116,77.68733],[13.02109,77.68733],[13.02103,77.68729],[13.02097,77.68721],[13.02092,77.68711],[13.02072,77.68642],[13.02064,77.68413],[13.02082,77.68251],[13.02098,77.68136],[13.021,77.681],[13.02099,77.68046],[13.02101,77.68024],[13.02116,77.67945],[13.02125,77.67905],[13.02129,77.67894],[13.0213,77.67875],[13.02133,77.67857],[13.02134,77.67835],[13.02132,77.67815],[13.02129,77.67801],[13.02127,77.67769],[13.02125,77.67758],[13.02123,77.6775],[13.02118,77.67742],[13.02103,77.67736],[13.0209,77.67733],[13.02081,77.67723],[13.02077,77.67714],[13.02059,77.67616],[13.02053,77.67548],[13.02051,77.67539],[13.02044,77.67522],[13.02014,77.67476],[13.01988,77.6743],[13.01954,77.67377],[13.01868,77.67263],[13.01841,77.67221],[13.01773,77.67089],[13.01702,77.66936],[13.01686,77.66909],[13.01667,77.66883],[13.01609,77.66822],[13.01601,77.66812],[13.01573,77.66766],[13.01556,77.66734],[13.01533,77.66685],[13.01527,77.66665],[13.01505,77.66602],[13.015,77.6659],[13.01489,77.66568],[13.01456,77.66517],[13.01419,77.66474],[13.0141,77.66468],[13.01387,77.66421],[13.01381,77.66411],[13.01338,77.66359],[13.01327,77.66356],[13.01297,77.66356],[13.01313,77.6629],[13.01312,77.66275],[13.01314,77.66264]],"stops":[{"id":"26840","name":"TC Palya","lat":13.02161,"lon":77.69986,"sequence":1},{"id":"35489","name":"Anandapura","lat":13.0241,"lon":77.6927,"sequence":2},{"id":"29980","name":"Bhakthi Yoga Ashrama","lat":13.02256,"lon":77.68928,"sequence":3},{"id":"35523","name":"Akshayanagara","lat":13.02069,"lon":77.68343,"sequence":4},{"id":"30642","name":"Kalkere Cross","lat":13.02127,"lon":77.67891,"sequence":5},{"id":"31242","name":"Koshys Hospital Kalkere","lat":13.02067,"lon":77.67701,"sequence":6},{"id":"34308","name":"Raghavendra Circle","lat":13.01994,"lon":77.6745,"sequence":7},{"id":"29086","name":"Muneshwara Nagara","lat":13.01785,"lon":77.67118,"sequence":8},{"id":"26006","name":"Hoysala Nagara","lat":13.01668,"lon":77.66891,"sequence":9},{"id":"28031","name":"RK Apartment","lat":13.0145,"lon":77.66522,"sequence":10},{"id":"21694","name":"B Channasandra Bridge(Ramamurthy Nagara Ring Road)","lat":13.01311,"lon":77.66257,"sequence":11}]},{"direction":"DOWN","headsign":"TC Palya","path":[[13.01322,77.66265],[13.01317,77.66285],[13.01313,77.6629],[13.01324,77.66296],[13.01327,77.663],[13.01337,77.66346],[13.01342,77.66354],[13.01353,77.66366],[13.01369,77.66387],[13.01383,77.66403],[13.01403,77.66445],[13.01417,77.66468],[13.01419,77.66474],[13.01456,77.66517],[13.01489,77.66568],[13.015,77.6659],[13.01505,77.66602],[13.01527,77.66665],[13.01533,77.66685],[13.01556,77.66734],[13.01573,77.66766],[13.01601,77.66812],[13.01609,77.66822],[13.01667,77.66883],[13.01686,77.66909],[13.01702,77.66936],[13.01773,77.67089],[13.01841,77.67221],[13.01868,77.67263],[13.01954,77.67377],[13.01988,77.6743],[13.02014,77.67476],[13.02044,77.67522],[13.02051,77.67539],[13.02053,77.67548],[13.02059,77.67616],[13.02077,77.67714],[13.02081,77.67723],[13.0209,77.67733],[13.02103,77.67736],[13.02118,77.67742],[13.02123,77.6775],[13.02125,77.67758],[13.02127,77.67769],[13.02129,77.67801],[13.02132,77.67815],[13.02134,77.67835],[13.02133,77.67857],[13.0213,77.67875],[13.02129,77.67894],[13.02125,77.67905],[13.02116,77.67945],[13.02101,77.68024],[13.02099,77.68046],[13.021,77.681],[13.02098,77.68136],[13.02082,77.68251],[13.02064,77.68413],[13.02072,77.68642],[13.02092,77.68711],[13.02097,77.68721],[13.02103,77.68729],[13.02109,77.68733],[13.02116,77.68733],[13.02147,77.68728],[13.02162,77.68727],[13.02168,77.68728],[13.02176,77.68733],[13.02181,77.68739],[13.0219,77.68759],[13.02193,77.6877],[13.02208,77.68855],[13.02213,77.68874],[13.02226,77.68895],[13.022584,77.68933],[13.02319,77.69008],[13.02341,77.69041],[13.02389,77.69106],[13.02396,77.69121],[13.02404,77.69147],[13.02419,77.69275],[13.02419,77.69284],[13.02416,77.69304],[13.02413,77.69312],[13.02406,77.69326],[13.02404,77.69334],[13.02402,77.69353],[13.024,77.69441],[13.02388,77.6952],[13.0238,77.69544],[13.02376,77.69551],[13.02365,77.69565],[13.02349,77.69572],[13.02297,77.69588],[13.02282,77.69601],[13.02277,77.69609],[13.02269,77.69631],[13.02264,77.6965],[13.02254,77.69673],[13.02246,77.69685],[13.02235,77.69708],[13.02178,77.69953],[13.02168,77.69985],[13.02161,77.69997]],"stops":[{"id":"21695","name":"B Channasandra Bridge(Ramamurthy Nagara Ring Road)","lat":13.01318,"lon":77.66272,"sequence":1},{"id":"34419","name":"RK Apartment","lat":13.01465,"lon":77.66532,"sequence":2},{"id":"32982","name":"Hoysala Nagara","lat":13.01669,"lon":77.66888,"sequence":3},{"id":"33975","name":"Muneshwara Nagara","lat":13.01793,"lon":77.67123,"sequence":4},{"id":"34309","name":"Raghavendra Circle","lat":13.01995,"lon":77.67441,"sequence":5},{"id":"33576","name":"Koshys Hospital Kalkere","lat":13.02077,"lon":77.67708,"sequence":6},{"id":"30642","name":"Kalkere Cross","lat":13.02127,"lon":77.67891,"sequence":7},{"id":"29472","name":"Akshayanagara","lat":13.0208,"lon":77.68338,"sequence":8},{"id":"32021","name":"Bhakthi Yoga Ashrama","lat":13.02262,"lon":77.6893,"sequence":9},{"id":"29511","name":"Anandapura","lat":13.02423,"lon":77.69285,"sequence":10},{"id":"34768","name":"TC Palya","lat":13.0216,"lon":77.69998,"sequence":11}]}]}