{"short_name":"302-D KMT- SJHST","long_name":"St Johns High School Thomas Cafe ⇔ KR Market","directions":[{"direction":"UP","headsign":"St Johns High School Thomas Cafe","path":[[12.964101,77.578964],[12.96431,77.57901],[12.96414,77.58081],[12.96403,77.58222],[12.96396,77.58296],[12.96391,77.58402],[12.96387,77.58412],[12.96385,77.58422],[12.96381,77.58461],[12.96382,77.58484],[12.96387,77.58511],[12.96391,77.58524],[12.96406,77.58542],[12.96539,77.58659],[12.9656,77.58669],[12.9658,77.58674],[12.9659,77.58678],[12.96604,77.58689],[12.96636,77.58719],[12.96647,77.58726],[12.96657,77.5873],[12.96682,77.58737],[12.9671,77.58741],[12.96748,77.58744],[12.9678,77.58725],[12.96799,77.58719],[12.96887,77.58623],[12.96913,77.58591],[12.9696,77.58537],[12.97017,77.5847],[12.97101,77.5838],[12.97168,77.583],[12.97217,77.58249],[12.97258,77.58194],[12.97281,77.58153],[12.97291,77.58163],[12.97333,77.58232],[12.97368,77.58285],[12.97491,77.5849],[12.97503,77.58514],[12.97524,77.58562],[12.975547,77.5864],[12.97581,77.58701],[12.97591,77.58702],[12.97601,77.58713],[12.97601,77.58721],[12.97597,77.5873],[12.97608,77.58761],[12.97734,77.59007],[12.97751,77.59037],[12.97772,77.59062],[12.97856,77.59144],[12.9787,77.59158],[12.97973,77.59256],[12.98175,77.59453],[12.98188,77.5946],[12.98242,77.59499],[12.98295,77.59549],[12.98327,77.59576],[12.98353,77.59607],[12.98421,77.59695],[12.98444,77.59709],[12.98451,77.59715],[12.98469,77.59697],[12.98518,77.59653],[12.98533,77.59637],[12.98575,77.59605],[12.98684,77.59506],[12.98739,77.5947],[12.98799,77.59425],[12.9887,77.5937],[12.98907,77.59339],[12.98969,77.59283],[12.99023,77.59312],[12.99099,77.59368],[12.99165,77.5941],[12.99212,77.59447],[12.99269,77.59497],[12.99323,77.59541],[12.99347,77.5956],[12.99365,77.59578],[12.99385,77.59596],[12.994,77.59613],[12.99408,77.59627],[12.99411,77.59638],[12.99405,77.5966],[12.99354,77.59771],[12.99337,77.59804],[12.99325,77.5982],[12.99294,77.5984],[12.99284,77.59855],[12.99279,77.59866],[12.99205,77.60069],[12.99186,77.60155],[12.99182,77.60185],[12.9918,77.60238],[12.99182,77.60273],[12.99188,77.60325],[12.99195,77.6036],[12.99212,77.60411],[12.99216,77.60419],[12.99231,77.60439],[12.99239,77.60443],[12.99347,77.60539],[12.9938,77.60563],[12.994,77.60574],[12.99436,77.60591],[12.99509,77.60632],[12.9955,77.60659],[12.9959,77.60688],[12.99637,77.60718],[12.99596,77.60775],[12.99591,77.60785],[12.99584,77.60804],[12.9956,77.60843],[12.99557,77.60855],[12.9955,77.60867],[12.99532,77.60887],[12.99479,77.60962],[12.99458,77.60994]],"stops":[{"id":"20940","name":"KR Market","lat":12.9641,"lon":77.57897,"sequence":1},{"id":"21231","name":"Town Hall","lat":12.96384,"lon":77.58434,"sequence":2},{"id":"20725","name":"Corporation","lat":12.96839,"lon":77.58675,"sequence":3},{"id":"24128","name":"City Civil Court","lat":12.97343,"lon":77.58243,"sequence":4},{"id":"22197","name":"KR Circle","lat":12.97556,"lon":77.58637,"sequence":5},{"id":"21259","name":"Vidhana Soudha Karnataka High Court","lat":12.9802,"lon":77.59296,"sequence":6},{"id":"26121","name":"Indian Express","lat":12.98387,"lon":77.59645,"sequence":7},{"id":"21869","name":"Cunningham Road","lat":12.98788,"lon":77.59423,"sequence":8},{"id":"22585","name":"Vasantha Nagara","lat":12.99278,"lon":77.59503,"sequence":9},{"id":"21805","name":"Cantonment Railway Station","lat":12.9937,"lon":77.59689,"sequence":10},{"id":"21704","name":"Bamboo Bazar","lat":12.99191,"lon":77.60342,"sequence":11},{"id":"21859","name":"Coles Park","lat":12.99573,"lon":77.60668,"sequence":12},{"id":"37046","name":"St Johns High School Thomas Cafe","lat":12.99458,"lon":77.60995,"sequence":13}]},{"direction":"DOWN","headsign":"KR Market","path":[[12.99458,77.60994],[12.99451,77.60988],[12.99472,77.60956],[12.99526,77.6088],[12.99544,77.6086],[12.99551,77.60849],[12.9956,77.60843],[12.99481,77.60799],[12.9945,77.60783],[12.99358,77.60734],[12.99312,77.60725],[12.99166,77.60717],[12.99164,77.60691],[12.99152,77.60673],[12.99134,77.60651],[12.99113,77.60632],[12.99094,77.60621],[12.99067,77.60608],[12.99066,77.60529],[12.99104,77.60513],[12.99133,77.60492],[12.99163,77.60472],[12.99222,77.60428],[12.99212,77.60411],[12.99195,77.6036],[12.99191,77.60344],[12.99182,77.60273],[12.9918,77.60217],[12.99182,77.60185],[12.99186,77.60155],[12.99205,77.60069],[12.99229,77.60004],[12.99053,77.59957],[12.98944,77.59921],[12.98925,77.59914],[12.98875,77.59897],[12.98693,77.59831],[12.98667,77.59821],[12.986,77.59796],[12.98526,77.59763],[12.98466,77.59733],[12.98453,77.5973],[12.98437,77.59721],[12.98416,77.59707],[12.98398,77.59689],[12.98346,77.59621],[12.98322,77.59593],[12.98287,77.59562],[12.98181,77.5948],[12.98153,77.59452],[12.98099,77.594],[12.98036,77.59336],[12.97847,77.59155],[12.97786,77.59095],[12.97769,77.59081],[12.97754,77.59063],[12.97731,77.59029],[12.97656,77.58875],[12.97618,77.58802],[12.97593,77.58764],[12.9758,77.58735],[12.97575,77.58733],[12.97571,77.58729],[12.97568,77.58721],[12.97568,77.58716],[12.97448,77.58665],[12.9743,77.5866],[12.97409,77.58658],[12.97263,77.58677],[12.97136,77.58698],[12.96954,77.58716],[12.96806,77.58745],[12.96796,77.58752],[12.96791,77.58761],[12.96787,77.58774],[12.96782,77.58812],[12.96781,77.58843],[12.96742,77.58843],[12.96729,77.58841],[12.96676,77.58797],[12.96663,77.58783],[12.96631,77.58752],[12.96567,77.58697],[12.96494,77.58632],[12.96458,77.58597],[12.96384,77.58529],[12.9637,77.58462],[12.96362,77.58401],[12.96349,77.58334],[12.96347,77.58299],[12.9634,77.58237],[12.9634,77.58173],[12.96347,77.58107],[12.96344,77.58084],[12.96344,77.58074],[12.96352,77.57982],[12.96354,77.57886],[12.96359,77.57888],[12.96367,77.57887],[12.964101,77.578964]],"stops":[{"id":"37046","name":"St Johns High School Thomas Cafe","lat":12.99458,"lon":77.60995,"sequence":1},{"id":"21857","name":"Coles Park","lat":12.99534,"lon":77.60829,"sequence":2},{"id":"21706","name":"Bamboo Bazar","lat":12.99204,"lon":77.60397,"sequence":3},{"id":"21868","name":"CSI Hospital","lat":12.98983,"lon":77.59938,"sequence":4},{"id":"35138","name":"Indian Express","lat":12.98362,"lon":77.59646,"sequence":5},{"id":"21258","name":"Vidhana Soudha Karnataka High Court","lat":12.97821,"lon":77.59135,"sequence":6},{"id":"20939","name":"KR Circle","lat":12.97386,"lon":77.58661,"sequence":7},{"id":"21195","name":"St Marthas Hospital","lat":12.96945,"lon":77.58716,"sequence":8},{"id":"20727","name":"Corporation","lat":12.96701,"lon":77.58822,"sequence":9},{"id":"21232","name":"Town Hall","lat":12.96355,"lon":77.58375,"sequence":10},{"id":"20940","name":"KR Market","lat":12.9641,"lon":77.57897,"sequence":11}]}]}