{"short_name":"302 KLN-OBH","long_name":"Old Baiyappanahalli ⇔ Kalyananagara Bus Stand","directions":[{"direction":"UP","headsign":"Old Baiyappanahalli","path":[[13.026411,77.63839],[13.02618,77.63961],[13.02614,77.63976],[13.02576,77.64077],[13.02521,77.64201],[13.02475,77.64311],[13.02462,77.64339],[13.02452,77.64338],[13.02442,77.64341],[13.02433,77.6434],[13.02425,77.64339],[13.02482,77.64202],[13.02508,77.64146],[13.02522,77.64118],[13.02525,77.64106],[13.02525,77.64101],[13.02523,77.64096],[13.02554,77.64028],[13.0257,77.6399],[13.02575,77.63973],[13.02586,77.63924],[13.02627,77.63706],[13.02556,77.63712],[13.02502,77.63713],[13.024,77.63718],[13.02274,77.63727],[13.02252,77.63725],[13.02232,77.6372],[13.02227,77.63717],[13.02162,77.63705],[13.02079,77.63692],[13.02022,77.63693],[13.01999,77.63694],[13.01958,77.6369],[13.01911,77.63678],[13.01865,77.63665],[13.01737,77.63635],[13.01658,77.63621],[13.01585,77.63605],[13.01513,77.63591],[13.01506,77.63592],[13.01477,77.63587],[13.0145,77.6358],[13.01439,77.63621],[13.01437,77.63626],[13.01432,77.63633],[13.01427,77.63653],[13.01414,77.63759],[13.01404,77.63897],[13.014048,77.63956],[13.01408,77.64008],[13.01411,77.64104],[13.01406,77.64182],[13.01394,77.64251],[13.01382,77.64248],[13.01363,77.64247],[13.01292,77.64259],[13.01273,77.64262],[13.01155,77.64285],[13.01094,77.64297],[13.01001,77.64317],[13.00975,77.64322],[13.00925,77.64335],[13.00914,77.6434],[13.00871,77.64273],[13.00853,77.64238],[13.00851,77.6423],[13.00831,77.64197],[13.0081,77.64167],[13.0078,77.64119],[13.00749,77.64073],[13.00636,77.64096],[13.00607,77.641],[13.00603,77.6407],[13.00595,77.64035],[13.0056,77.63925],[13.00548,77.6387],[13.00545,77.63849],[13.00547,77.63799],[13.0054,77.63785],[13.00536,77.63782],[13.00519,77.63758],[13.00447,77.63691],[13.00429,77.63672],[13.00402,77.63638],[13.00389,77.63649],[13.0032,77.63775],[13.00289,77.63834],[13.00281,77.63848],[13.00266,77.63862],[13.00187,77.63897],[13.00146,77.63928],[13.00097,77.63962],[13.00085,77.63969],[13.00072,77.63977],[12.99889,77.64074],[12.99856,77.64093],[12.99787,77.64138],[12.99751,77.64164],[12.99633,77.64237],[12.99604,77.6426],[12.99585,77.64272],[12.99577,77.64282],[12.99568,77.64299],[12.99555,77.64333],[12.9955,77.64343],[12.99545,77.64349],[12.99537,77.64355],[12.99521,77.64361],[12.9951,77.64367],[12.99501,77.64374],[12.99487,77.64387],[12.99463,77.64402],[12.9943,77.64415]],"stops":[{"id":"36441","name":"Kalyananagara Bus Stand","lat":13.02642,"lon":77.63839,"sequence":1},{"id":"22142","name":"Kalyananagara Junction","lat":13.02599,"lon":77.63714,"sequence":2},{"id":"22109","name":"Kalyana nagara 8th Main 3rd Cross  Junction","lat":13.02274,"lon":77.6373,"sequence":3},{"id":"22659","name":"Jalavayu Vihara","lat":13.02137,"lon":77.63703,"sequence":4},{"id":"22147","name":"Kammanahalli","lat":13.01797,"lon":77.63653,"sequence":5},{"id":"22149","name":"Kammanahalli Empire Hotel","lat":13.01477,"lon":77.63593,"sequence":6},{"id":"22210","name":"Kullappa Circle","lat":13.01403,"lon":77.63935,"sequence":7},{"id":"22377","name":"Patel Public School Kalyananagara","lat":13.01364,"lon":77.64251,"sequence":8},{"id":"22271","name":"Maruthi School","lat":13.00957,"lon":77.64327,"sequence":9},{"id":"36254","name":"Ayyappa Temple","lat":13.00755,"lon":77.64093,"sequence":10},{"id":"22071","name":"Indian Oil","lat":13.00548,"lon":77.63871,"sequence":11},{"id":"28180","name":"Sathya Nagara","lat":13.00047,"lon":77.63991,"sequence":12},{"id":"35956","name":"Sir M Visvesvaraya Terminal","lat":12.99835,"lon":77.64109,"sequence":13},{"id":"22371","name":"Old Baiyappanahalli","lat":12.99431,"lon":77.64424,"sequence":14}]},{"direction":"DOWN","headsign":"Kalyananagara Bus Stand","path":[[12.994321,77.64414],[12.99463,77.64402],[12.99487,77.64387],[12.99501,77.64374],[12.9951,77.64367],[12.99521,77.64361],[12.99537,77.64355],[12.99545,77.64349],[12.9955,77.64343],[12.99555,77.64333],[12.99572,77.6429],[12.99577,77.64282],[12.99585,77.64272],[12.9959,77.64264],[12.996,77.64254],[12.9963,77.64231],[12.99721,77.64169],[12.99737,77.6416],[12.99807,77.64111],[12.99827,77.64099],[12.99857,77.64082],[12.998975,77.64058],[12.99969,77.64022],[13.00069,77.6397],[13.00142,77.63922],[13.00175,77.63897],[13.00192,77.63886],[13.0022,77.63872],[13.00263,77.63855],[13.00274,77.63847],[13.00329,77.6374],[13.00364,77.63677],[13.00375,77.6366],[13.00389,77.6363],[13.00395,77.63621],[13.00436,77.6367],[13.00447,77.63672],[13.00456,77.63667],[13.00461,77.63662],[13.00464,77.63658],[13.0047,77.63644],[13.00469,77.63629],[13.00466,77.63623],[13.00462,77.63619],[13.00455,77.63615],[13.00448,77.63614],[13.00444,77.63615],[13.00437,77.63621],[13.00435,77.63632],[13.00438,77.63648],[13.0045,77.63679],[13.00453,77.63684],[13.00458,77.6369],[13.00487,77.63715],[13.00489,77.6371],[13.00489,77.63694],[13.00476,77.63623],[13.00477,77.63615],[13.00482,77.6361],[13.00504,77.63608],[13.00584,77.63613],[13.0063,77.63604],[13.00667,77.63584],[13.00696,77.63576],[13.00734,77.63572],[13.00806,77.63557],[13.00851,77.63552],[13.00884,77.63547],[13.00965,77.63538],[13.0098,77.63534],[13.01022,77.63527],[13.01031,77.63525],[13.0105,77.63522],[13.0106,77.6352],[13.01087,77.63517],[13.01137,77.63515],[13.01182,77.6352],[13.01299,77.6354],[13.01317,77.63544],[13.0135,77.63553],[13.01384,77.63561],[13.01395,77.6356],[13.01445,77.63573],[13.014716,77.63581],[13.0149,77.63584],[13.01513,77.63591],[13.01585,77.63605],[13.01658,77.63621],[13.01737,77.63635],[13.01799,77.63649],[13.01835,77.63658],[13.01865,77.63665],[13.01938,77.63685],[13.01968,77.63692],[13.01999,77.63694],[13.02022,77.63693],[13.02079,77.63692],[13.02162,77.63705],[13.02227,77.63717],[13.02233,77.63716],[13.022474,77.637184],[13.02276,77.63721],[13.024,77.63714],[13.02549,77.63705],[13.02581,77.63704],[13.02607,77.63701],[13.02621,77.63637],[13.02643,77.63552],[13.0266,77.63494],[13.02692,77.63402],[13.02727,77.63317],[13.02751,77.63266],[13.02762,77.63248],[13.028,77.63277],[13.02782,77.6332],[13.02713,77.63525],[13.0269,77.6361],[13.02667,77.63704],[13.026411,77.63839]],"stops":[{"id":"22370","name":"Old Baiyappanahalli","lat":12.99432,"lon":77.64414,"sequence":1},{"id":"35955","name":"Sir M Visvesvaraya Terminal","lat":13.02209,"lon":77.63469,"sequence":2},{"id":"34480","name":"Sathya Nagara","lat":13.00038,"lon":77.63984,"sequence":3},{"id":"27947","name":"Indian Oil","lat":13.00488,"lon":77.63714,"sequence":4},{"id":"22423","name":"Ramaswamypalya","lat":13.00964,"lon":77.63534,"sequence":5},{"id":"30396","name":"Oil Mill Road Junction","lat":13.01278,"lon":77.63536,"sequence":6},{"id":"22148","name":"Kammanahalli Empire Hotel","lat":13.01469,"lon":77.63577,"sequence":7},{"id":"22146","name":"Kammanahalli","lat":13.01766,"lon":77.6364,"sequence":8},{"id":"22663","name":"Jalavayu Vihara","lat":13.02117,"lon":77.63695,"sequence":9},{"id":"22108","name":"Kalyana nagara 8th Main 3rd Cross Junction","lat":13.02248,"lon":77.63714,"sequence":10},{"id":"22141","name":"Kalyananagara Junction","lat":13.02596,"lon":77.63704,"sequence":11},{"id":"35279","name":"Hennur Junction","lat":13.02751,"lon":77.63268,"sequence":12},{"id":"36441","name":"Kalyananagara Bus Stand","lat":13.02642,"lon":77.63839,"sequence":13}]}]}