{"short_name":"307-A MDR-VRH","long_name":"Veeranahalli ⇔ Mandur","directions":[{"direction":"UP","headsign":"Veeranahalli","path":[[13.081824,77.73838],[13.08143,77.73816],[13.08077,77.73783],[13.07948,77.73714],[13.07921,77.73701],[13.07869,77.73688],[13.07822,77.73682],[13.07786,77.73682],[13.07738,77.73686],[13.07707,77.73688],[13.07515,77.73703],[13.07416,77.7371],[13.07279,77.73722],[13.06816,77.73754],[13.06739,77.73764],[13.06635,77.7379],[13.06589,77.73807],[13.06569,77.73816],[13.06534,77.73836],[13.06491,77.73864],[13.06335,77.73986],[13.06295,77.74016],[13.06265,77.7404],[13.06242,77.74061],[13.06174,77.74153],[13.06154,77.74175],[13.061261,77.74198],[13.06102,77.74215],[13.05936,77.74313],[13.05673,77.74461],[13.05486,77.74563],[13.05424,77.74599],[13.0522,77.74712],[13.05135,77.74762],[13.04835,77.74927],[13.04703,77.75002],[13.04604,77.7505],[13.0429,77.74612],[13.04189,77.74475],[13.04121,77.74378],[13.03965,77.74163],[13.038786,77.74042],[13.03811,77.73943],[13.03595,77.73637],[13.03577,77.73613],[13.03299,77.73221],[13.03237,77.73135],[13.03191,77.73158],[13.03087,77.73194],[13.03051,77.73211],[13.03027,77.73225],[13.02835,77.73212],[13.02816,77.7323],[13.02802,77.73246],[13.02794,77.73264],[13.02789,77.73286],[13.02779,77.7341],[13.02761,77.73546],[13.02746,77.73628],[13.02742,77.73633],[13.02733,77.73638],[13.027141,77.73643]],"stops":[{"id":"33809","name":"Mandur","lat":13.08221,"lon":77.73862,"sequence":1},{"id":"27752","name":"Premium Farm Mandur","lat":13.0792,"lon":77.73702,"sequence":2},{"id":"34151","name":"New Baldwin International School","lat":13.07254,"lon":77.73721,"sequence":3},{"id":"25553","name":"Grandwell","lat":13.06328,"lon":77.73988,"sequence":4},{"id":"34621","name":"SKF Factory","lat":13.06124,"lon":77.74195,"sequence":5},{"id":"21790","name":"Budigere Cross","lat":13.04603,"lon":77.75054,"sequence":6},{"id":"21714","name":"Bandapura Gate","lat":13.04174,"lon":77.74453,"sequence":7},{"id":"21830","name":"Cheemasandra Gate","lat":13.03878,"lon":77.74042,"sequence":8},{"id":"21680","name":"Avalahalli Hosakote","lat":13.0355,"lon":77.73575,"sequence":9},{"id":"38192","name":"Cipla Avalahalli","lat":13.03229,"lon":77.73139,"sequence":10},{"id":"31567","name":"Veeranahalli","lat":13.02735,"lon":77.73639,"sequence":11}]},{"direction":"DOWN","headsign":"Mandur","path":[[13.02733,77.73638],[13.02742,77.73633],[13.02746,77.73628],[13.02761,77.73546],[13.02779,77.7341],[13.02789,77.73286],[13.02794,77.73264],[13.02802,77.73246],[13.02816,77.7323],[13.02835,77.73212],[13.03027,77.73225],[13.03051,77.73211],[13.03087,77.73194],[13.03191,77.73158],[13.03237,77.73135],[13.03098,77.7294],[13.03076,77.72904],[13.03031,77.72819],[13.02881,77.72549],[13.02871,77.72529],[13.02822,77.72438],[13.0262,77.72075],[13.02608,77.72052],[13.02617,77.72047],[13.02638,77.72039],[13.02695,77.72146],[13.02887,77.72489],[13.03058,77.72801],[13.03139,77.72937],[13.03293,77.73154],[13.03316,77.73187],[13.03335,77.73212],[13.03352,77.73235],[13.03405,77.73305],[13.03513,77.73456],[13.037,77.73721],[13.03838,77.73915],[13.03993,77.74136],[13.0422,77.74451],[13.04263,77.74517],[13.04308,77.7458],[13.04372,77.74672],[13.04467,77.74805],[13.04491,77.74836],[13.0456,77.74933],[13.046,77.74992],[13.04632,77.75036],[13.04645,77.75025],[13.04767,77.74958],[13.04831,77.7492],[13.05016,77.74816],[13.05051,77.74795],[13.05169,77.74728],[13.05419,77.7459],[13.05505,77.74541],[13.05778,77.74389],[13.05843,77.74355],[13.05872,77.74337],[13.06043,77.74237],[13.06105,77.74198],[13.06123,77.74186],[13.06145,77.74168],[13.06157,77.74156],[13.06166,77.74146],[13.06217,77.74076],[13.0626,77.74031],[13.06421,77.73907],[13.06485,77.73855],[13.06547,77.73815],[13.06604,77.73789],[13.0663,77.7378],[13.06695,77.73761],[13.06782,77.73746],[13.07156,77.7372],[13.07187,77.73718],[13.07363,77.73704],[13.07476,77.73697],[13.07704,77.73678],[13.07774,77.73674],[13.07799,77.73674],[13.07815,77.73678],[13.07822,77.73682],[13.07869,77.73688],[13.07921,77.73701],[13.07948,77.73714],[13.08077,77.73783],[13.08143,77.73816],[13.08169,77.73831]],"stops":[{"id":"34908","name":"Veeranahalli","lat":13.0273,"lon":77.73631,"sequence":1},{"id":"21851","name":"Cipla Avalahalli","lat":13.03263,"lon":77.73114,"sequence":2},{"id":"23219","name":"Avalahalli Hosakote","lat":13.03605,"lon":77.7358,"sequence":3},{"id":"24455","name":"Cheemasandra Gate","lat":13.03903,"lon":77.74008,"sequence":4},{"id":"21715","name":"Bandapura Gate","lat":13.04228,"lon":77.74459,"sequence":5},{"id":"36723","name":"Budigere Cross","lat":13.04651,"lon":77.75021,"sequence":6},{"id":"26503","name":"SKF Factory","lat":13.06116,"lon":77.74189,"sequence":7},{"id":"32761","name":"Grandwell","lat":13.06317,"lon":77.73981,"sequence":8},{"id":"27447","name":"New Baldwin International School","lat":13.07263,"lon":77.73716,"sequence":9},{"id":"34283","name":"Premium Farm Mandur","lat":13.07918,"lon":77.73698,"sequence":10},{"id":"28752","name":"Mandur","lat":13.08219,"lon":77.73857,"sequence":11}]}]}