{"short_name":"310-E D24G-KNG","long_name":"Kittaganuru ⇔ Depot-24 Gate","directions":[{"direction":"UP","headsign":"Kittaganuru","path":[[13.00336,77.68245],[13.00265,77.68117],[13.00108,77.67841],[13.00105,77.6783],[13.00107,77.67816],[13.00112,77.67807],[13.00118,77.67806],[13.00126,77.67809],[13.0013,77.67813],[13.00146,77.67845],[13.00164,77.67877],[13.00212,77.6795],[13.00284,77.68078],[13.00343,77.68179],[13.00366,77.68216],[13.00405,77.68289],[13.00441,77.68351],[13.00497,77.68454],[13.00546,77.68551],[13.00542,77.68554],[13.00592,77.68641],[13.00616,77.68687],[13.00747,77.68953],[13.00762,77.68992],[13.00788,77.69102],[13.00799,77.69156],[13.00815,77.69219],[13.00826,77.69273],[13.00829,77.69302],[13.00831,77.69362],[13.0083,77.69401],[13.00834,77.69549],[13.00835,77.69565],[13.00838,77.69577],[13.00843,77.69586],[13.00858,77.69608],[13.0089,77.6964],[13.00962,77.69694],[13.00976,77.69704],[13.01038,77.69755],[13.01081,77.69794],[13.01127,77.69831],[13.01217,77.69895],[13.01265,77.69926],[13.01299,77.69943],[13.01453,77.70033],[13.01485,77.70054],[13.01524,77.70087],[13.01543,77.70108],[13.01568,77.70143],[13.0158,77.70163],[13.01623,77.70246],[13.01697,77.7041],[13.01719,77.70449],[13.01724,77.70435],[13.01738,77.70437],[13.01755,77.70438],[13.01857,77.70432],[13.019,77.70432],[13.01928,77.70436],[13.01968,77.70447],[13.02024,77.70465],[13.02067,77.70484],[13.02088,77.70494],[13.02098,77.70508],[13.02104,77.70525],[13.02107,77.70547],[13.02109,77.70587],[13.02111,77.70594],[13.0212,77.70601],[13.02168,77.70608],[13.02176,77.7061],[13.02214,77.70617],[13.02247,77.7062],[13.02329,77.70621],[13.02335,77.7063],[13.02336,77.7066],[13.02338,77.70666],[13.02343,77.70669],[13.02372,77.70675],[13.02418,77.70691],[13.02442,77.70705],[13.02455,77.70725],[13.02467,77.70736],[13.02501,77.70757],[13.02521,77.70767],[13.02577,77.70789],[13.02611,77.70799],[13.02695,77.70805],[13.02754,77.70805],[13.02875,77.708],[13.02914,77.708],[13.02934,77.70803],[13.02984,77.70807],[13.03031,77.70815],[13.03081,77.70823],[13.03106,77.70828],[13.03186,77.7084],[13.03221,77.70847],[13.03528,77.70877],[13.03595,77.70881],[13.03633,77.70886],[13.03689,77.7089],[13.03722,77.70896],[13.03727,77.70901],[13.03728,77.70904],[13.03728,77.70914],[13.03724,77.70924],[13.03713,77.70945],[13.03708,77.70962],[13.03707,77.70987],[13.03709,77.71],[13.0373,77.71054]],"stops":[{"id":"21886","name":"Depot-24 Gate","lat":13.00341,"lon":77.6825,"sequence":1},{"id":"35933","name":"KR Pura Railway Station","lat":13.00133,"lon":77.67814,"sequence":2},{"id":"20863","name":"ITI Colony Gate","lat":13.00532,"lon":77.68522,"sequence":3},{"id":"22205","name":"KR Pura Bus Stand","lat":13.00821,"lon":77.69214,"sequence":4},{"id":"22207","name":"KR Pura Market","lat":13.00841,"lon":77.69403,"sequence":5},{"id":"22203","name":"KR Pura Extension","lat":13.01172,"lon":77.69862,"sequence":6},{"id":"26841","name":"TC Palya  Gate Hosakote Road","lat":13.01738,"lon":77.70438,"sequence":7},{"id":"26843","name":"TC Palya Cross","lat":13.02084,"lon":77.7049,"sequence":8},{"id":"32650","name":"Garden City College TC Palya","lat":13.02443,"lon":77.70712,"sequence":9},{"id":"39753","name":"Kithaganur Gram Panchayathi office","lat":13.03256,"lon":77.70853,"sequence":10},{"id":"33495","name":"Kittaganuru Cross","lat":13.03622,"lon":77.70881,"sequence":11},{"id":"31096","name":"Kittaganuru","lat":13.03736,"lon":77.71053,"sequence":12}]},{"direction":"DOWN","headsign":"Depot-24 Gate","path":[[13.0373,77.71054],[13.03709,77.71],[13.03707,77.70987],[13.03708,77.70962],[13.03713,77.70945],[13.03724,77.70924],[13.03728,77.70914],[13.03728,77.70904],[13.03727,77.70901],[13.03722,77.70896],[13.03689,77.7089],[13.03633,77.70886],[13.03595,77.70881],[13.03528,77.70877],[13.03221,77.70847],[13.03186,77.7084],[13.03106,77.70828],[13.03081,77.70823],[13.03031,77.70815],[13.02984,77.70807],[13.02934,77.70803],[13.02914,77.708],[13.02875,77.708],[13.02754,77.70805],[13.02695,77.70805],[13.02611,77.70799],[13.02577,77.70789],[13.02521,77.70767],[13.02501,77.70757],[13.02467,77.70736],[13.02455,77.70725],[13.02442,77.70705],[13.02418,77.70691],[13.02372,77.70675],[13.02343,77.70669],[13.02338,77.70666],[13.02336,77.7066],[13.02335,77.7063],[13.02329,77.70621],[13.02247,77.7062],[13.02214,77.70617],[13.02176,77.7061],[13.02168,77.70608],[13.0212,77.70601],[13.02111,77.70594],[13.02109,77.70587],[13.02107,77.70547],[13.02104,77.70525],[13.02098,77.70508],[13.02088,77.70494],[13.02067,77.70484],[13.02024,77.70465],[13.01968,77.70447],[13.01928,77.70436],[13.019,77.70432],[13.01857,77.70432],[13.01755,77.70438],[13.01738,77.70437],[13.01724,77.70435],[13.01719,77.70449],[13.01733,77.70476],[13.01876,77.70722],[13.01918,77.70789],[13.01953,77.70851],[13.01938,77.70859],[13.01776,77.70582],[13.01743,77.70523],[13.017062,77.70449],[13.01654,77.70349],[13.01568,77.70174],[13.01558,77.70157],[13.01532,77.70122],[13.01517,77.70105],[13.01498,77.70088],[13.01464,77.70062],[13.01444,77.70049],[13.01322,77.69977],[13.01256,77.69941],[13.01159,77.69879],[13.01074,77.69809],[13.01027,77.69765],[13.00987,77.6973],[13.00954,77.69704],[13.00873,77.69642],[13.00847,77.69616],[13.00838,77.69605],[13.0083,77.69591],[13.00824,77.69574],[13.00821,77.69548],[13.00818,77.69486],[13.0082,77.69432],[13.00824,77.6938],[13.00823,77.69353],[13.00819,77.69317],[13.00791,77.69158],[13.00769,77.69044],[13.00758,77.69002],[13.00741,77.68957],[13.00712,77.68896],[13.00611,77.68698],[13.00543,77.68576],[13.00488,77.6848],[13.0048,77.68479],[13.00469,77.68472],[13.00362,77.68293],[13.003392,77.68251]],"stops":[{"id":"33494","name":"Kittaganuru","lat":13.03733,"lon":77.71055,"sequence":1},{"id":"31098","name":"Kittaganuru Cross","lat":13.03624,"lon":77.7089,"sequence":2},{"id":"39754","name":"Kithaganur Gram Panchayathi office","lat":13.03265,"lon":77.70856,"sequence":3},{"id":"32650","name":"Garden City College TC Palya","lat":13.02443,"lon":77.70712,"sequence":4},{"id":"26843","name":"TC Palya Cross","lat":13.02084,"lon":77.7049,"sequence":5},{"id":"22535","name":"TC Palya  Gate Hosakote Road","lat":13.01705,"lon":77.7045,"sequence":6},{"id":"22202","name":"KR Pura Extension","lat":13.01143,"lon":77.69869,"sequence":7},{"id":"22206","name":"KR Pura Market","lat":13.00821,"lon":77.69535,"sequence":8},{"id":"22204","name":"KR Pura Bus Stand 1","lat":13.00804,"lon":77.69217,"sequence":9},{"id":"20864","name":"ITI Colony Gate","lat":13.00503,"lon":77.68506,"sequence":10},{"id":"21886","name":"Depot-24 Gate","lat":13.00341,"lon":77.6825,"sequence":11}]}]}