{"short_name":"312 D24G-KTGP","long_name":"Kithaganur Gram Panchayathi office ⇔ Depot-24 Gate","directions":[{"direction":"UP","headsign":"Kithaganur Gram Panchayathi office","path":[[13.00336,77.68245],[13.00265,77.68117],[13.00108,77.67841],[13.00105,77.6783],[13.00107,77.67816],[13.00112,77.67807],[13.00118,77.67806],[13.00126,77.67809],[13.0013,77.67813],[13.00146,77.67845],[13.00164,77.67877],[13.00212,77.6795],[13.00284,77.68078],[13.00343,77.68179],[13.00366,77.68216],[13.00405,77.68289],[13.00441,77.68351],[13.00497,77.68454],[13.00546,77.68551],[13.00542,77.68554],[13.00592,77.68641],[13.00616,77.68687],[13.00747,77.68953],[13.00762,77.68992],[13.00788,77.69102],[13.00799,77.69156],[13.00815,77.69219],[13.00826,77.69273],[13.00829,77.69302],[13.00831,77.69362],[13.0083,77.69401],[13.00834,77.69549],[13.00835,77.69565],[13.00838,77.69577],[13.00843,77.69586],[13.00858,77.69608],[13.0089,77.6964],[13.00962,77.69694],[13.00976,77.69704],[13.01038,77.69755],[13.01081,77.69794],[13.01127,77.69831],[13.01217,77.69895],[13.01265,77.69926],[13.01299,77.69943],[13.01453,77.70033],[13.01485,77.70054],[13.01524,77.70087],[13.01543,77.70108],[13.01568,77.70143],[13.0158,77.70163],[13.01623,77.70246],[13.01697,77.7041],[13.01719,77.70449],[13.01726,77.70446],[13.01772,77.70528],[13.01807,77.70586],[13.0188,77.70712],[13.01944,77.70818],[13.02008,77.70932],[13.02039,77.70982],[13.02084,77.71061],[13.02136,77.71147],[13.02206,77.71268],[13.0226,77.71357],[13.02285,77.71406],[13.02377,77.7157],[13.02399,77.71607],[13.0251,77.71813],[13.02572,77.71923],[13.02614,77.72003],[13.02633,77.72037],[13.02647,77.72038],[13.02681,77.72029],[13.0273,77.72019],[13.02744,77.72012],[13.02774,77.71979],[13.02853,77.71909],[13.02897,77.71861],[13.02899,77.71854],[13.02905,77.71845],[13.02942,77.71805],[13.02975,77.71773],[13.03029,77.71724],[13.03076,77.71686],[13.0314,77.71638],[13.03152,77.71632],[13.03159,77.71626],[13.03194,77.71583],[13.0324,77.7152],[13.03278,77.71465],[13.0331,77.71423],[13.03331,77.71398],[13.03395,77.71332],[13.03418,77.71306],[13.03426,77.71292],[13.03437,77.7126],[13.03445,77.71222],[13.03443,77.71191],[13.03444,77.71173],[13.03448,77.71153],[13.0346,77.71115],[13.0347,77.71096],[13.03486,77.71085],[13.03506,77.71075],[13.03559,77.71054],[13.03575,77.71051],[13.03644,77.71062],[13.03672,77.71061],[13.03722,77.71055],[13.03731,77.71054],[13.03707,77.71],[13.03705,77.70987],[13.03705,77.70971],[13.03711,77.70945],[13.03719,77.70924],[13.03725,77.70913],[13.03726,77.70905],[13.0372,77.70897],[13.03713,77.70895],[13.03671,77.7089],[13.03595,77.70886],[13.03483,77.70876],[13.032559,77.708534]],"stops":[{"id":"36727","name":"Depot-24 Gate","lat":13.00331,"lon":77.6825,"sequence":1},{"id":"35933","name":"KR Pura Railway Station","lat":13.00133,"lon":77.67814,"sequence":2},{"id":"20863","name":"ITI Colony Gate","lat":13.00532,"lon":77.68522,"sequence":3},{"id":"22205","name":"KR Pura Bus Stand","lat":13.00821,"lon":77.69214,"sequence":4},{"id":"22207","name":"KR Pura Market","lat":13.00841,"lon":77.69403,"sequence":5},{"id":"22203","name":"KR Pura Extension","lat":13.01172,"lon":77.69862,"sequence":6},{"id":"22536","name":"TC Palya  Gate Hosakote Road","lat":13.01734,"lon":77.70475,"sequence":7},{"id":"21756","name":"Bhattarahalli","lat":13.02046,"lon":77.70985,"sequence":8},{"id":"22496","name":"SJES College","lat":13.02393,"lon":77.71589,"sequence":9},{"id":"38637","name":"Medahalli","lat":13.02646,"lon":77.72036,"sequence":10},{"id":"34227","name":"Parvathi Nagara","lat":13.03257,"lon":77.71484,"sequence":11},{"id":"33494","name":"Kittaganuru","lat":13.03733,"lon":77.71055,"sequence":12},{"id":"31098","name":"Kittaganuru Cross","lat":13.03624,"lon":77.7089,"sequence":13},{"id":"39753","name":"Kithaganur Gram Panchayathi office","lat":13.03256,"lon":77.70853,"sequence":14}]}]}