{"short_name":"315-G","long_name":"Dr BR Ambedkar Bus Terminal (Domlur) ⇔ KR Pura Market","directions":[{"direction":"UP","headsign":"Dr BR Ambedkar Bus Terminal (Domlur)","path":[[13.008204,77.69535],[13.00818,77.69486],[13.0082,77.69432],[13.00824,77.6938],[13.00823,77.69353],[13.00819,77.69317],[13.00791,77.69158],[13.00769,77.69044],[13.00758,77.69002],[13.00741,77.68957],[13.00712,77.68896],[13.00611,77.68698],[13.00479,77.68464],[13.003,77.68158],[13.00192,77.67965],[13.00123,77.67846],[13.00022,77.67661],[12.99987,77.67589],[12.99926,77.67447],[12.99768,77.67122],[12.99631,77.66819],[12.99612,77.66806],[12.99602,77.66787],[12.99587,77.66754],[12.99509,77.66567],[12.99463,77.66444],[12.9945,77.66418],[12.99372,77.66245],[12.99363,77.66229],[12.99276,77.66046],[12.99259,77.66],[12.99219,77.65913],[12.99148,77.65775],[12.99054,77.65583],[12.98959,77.65382],[12.98946,77.65357],[12.98868,77.65185],[12.98755,77.64945],[12.98703,77.64825],[12.98693,77.64806],[12.98677,77.64769],[12.98661,77.64736],[12.98611,77.64606],[12.98572,77.6451],[12.98532,77.64401],[12.98475,77.64256],[12.98432,77.6413],[12.98406,77.64061],[12.98392,77.64063],[12.98337,77.64065],[12.98293,77.64069],[12.97999,77.64086],[12.97835,77.64093],[12.97834,77.64027],[12.9783,77.63909],[12.97831,77.63841],[12.97829,77.63662],[12.97821,77.63488],[12.97832,77.6349],[12.97836,77.63585],[12.97839,77.63617],[12.97838,77.63664],[12.9784,77.63677],[12.97756,77.63663],[12.97717,77.63653],[12.97475,77.63612],[12.97448,77.63603],[12.97437,77.63596],[12.97431,77.6359],[12.97417,77.63584],[12.97403,77.63581],[12.97379,77.63581],[12.97334,77.63585],[12.9731,77.63587],[12.97301,77.63594],[12.97276,77.63597],[12.97179,77.63604],[12.97131,77.63604],[12.97106,77.63603],[12.97039,77.63602],[12.96986,77.63598],[12.96942,77.63599],[12.96894,77.63606],[12.96876,77.63613],[12.96706,77.63702],[12.96695,77.63709],[12.96675,77.63722],[12.966,77.63782],[12.96549,77.63829],[12.96519,77.6386],[12.9649,77.63897],[12.96462,77.63881],[12.96433,77.63868],[12.96362,77.63843],[12.96238,77.63769],[12.96175,77.63829],[12.96198,77.63851],[12.9622,77.63875],[12.96214,77.63883],[12.961873,77.63857]],"stops":[{"id":"22206","name":"KR Pura Market","lat":13.00821,"lon":77.69535,"sequence":1},{"id":"22204","name":"KR Pura Bus Stand 1","lat":13.00804,"lon":77.69217,"sequence":2},{"id":"20864","name":"ITI Colony Gate","lat":13.00503,"lon":77.68506,"sequence":3},{"id":"21228","name":"Tin Factory","lat":12.99645,"lon":77.66857,"sequence":4},{"id":"20657","name":"Benniganahalli","lat":12.99406,"lon":77.6632,"sequence":5},{"id":"20635","name":"Bayyappanahalli Metro Station","lat":12.98967,"lon":77.65404,"sequence":6},{"id":"21061","name":"NGEF","lat":12.98771,"lon":77.64986,"sequence":7},{"id":"20862","name":"Swamy Vivekananda Metro Station/Isolation Hospital","lat":12.98507,"lon":77.6434,"sequence":8},{"id":"21772","name":"Binnamangala","lat":12.9835,"lon":77.64067,"sequence":9},{"id":"22388","name":"Indiranagara Police Station/KFC","lat":12.97833,"lon":77.64065,"sequence":10},{"id":"26134","name":"Indiranagara Metro Station","lat":12.97826,"lon":77.6386,"sequence":11},{"id":"21922","name":"Double Road Indiranagara","lat":12.97821,"lon":77.63645,"sequence":12},{"id":"25230","name":"ESI Hospital Indiranagara","lat":12.97106,"lon":77.63603,"sequence":13},{"id":"25137","name":"Domlur Bridge","lat":12.96356,"lon":77.63834,"sequence":14},{"id":"21924","name":"Dr BR Ambedkar Bus Terminal (Domlur)","lat":12.96191,"lon":77.63853,"sequence":15}]},{"direction":"DOWN","headsign":"KR Pura Market","path":[[12.961586,77.638855],[12.96148,77.63875],[12.96139,77.63859],[12.96127,77.63866],[12.96102,77.63865],[12.96085,77.64026],[12.96088,77.64033],[12.961,77.64049],[12.96132,77.64075],[12.96139,77.64083],[12.96147,77.64103],[12.96148,77.64126],[12.96154,77.64144],[12.9616,77.64151],[12.96167,77.64155],[12.96185,77.64158],[12.96331,77.64158],[12.96336,77.64139],[12.96355,77.64096],[12.96398,77.64014],[12.96434,77.63947],[12.96448,77.63926],[12.96519,77.63839],[12.96586,77.63776],[12.96666,77.63709],[12.96681,77.63703],[12.96723,77.6368],[12.96836,77.63623],[12.96859,77.63609],[12.96899,77.63594],[12.96966,77.6359],[12.97039,77.63595],[12.97179,77.63594],[12.97264,77.63587],[12.97274,77.63586],[12.973,77.63585],[12.97309,77.63587],[12.97363,77.63582],[12.97392,77.63581],[12.97417,77.63586],[12.9743,77.63591],[12.97445,77.63593],[12.97483,77.63606],[12.97501,77.63609],[12.97541,77.63618],[12.97577,77.63623],[12.97595,77.63624],[12.97652,77.63631],[12.97684,77.63637],[12.97715,77.63646],[12.97753,77.63654],[12.97829,77.63663],[12.97833,77.63799],[12.97839,77.63936],[12.9784,77.64081],[12.98247,77.6406],[12.98339,77.64059],[12.98412,77.64054],[12.98442,77.64128],[12.98485,77.64252],[12.9855,77.6442],[12.98609,77.64584],[12.98668,77.64733],[12.98756,77.64937],[12.98965,77.65381],[12.99059,77.65577],[12.99122,77.65704],[12.9916,77.65775],[12.9921,77.65874],[12.9927,77.65999],[12.99285,77.66041],[12.99431,77.66354],[12.99459,77.66422],[12.99505,77.66527],[12.99521,77.66559],[12.99538,77.6659],[12.99566,77.66648],[12.99642,77.66814],[12.99661,77.66861],[12.99777,77.67116],[12.99932,77.67439],[12.99993,77.67578],[13.00023,77.67639],[13.00112,77.67807],[13.00199,77.6796],[13.0033,77.68184],[13.00497,77.68475],[13.00513,77.68502],[13.00519,77.68499],[13.00546,77.68551],[13.00542,77.68554],[13.00592,77.68641],[13.00616,77.68687],[13.00747,77.68953],[13.00762,77.68992],[13.00788,77.69102],[13.00799,77.69156],[13.00815,77.69219],[13.00826,77.69273],[13.00829,77.69302],[13.00831,77.69362],[13.0083,77.69401]],"stops":[{"id":"21923","name":"Dr BR Ambedkar Bus Terminal (Domlur)","lat":12.96163,"lon":77.63881,"sequence":1},{"id":"39474","name":"ESI Hospital Indiranagara","lat":12.97094,"lon":77.63594,"sequence":2},{"id":"21921","name":"Double Road Indiranagara","lat":12.97843,"lon":77.63654,"sequence":3},{"id":"33037","name":"Indiranagara Metro Station","lat":12.97849,"lon":77.63848,"sequence":4},{"id":"22389","name":"Indiranagara Police Station/KFC","lat":12.97857,"lon":77.6408,"sequence":5},{"id":"35957","name":"Binnamangala","lat":12.98368,"lon":77.64049,"sequence":6},{"id":"22527","name":"Swamy Vivekananda Metro Station/Isolation Hospital","lat":12.9858,"lon":77.64501,"sequence":7},{"id":"21060","name":"NGEF","lat":12.98787,"lon":77.64987,"sequence":8},{"id":"20634","name":"Bayyappanahalli Metro Station","lat":12.99001,"lon":77.65454,"sequence":9},{"id":"20656","name":"Benniganahalli","lat":12.99428,"lon":77.6633,"sequence":10},{"id":"21229","name":"Tin Factory","lat":12.99698,"lon":77.66937,"sequence":11},{"id":"20863","name":"ITI Colony Gate","lat":13.00532,"lon":77.68522,"sequence":12},{"id":"22207","name":"KR Pura Market","lat":13.00841,"lon":77.69403,"sequence":13}]}]}