{"short_name":"323-F D41G-NRG","long_name":"Nerige ⇔ Depot-41 Gate","directions":[{"direction":"UP","headsign":"Nerige","path":[[12.92146,77.74248],[12.92139,77.74242],[12.92075,77.74211],[12.9205,77.74196],[12.92026,77.74171],[12.92016,77.74248],[12.92017,77.74291],[12.92014,77.74317],[12.91996,77.74439],[12.91985,77.74543],[12.91975,77.74618],[12.91939,77.7485],[12.9191,77.74987],[12.9188,77.75114],[12.91862,77.75184],[12.91848,77.75247],[12.91844,77.75275],[12.9183,77.75326],[12.91825,77.75352],[12.91823,77.75374],[12.91822,77.75458],[12.91812,77.75621],[12.91811,77.7567],[12.91805,77.75715],[12.91802,77.75749],[12.91786,77.75822],[12.91781,77.75854],[12.91777,77.75885],[12.91772,77.75953],[12.91769,77.75977],[12.91765,77.75997],[12.91707,77.76218],[12.91682,77.76325],[12.91648,77.76448],[12.91642,77.76464],[12.91635,77.76476],[12.91627,77.76484],[12.91603,77.76511],[12.9159,77.76541],[12.91582,77.76548],[12.91557,77.76558],[12.91546,77.76565],[12.91531,77.76579],[12.91522,77.76584],[12.91505,77.76589],[12.91496,77.76594],[12.91489,77.76601],[12.91484,77.76611],[12.91481,77.76623],[12.91467,77.76707],[12.91462,77.76759],[12.91455,77.76802],[12.91445,77.76838],[12.91436,77.76862],[12.91397,77.76958],[12.91347,77.7706],[12.91325,77.771],[12.91315,77.77122],[12.91289,77.77189],[12.91282,77.77201],[12.91262,77.77224],[12.91211,77.77272],[12.91177,77.77321],[12.91165,77.77347],[12.91142,77.77485],[12.91136,77.77511],[12.91123,77.77532],[12.91119,77.77551],[12.91126,77.77595],[12.91133,77.77623],[12.91153,77.77672],[12.91165,77.77685]],"stops":[{"id":"37149","name":"Depot-41 Gate","lat":12.9213,"lon":77.74239,"sequence":1},{"id":"35146","name":"Hosahalli","lat":12.92028,"lon":77.74168,"sequence":2},{"id":"24024","name":"Thippasandra Gate","lat":12.91824,"lon":77.75456,"sequence":3},{"id":"35165","name":"Kathriguppe","lat":12.91543,"lon":77.7657,"sequence":4},{"id":"24026","name":"Nerige","lat":12.91165,"lon":77.77684,"sequence":5}]}]}