{"short_name":"323-G D41G-RMN","long_name":"Ramanayakanahalli ⇔ Depot-41 Gate","directions":[{"direction":"DOWN","headsign":"Depot-41 Gate","path":[[12.909598,77.75589],[12.90965,77.7556],[12.90969,77.75512],[12.90976,77.75487],[12.91073,77.75514],[12.91082,77.75514],[12.91086,77.75512],[12.91092,77.75506],[12.91111,77.75463],[12.91133,77.75422],[12.91155,77.75407],[12.91164,77.75398],[12.91168,77.75392],[12.91186,77.75344],[12.91189,77.75331],[12.91202,77.75319],[12.91227,77.75301],[12.91236,77.75293],[12.91259,77.75297],[12.91306,77.75313],[12.91367,77.75342],[12.9153,77.75381],[12.91597,77.75402],[12.91629,77.75411],[12.91678,77.75422],[12.91733,77.75439],[12.91781,77.75449],[12.91796,77.75453],[12.91822,77.75458],[12.91823,77.75374],[12.91825,77.75352],[12.9183,77.75326],[12.91844,77.75275],[12.91848,77.75247],[12.91862,77.75184],[12.9188,77.75114],[12.9191,77.74987],[12.91939,77.7485],[12.9195,77.74782],[12.91975,77.74618],[12.91985,77.74543],[12.91996,77.74439],[12.92014,77.74317],[12.92017,77.74291],[12.92016,77.74248],[12.92026,77.74171],[12.9205,77.74196],[12.92075,77.74211],[12.92139,77.74242],[12.921489,77.7425]],"stops":[{"id":"27932","name":"Ramanayakanahalli","lat":12.90953,"lon":77.75587,"sequence":1},{"id":"31810","name":"Thippasandra","lat":12.91287,"lon":77.75307,"sequence":2},{"id":"24037","name":"Thippasandra Gate","lat":12.9182,"lon":77.75454,"sequence":3},{"id":"35260","name":"Hosahalli","lat":12.92025,"lon":77.74168,"sequence":4},{"id":"37151","name":"Depot-41 Gate","lat":12.92131,"lon":77.74234,"sequence":5}]}]}