{"short_name":"327-B D41G-PND","long_name":"Panathuru Dinne ⇔ Depot-41 Gate","directions":[{"direction":"DOWN","headsign":"Depot-41 Gate","path":[[12.92928,77.71296],[12.92892,77.71365],[12.92876,77.71391],[12.92855,77.71413],[12.92826,77.7144],[12.9275,77.71504],[12.92677,77.71561],[12.92612,77.71607],[12.92565,77.71636],[12.92463,77.71684],[12.92353,77.71728],[12.92318,77.7174],[12.92244,77.71771],[12.9223,77.71779],[12.92218,77.71787],[12.9221,77.71796],[12.92199,77.71816],[12.92192,77.71833],[12.92185,77.71856],[12.92174,77.71938],[12.92132,77.72178],[12.92119,77.72208],[12.921,77.72244],[12.92095,77.72258],[12.92073,77.72359],[12.92058,77.72411],[12.92049,77.72436],[12.92041,77.72471],[12.92028,77.72546],[12.92023,77.72585],[12.9202,77.72645],[12.92021,77.72677],[12.92031,77.72812],[12.92035,77.7285],[12.92046,77.72913],[12.92054,77.72954],[12.92058,77.72966],[12.9207,77.72985],[12.92085,77.72997],[12.92193,77.73072],[12.92229,77.73107],[12.92233,77.73112],[12.92235,77.73118],[12.92235,77.73125],[12.92231,77.73143],[12.92218,77.73187],[12.92196,77.73242],[12.9218,77.73274],[12.9216,77.7332],[12.92151,77.73346],[12.92127,77.7343],[12.92126,77.73446],[12.92128,77.73482],[12.92123,77.73567],[12.92131,77.7364],[12.92089,77.7364],[12.92086,77.73685],[12.92075,77.73759],[12.92053,77.7385],[12.92053,77.7386],[12.92056,77.73885],[12.92068,77.73938],[12.9207,77.73965],[12.92069,77.73989],[12.92062,77.74009],[12.9204,77.74047],[12.92034,77.74065],[12.92032,77.74079],[12.9203,77.74132],[12.92026,77.74171],[12.9205,77.74196],[12.92075,77.74211],[12.92139,77.74242],[12.921489,77.7425]],"stops":[{"id":"27591","name":"Panathuru Dinne","lat":12.92931,"lon":77.71296,"sequence":1},{"id":"32795","name":"Gunjurpalya","lat":12.92244,"lon":77.71772,"sequence":2},{"id":"32798","name":"Gunjuru","lat":12.92119,"lon":77.73642,"sequence":3},{"id":"35146","name":"Hosahalli","lat":12.92028,"lon":77.74168,"sequence":4},{"id":"37151","name":"Depot-41 Gate","lat":12.92131,"lon":77.74234,"sequence":5}]}]}