{"short_name":"342 KDTV-SJP","long_name":"Sarjapura ⇔ Kodathi Village","directions":[{"direction":"UP","headsign":"Sarjapura","path":[[12.888339,77.71633],[12.88868,77.71649],[12.88936,77.71685],[12.89016,77.71733],[12.89096,77.71787],[12.89134,77.71824],[12.89149,77.71836],[12.89182,77.71845],[12.89201,77.71849],[12.89228,77.71858],[12.8929,77.71887],[12.89344,77.71906],[12.8937,77.71917],[12.89433,77.71955],[12.89458,77.71965],[12.89527,77.71987],[12.89594,77.72004],[12.89631,77.72018],[12.89653,77.72031],[12.89658,77.72035],[12.89648,77.72063],[12.89546,77.72269],[12.89531,77.72303],[12.89512,77.72341],[12.89457,77.72458],[12.89356,77.72684],[12.89318,77.72751],[12.89244,77.72851],[12.89102,77.73029],[12.89055,77.73086],[12.88934,77.73244],[12.8885,77.73395],[12.88805,77.73483],[12.88788,77.73524],[12.8878,77.73558],[12.88747,77.73836],[12.88737,77.73902],[12.88711,77.7412],[12.88702,77.74157],[12.88668,77.7425],[12.88658,77.74273],[12.88589,77.74449],[12.88554,77.74547],[12.88535,77.74611],[12.88476,77.74796],[12.88448,77.74879],[12.88417,77.74976],[12.8841,77.74985],[12.88335,77.75223],[12.88322,77.75241],[12.88302,77.75253],[12.88271,77.75265],[12.8824,77.75281],[12.88177,77.7531],[12.88143,77.75322],[12.88116,77.75333],[12.88088,77.75341],[12.88062,77.75345],[12.87999,77.75357],[12.87977,77.75359],[12.87965,77.75365],[12.87947,77.75385],[12.8794,77.75405],[12.87936,77.75433],[12.87929,77.75465],[12.87924,77.75476],[12.879,77.755],[12.87896,77.75507],[12.87887,77.75517],[12.87885,77.75526],[12.87888,77.75538],[12.87923,77.75552],[12.87938,77.75562],[12.87998,77.75592],[12.88025,77.75612],[12.8803,77.7562],[12.88037,77.75626],[12.8808,77.75649],[12.88119,77.75662],[12.88158,77.75673],[12.88179,77.75681],[12.88146,77.75764],[12.88131,77.75793],[12.87756,77.76486],[12.87743,77.76504],[12.87726,77.76519],[12.87702,77.76529],[12.87575,77.7656],[12.87404,77.76598],[12.87313,77.76622],[12.87261,77.76637],[12.87179,77.76657],[12.87151,77.76661],[12.8711,77.76664],[12.86934,77.76667],[12.86883,77.76666],[12.86822,77.76682],[12.86805,77.76689],[12.86789,77.76698],[12.86522,77.76928],[12.86276,77.77143],[12.86207,77.77202],[12.86202,77.7721],[12.86192,77.77221],[12.86178,77.77253],[12.86158,77.77347],[12.8612,77.77554],[12.86102,77.77678],[12.86087,77.77818],[12.86077,77.77893],[12.86074,77.77941],[12.86075,77.78006],[12.86081,77.78085],[12.86089,77.7824],[12.86093,77.7829],[12.86097,77.78334],[12.861,77.78359],[12.86102,77.78364],[12.86102,77.78368],[12.861,77.78371],[12.86116,77.78492],[12.86124,77.78541],[12.86122,77.78552],[12.861246,77.78563]],"stops":[{"id":"33511","name":"Kodathi Village","lat":12.88835,"lon":77.7163,"sequence":1},{"id":"35072","name":"Kodathi Gate","lat":12.8966,"lon":77.72037,"sequence":2},{"id":"35124","name":"Sulikunte","lat":12.89246,"lon":77.72846,"sequence":3},{"id":"35131","name":"Muttanalluru Cross","lat":12.88749,"lon":77.7384,"sequence":4},{"id":"39632","name":"Subramanya Swamy Temple","lat":12.88672,"lon":77.74249,"sequence":5},{"id":"35149","name":"Dommasandra Circle","lat":12.88321,"lon":77.75244,"sequence":6},{"id":"23906","name":"Dommasandra","lat":12.8796,"lon":77.75371,"sequence":7},{"id":"22546","name":"Thigalara Chowdenahalli Cross","lat":12.88181,"lon":77.75681,"sequence":8},{"id":"21813","name":"Chambenahalli","lat":12.87934,"lon":77.76163,"sequence":9},{"id":"22629","name":"Yamare","lat":12.87225,"lon":77.76649,"sequence":10},{"id":"21866","name":"Crystal Apartment Sarjapura Road","lat":12.86771,"lon":77.76724,"sequence":11},{"id":"22497","name":"Sompura Gate","lat":12.86207,"lon":77.77213,"sequence":12},{"id":"22391","name":"Sarjapura Circle","lat":12.86102,"lon":77.78352,"sequence":13},{"id":"23907","name":"Sarjapura","lat":12.86136,"lon":77.7856,"sequence":14}]}]}