{"short_name":"360-B ATB-BOMC","long_name":"Bommasandra Canara Bank ⇔ Attibele Bus Stand","directions":[{"direction":"DOWN","headsign":"Attibele Bus Stand","path":[[12.821351,77.68768],[12.82117,77.68768],[12.82109,77.68766],[12.82101,77.68761],[12.82093,77.68749],[12.81927,77.68908],[12.81864,77.68959],[12.81791,77.69018],[12.81719,77.69073],[12.8169,77.69096],[12.81675,77.69107],[12.8165,77.69127],[12.81512,77.6923],[12.81417,77.69308],[12.81412,77.69302],[12.81106,77.69546],[12.80959,77.69663],[12.80815,77.69777],[12.80737,77.69841],[12.80625,77.69929],[12.8049,77.70037],[12.80473,77.70052],[12.80416,77.70099],[12.80411,77.7011],[12.80404,77.70119],[12.80368,77.70161],[12.8034,77.70201],[12.80324,77.70229],[12.80315,77.70248],[12.80298,77.70289],[12.8029,77.70312],[12.80278,77.70354],[12.80257,77.70445],[12.80245,77.70513],[12.80222,77.70683],[12.80208,77.70843],[12.80204,77.70858],[12.8021,77.70945],[12.8021,77.70977],[12.80206,77.71056],[12.80192,77.71115],[12.80175,77.71162],[12.80169,77.71175],[12.80053,77.71389],[12.79966,77.71554],[12.79937,77.71598],[12.79915,77.71625],[12.79838,77.71704],[12.79802,77.71737],[12.79726,77.71794],[12.79557,77.71904],[12.79527,77.71929],[12.79503,77.71954],[12.79472,77.71998],[12.79446,77.72046],[12.79429,77.72088],[12.79397,77.72196],[12.7939,77.72223],[12.79391,77.72249],[12.79357,77.72378],[12.79352,77.72392],[12.79344,77.72402],[12.79338,77.72407],[12.7927,77.72682],[12.79208,77.7292],[12.79184,77.73001],[12.7916,77.73058],[12.79129,77.73116],[12.79017,77.73294],[12.78929,77.73424],[12.78913,77.73451],[12.78843,77.73625],[12.78771,77.73787],[12.78752,77.73835],[12.78734,77.73887],[12.78715,77.73963],[12.7868,77.74144],[12.78663,77.74221],[12.7865,77.74308],[12.78629,77.74572],[12.78619,77.74854],[12.78614,77.74906],[12.78606,77.74944],[12.786,77.74964],[12.7858,77.75019],[12.78511,77.75174],[12.78446,77.75326],[12.78422,77.75393],[12.78412,77.75427],[12.78404,77.7546],[12.78366,77.7568],[12.78377,77.75683],[12.78365,77.75753],[12.78326,77.75956],[12.78301,77.76033],[12.78288,77.76067],[12.78026,77.76639],[12.78006,77.76689],[12.77973,77.76817],[12.77925,77.76973],[12.77918,77.76983],[12.779,77.77051],[12.7789,77.77042],[12.77876,77.77022],[12.7787,77.77017],[12.77843,77.77007],[12.77834,77.77002],[12.77812,77.76993],[12.77802,77.77026],[12.77805,77.77034]],"stops":[{"id":"36711","name":"Bommasandra Canara Bank","lat":12.82135,"lon":77.68772,"sequence":1},{"id":"37910","name":"Bommasandra","lat":12.81893,"lon":77.68939,"sequence":2},{"id":"21786","name":"BTL College","lat":12.81185,"lon":77.69485,"sequence":3},{"id":"22023","name":"Hennagara Gate","lat":12.80676,"lon":77.69892,"sequence":4},{"id":"21817","name":"Chandapura","lat":12.80258,"lon":77.70457,"sequence":5},{"id":"22007","name":"Hale Chandapura","lat":12.80182,"lon":77.71151,"sequence":6},{"id":"22560","name":"Tirumagondanahalli","lat":12.79407,"lon":77.72165,"sequence":7},{"id":"22354","name":"Neraluru Gate","lat":12.79229,"lon":77.72844,"sequence":8},{"id":"21986","name":"Guddahatti Gate","lat":12.78811,"lon":77.73702,"sequence":9},{"id":"21992","name":"Guestline Hotel","lat":12.78673,"lon":77.7419,"sequence":10},{"id":"22625","name":"Yadavanahalli","lat":12.78558,"lon":77.75079,"sequence":11},{"id":"21670","name":"Attibele Bus Stand","lat":12.77805,"lon":77.77034,"sequence":12}]}]}