{"short_name":"364-B CCDV-JBS","long_name":"Jayanagara Bus Station ⇔ Cafe Coffee Day (Vijaya Bank Layout)","directions":[{"direction":"UP","headsign":"Jayanagara Bus Station","path":[[12.89157,77.60817],[12.89137,77.60762],[12.89128,77.60714],[12.89125,77.60685],[12.89125,77.60655],[12.89128,77.60616],[12.89132,77.60586],[12.89139,77.60549],[12.89162,77.6047],[12.89166,77.60461],[12.89174,77.60453],[12.89184,77.60449],[12.89188,77.60446],[12.89196,77.60431],[12.89221,77.6032],[12.89228,77.60282],[12.89239,77.60149],[12.89247,77.60099],[12.89262,77.60027],[12.89267,77.59993],[12.8927,77.59953],[12.89271,77.59885],[12.89365,77.599],[12.8949,77.59928],[12.89519,77.59936],[12.89612,77.59967],[12.8968,77.59984],[12.89698,77.59989],[12.89724,77.59996],[12.89777,77.60012],[12.89944,77.60067],[12.8998,77.60077],[12.90044,77.60089],[12.90072,77.60091],[12.90097,77.60094],[12.90143,77.60097],[12.90205,77.60103],[12.9024,77.60109],[12.90331,77.60131],[12.90425,77.60158],[12.9046,77.60169],[12.9048,77.60173],[12.90513,77.60176],[12.90546,77.60172],[12.9059,77.60157],[12.90606,77.60147],[12.90721,77.60054],[12.90707,77.60015],[12.907088,77.60014],[12.90614,77.59696],[12.90605,77.5966],[12.90569,77.59659],[12.9057,77.59628],[12.90582,77.59504],[12.90619,77.59503],[12.90628,77.59506],[12.90635,77.59507],[12.90641,77.59505],[12.90685,77.59502],[12.90741,77.59505],[12.90827,77.59505],[12.90856,77.59507],[12.90898,77.59508],[12.91002,77.59515],[12.91052,77.59516],[12.91126,77.59513],[12.91228,77.59506],[12.91337,77.59495],[12.913736,77.59493],[12.91442,77.59491],[12.91467,77.59492],[12.91521,77.59489],[12.91613,77.59494],[12.91686,77.59506],[12.91697,77.59511],[12.91695,77.59534],[12.91692,77.59683],[12.92002,77.59688],[12.92157,77.59697],[12.92314,77.59701],[12.92428,77.59705],[12.92691,77.59705],[12.92696,77.5951],[12.92697,77.59354],[12.92703,77.59197],[12.92703,77.59071],[12.92709,77.58967],[12.92704,77.58961],[12.92707,77.58955],[12.9271,77.58953],[12.92714,77.58953],[12.92748,77.58921],[12.92757,77.58912],[12.92763,77.58903],[12.92769,77.58882],[12.92776,77.58812],[12.92781,77.5879],[12.92786,77.58779],[12.92803,77.58759],[12.92819,77.58746],[12.92842,77.58733],[12.92851,77.58721],[12.92856,77.58701],[12.92859,77.58652],[12.92858,77.58626],[12.92859,77.58616],[12.92863,77.58602],[12.92862,77.58533],[12.92865,77.58475]],"stops":[{"id":"39577","name":"Cafe Coffee Day (Vijaya Bank Layout)","lat":12.89156,"lon":77.60817,"sequence":1},{"id":"27284","name":"Vijaya Bank Colony Ayyappa Temple","lat":12.89125,"lon":77.60631,"sequence":2},{"id":"26015","name":"HSBC","lat":12.89269,"lon":77.5992,"sequence":3},{"id":"23870","name":"Apollo Hospital","lat":12.89635,"lon":77.59972,"sequence":4},{"id":"23871","name":"Bilekahalli","lat":12.90051,"lon":77.6009,"sequence":5},{"id":"35126","name":"JP Nagara 3rd Phase","lat":12.90707,"lon":77.60015,"sequence":6},{"id":"35959","name":"Dalmia Circle","lat":12.90697,"lon":77.595,"sequence":7},{"id":"35202","name":"Milk Booth JP Nagara","lat":12.91002,"lon":77.59514,"sequence":8},{"id":"35203","name":"JP Nagara Water Tank","lat":12.91374,"lon":77.59503,"sequence":9},{"id":"35204","name":"East End Jayanagara","lat":12.91709,"lon":77.59683,"sequence":10},{"id":"23653","name":"Jayanagara Pump House","lat":12.92161,"lon":77.59699,"sequence":11},{"id":"35147","name":"Carmel Convent Jayanagara","lat":12.9268,"lon":77.59713,"sequence":12},{"id":"35205","name":"Sanjay Gandhi Hospital","lat":12.927,"lon":77.59299,"sequence":13},{"id":"23702","name":"Jayanagara Church","lat":12.92828,"lon":77.58741,"sequence":14},{"id":"23374","name":"Jayanagara Bus Station","lat":12.92864,"lon":77.58475,"sequence":15}]}]}