{"short_name":"365-D BVH-D34","long_name":"Depot-34 Gate ⇔ Bilavaradahalli","directions":[{"direction":"UP","headsign":"Depot-34 Gate","path":[[12.83619,77.57679],[12.83678,77.5773],[12.83728,77.57788],[12.83778,77.5784],[12.83858,77.57901],[12.83882,77.57925],[12.83927,77.57978],[12.83953,77.58006],[12.83994,77.58047],[12.84021,77.58085],[12.84048,77.58125],[12.84068,77.58153],[12.84076,77.5816],[12.84085,77.58165],[12.84094,77.58168],[12.84183,77.58186],[12.84212,77.58188],[12.84245,77.58184],[12.84256,77.58186],[12.84276,77.58193],[12.84305,77.58209],[12.84361,77.58249],[12.84418,77.58295],[12.84442,77.58324],[12.84448,77.58346],[12.84446,77.58392],[12.84443,77.58413],[12.84437,77.58441],[12.84433,77.58453],[12.84428,77.58463],[12.84417,77.58478],[12.84399,77.58493],[12.84358,77.58523],[12.84284,77.58596],[12.84238,77.58639],[12.84206,77.58674],[12.84188,77.587],[12.84171,77.58732],[12.84158,77.58762],[12.84147,77.58816],[12.84145,77.58834],[12.84145,77.5885],[12.84173,77.58846],[12.8422,77.58837],[12.84272,77.58822],[12.84312,77.58813],[12.84354,77.58807],[12.84407,77.58804],[12.84482,77.58804],[12.84775,77.58821],[12.84784,77.58827],[12.84816,77.58829],[12.849,77.58832],[12.84995,77.58832],[12.85014,77.58833],[12.8516,77.58835],[12.85283,77.58845],[12.85297,77.58842],[12.85308,77.58842],[12.85651,77.58885],[12.85763,77.5889],[12.85803,77.58893],[12.85841,77.589],[12.85853,77.58904],[12.85885,77.58916],[12.85915,77.58933],[12.85978,77.58964],[12.86007,77.58975],[12.86071,77.58995],[12.86169,77.59033],[12.862,77.59042],[12.86213,77.59047],[12.86303,77.59076],[12.86418,77.59111],[12.8645,77.59123],[12.86481,77.59134],[12.8653,77.59155],[12.86593,77.59179],[12.866124,77.59184],[12.86625,77.59188],[12.86672,77.59195],[12.86689,77.59199],[12.86719,77.59207],[12.86924,77.59277],[12.87047,77.59323],[12.87104,77.59343],[12.87114,77.59295],[12.87115,77.59283],[12.87101,77.59247],[12.871,77.59238],[12.87113,77.59175],[12.87114,77.59162],[12.87113,77.59155],[12.87108,77.59139],[12.87084,77.59082],[12.87017,77.58949],[12.8698,77.58867],[12.86941,77.58791],[12.86937,77.58782],[12.86936,77.58773],[12.86939,77.58761],[12.86981,77.58659],[12.87015,77.58569]],"stops":[{"id":"23858","name":"Bilavaradahalli","lat":12.83621,"lon":77.57675,"sequence":1},{"id":"35229","name":"Maruthi Badavane","lat":12.84005,"lon":77.58062,"sequence":2},{"id":"23860","name":"Weavers Colony","lat":12.84446,"lon":77.58375,"sequence":3},{"id":"35133","name":"Koli Farm Gate","lat":12.84146,"lon":77.58845,"sequence":4},{"id":"22760","name":"Basavanapura Gate","lat":12.84634,"lon":77.58818,"sequence":5},{"id":"35230","name":"T John College","lat":12.84936,"lon":77.5883,"sequence":6},{"id":"36776","name":"Gottigere","lat":12.85741,"lon":77.58883,"sequence":7},{"id":"23865","name":"Kalena Agrahara","lat":12.86646,"lon":77.59189,"sequence":8},{"id":"36211","name":"Loyola School","lat":12.87108,"lon":77.59339,"sequence":9},{"id":"32430","name":"Depot-34 Gate","lat":12.87023,"lon":77.58567,"sequence":10}]},{"direction":"DOWN","headsign":"Bilavaradahalli","path":[[12.87015,77.58569],[12.86981,77.58659],[12.86939,77.58761],[12.86936,77.58773],[12.86937,77.58782],[12.86941,77.58791],[12.8698,77.58867],[12.87017,77.58949],[12.87084,77.59082],[12.87108,77.59139],[12.87113,77.59155],[12.87114,77.59162],[12.87113,77.59175],[12.871,77.59238],[12.87101,77.59247],[12.87115,77.59283],[12.87114,77.59295],[12.87104,77.59343],[12.87141,77.59358],[12.87243,77.59394],[12.87318,77.59417],[12.8733,77.59422],[12.87323,77.5944],[12.87297,77.59431],[12.8728,77.59422],[12.87105,77.59363],[12.87042,77.59339],[12.86944,77.59306],[12.86917,77.59296],[12.86823,77.59264],[12.86798,77.59255],[12.8668,77.59216],[12.86624,77.59196],[12.8656,77.59174],[12.86478,77.59143],[12.86301,77.59083],[12.86211,77.59055],[12.86152,77.59034],[12.86086,77.59013],[12.86067,77.59006],[12.86019,77.5899],[12.85975,77.58973],[12.85876,77.58923],[12.85854,77.58914],[12.85823,77.58906],[12.85779,77.589],[12.85709,77.58894],[12.85651,77.58891],[12.85518,77.58878],[12.85452,77.58869],[12.85365,77.58859],[12.8535,77.58857],[12.85307,77.58854],[12.85297,77.58852],[12.85283,77.58845],[12.8516,77.58835],[12.85014,77.58833],[12.84995,77.58832],[12.849,77.58832],[12.84784,77.58827],[12.84776,77.58831],[12.84766,77.58832],[12.84673,77.58828],[12.84499,77.58815],[12.84406,77.58814],[12.84355,77.58818],[12.84274,77.58835],[12.84207,77.58852],[12.84173,77.58857],[12.84145,77.58859],[12.84146,77.58842],[12.84145,77.58841],[12.84145,77.58834],[12.84147,77.58816],[12.84158,77.58762],[12.84171,77.58732],[12.84188,77.587],[12.84195,77.58689],[12.84206,77.58674],[12.84238,77.58639],[12.84284,77.58596],[12.84358,77.58523],[12.84399,77.58493],[12.84417,77.58478],[12.84428,77.58463],[12.84433,77.58453],[12.84437,77.58441],[12.84443,77.58413],[12.84446,77.58392],[12.84448,77.58346],[12.84442,77.58324],[12.84418,77.58295],[12.84361,77.58249],[12.84305,77.58209],[12.84276,77.58193],[12.84256,77.58186],[12.84245,77.58184],[12.84212,77.58188],[12.84183,77.58186],[12.84094,77.58168],[12.84085,77.58165],[12.84076,77.5816],[12.84068,77.58153],[12.84048,77.58125],[12.84021,77.58085],[12.83994,77.58047],[12.83953,77.58006],[12.83927,77.57978],[12.83882,77.57925],[12.83858,77.57901],[12.83778,77.5784],[12.83728,77.57788],[12.83678,77.5773],[12.83619,77.57679]],"stops":[{"id":"35964","name":"Depot-34 Gate","lat":12.87021,"lon":77.58571,"sequence":1},{"id":"35161","name":"Loyola School","lat":12.87103,"lon":77.59364,"sequence":2},{"id":"23586","name":"Kalena Agrahara","lat":12.86671,"lon":77.59215,"sequence":3},{"id":"23588","name":"Gottigere","lat":12.85652,"lon":77.5889,"sequence":4},{"id":"35130","name":"T John College","lat":12.84984,"lon":77.58834,"sequence":5},{"id":"22752","name":"Basavanapura Gate","lat":12.84634,"lon":77.58822,"sequence":6},{"id":"35093","name":"Koli Farm Gate","lat":12.84145,"lon":77.58859,"sequence":7},{"id":"23738","name":"Weavers Colony","lat":12.84445,"lon":77.58379,"sequence":8},{"id":"35110","name":"Maruthi Badavane","lat":12.83994,"lon":77.58055,"sequence":9},{"id":"23740","name":"Bilavaradahalli","lat":12.83617,"lon":77.57681,"sequence":10}]}]}