{"short_name":"36 VSDH-SNR","long_name":"Srinagara Bus Station ⇔ Vidhana Soudha Karnataka High Court","directions":[{"direction":"UP","headsign":"Srinagara Bus Station","path":[[12.978223,77.59133],[12.97769,77.59082],[12.97746,77.59049],[12.97685,77.58936],[12.97635,77.58834],[12.97618,77.58802],[12.97588,77.58754],[12.9758,77.58735],[12.97575,77.58733],[12.97569,77.58725],[12.97568,77.58716],[12.97464,77.58671],[12.97448,77.58665],[12.97416,77.5866],[12.97386,77.5866],[12.97354,77.58663],[12.97342,77.58666],[12.97136,77.58696],[12.96955,77.58718],[12.9681,77.58737],[12.96796,77.58744],[12.96781,77.58761],[12.96786,77.58814],[12.9679,77.58842],[12.96742,77.58843],[12.96729,77.5884],[12.96677,77.58796],[12.96631,77.58752],[12.96578,77.58707],[12.96548,77.58686],[12.96434,77.58582],[12.96384,77.58529],[12.9637,77.58462],[12.96362,77.58401],[12.96349,77.58334],[12.96347,77.58299],[12.9634,77.58237],[12.9634,77.58173],[12.96347,77.58107],[12.96344,77.58084],[12.96344,77.58074],[12.96352,77.57982],[12.96355,77.57858],[12.9636,77.57824],[12.9639,77.57746],[12.96333,77.57735],[12.96291,77.57749],[12.96235,77.57764],[12.96162,77.57775],[12.96035,77.57769],[12.95897,77.5777],[12.95846,77.57765],[12.958,77.57759],[12.95714,77.57745],[12.95695,77.57744],[12.95687,77.57746],[12.95659,77.57744],[12.95638,77.5774],[12.9562,77.57735],[12.95636,77.57684],[12.95645,77.57646],[12.95666,77.57584],[12.9568,77.57536],[12.95695,77.5747],[12.95712,77.57411],[12.95718,77.57374],[12.957214,77.57311],[12.9572,77.57311],[12.95711,77.5674],[12.95711,77.56742],[12.95711,77.56739],[12.95697,77.56744],[12.95575,77.56747],[12.95542,77.56749],[12.95523,77.56751],[12.95462,77.56754],[12.95384,77.56754],[12.95243,77.56762],[12.95094,77.56768],[12.95004,77.56773],[12.94945,77.56776],[12.94885,77.56776],[12.9483,77.56781],[12.94813,77.56785],[12.94814,77.5679],[12.94811,77.56798],[12.94803,77.56804],[12.94789,77.56804],[12.94782,77.568],[12.94776,77.56791],[12.94776,77.56785],[12.94754,77.56781],[12.94731,77.5678],[12.94692,77.56783],[12.94633,77.56785],[12.94606,77.56786],[12.94386,77.5679],[12.94374,77.5679],[12.94361,77.56787],[12.94361,77.56669],[12.94359,77.56654],[12.94351,77.56628],[12.94326,77.56581],[12.94315,77.56564],[12.94309,77.56557],[12.94295,77.56543],[12.94273,77.56531],[12.94249,77.56524],[12.94222,77.56521],[12.94176,77.56513],[12.94174,77.56218],[12.94169,77.56132],[12.94162,77.56059],[12.94161,77.5603],[12.94164,77.55792],[12.94171,77.55675],[12.94175,77.55642],[12.94184,77.55515],[12.9428,77.55498],[12.94422,77.55474]],"stops":[{"id":"21258","name":"Vidhana Soudha Karnataka High Court","lat":12.97821,"lon":77.59135,"sequence":1},{"id":"20939","name":"KR Circle","lat":12.97386,"lon":77.58661,"sequence":2},{"id":"21195","name":"St Marthas Hospital","lat":12.96945,"lon":77.58716,"sequence":3},{"id":"20727","name":"Corporation","lat":12.96701,"lon":77.58822,"sequence":4},{"id":"21232","name":"Town Hall","lat":12.96355,"lon":77.58375,"sequence":5},{"id":"20941","name":"KR Market","lat":12.96368,"lon":77.57742,"sequence":6},{"id":"22243","name":"Makkala Koota","lat":12.9572,"lon":77.57311,"sequence":7},{"id":"21812","name":"Chamarajapet","lat":12.95627,"lon":77.56744,"sequence":8},{"id":"21746","name":"Bengaluru High School","lat":12.95325,"lon":77.56762,"sequence":9},{"id":"23728","name":"Ramakrishna Ashrama","lat":12.94945,"lon":77.56774,"sequence":10},{"id":"20808","name":"Hanumanthanagara Ward Office","lat":12.94339,"lon":77.56602,"sequence":11},{"id":"21197","name":"Subramanya Swamy Temple","lat":12.94171,"lon":77.562,"sequence":12},{"id":"21066","name":"Nirmala Store","lat":12.94162,"lon":77.55957,"sequence":13},{"id":"20607","name":"Apex Bank","lat":12.94177,"lon":77.55602,"sequence":14},{"id":"21188","name":"Srinagara Bus Station","lat":12.94425,"lon":77.55479,"sequence":15}]}]}