{"short_name":"401-NY YTTMC-HBL","long_name":"Hebbala ⇔ Yeshawanthapura Bus Station","directions":[{"direction":"UP","headsign":"Hebbala","path":[[13.01771,77.55657],[13.01804,77.55671],[13.01807,77.55714],[13.0186,77.55743],[13.01864,77.55748],[13.01873,77.55762],[13.01877,77.55773],[13.01878,77.55787],[13.01874,77.55802],[13.0187,77.55811],[13.01836,77.55866],[13.01822,77.5588],[13.01779,77.55948],[13.01696,77.56087],[13.01616,77.56226],[13.0156,77.5632],[13.01539,77.56359],[13.01415,77.56568],[13.01417,77.56621],[13.01426,77.56756],[13.01431,77.56764],[13.01433,77.56771],[13.014368,77.56803],[13.01469,77.57269],[13.01497,77.57271],[13.01558,77.5727],[13.0171,77.57256],[13.0188,77.57247],[13.01891,77.57247],[13.01904,77.5725],[13.02166,77.57228],[13.02187,77.57226],[13.022411,77.57223],[13.02352,77.57214],[13.02424,77.57207],[13.02447,77.572],[13.02635,77.57189],[13.02683,77.57182],[13.027,77.57177],[13.02774,77.57151],[13.02841,77.57122],[13.02846,77.5713],[13.02845,77.57143],[13.0284,77.57163],[13.02837,77.57171],[13.02803,77.57341],[13.02784,77.57429],[13.02749,77.57613],[13.02721,77.57793],[13.02692,77.57948],[13.02691,77.57974],[13.027,77.5797],[13.02775,77.57939],[13.02803,77.57924],[13.0284,77.57911],[13.02876,77.57893],[13.02908,77.57875],[13.02985,77.57819],[13.03028,77.57786],[13.03045,77.5777],[13.03057,77.57761],[13.03105,77.57739],[13.03127,77.57725],[13.03208,77.57675],[13.03279,77.57638],[13.0334,77.57603],[13.03446,77.57553],[13.03512,77.57526],[13.036,77.57496],[13.03675,77.57464],[13.037727,77.57428],[13.03792,77.57418],[13.03802,77.57414],[13.03821,77.5741],[13.03844,77.57407],[13.03884,77.57406],[13.03949,77.57401],[13.03968,77.57391],[13.03979,77.57381],[13.04002,77.57365],[13.04059,77.57314],[13.04066,77.57307],[13.04084,77.57291],[13.041,77.57281],[13.04114,77.57275],[13.04138,77.57271],[13.041677,77.57269],[13.04184,77.57277],[13.04193,77.57285],[13.0421,77.57291],[13.04237,77.57308],[13.04246,77.57316],[13.04254,77.57325],[13.04255,77.57347],[13.04254,77.57369],[13.04242,77.57439],[13.04241,77.57461],[13.04249,77.57527],[13.04249,77.57577],[13.04254,77.57623],[13.0426,77.57664],[13.04264,77.57702],[13.04265,77.57726],[13.04261,77.57786],[13.04256,77.57821],[13.04251,77.57879],[13.04251,77.57907],[13.04246,77.58007],[13.04246,77.58083],[13.04225,77.58202],[13.04209,77.58322],[13.04192,77.58395],[13.04185,77.58432],[13.04171,77.58568],[13.0413,77.58919],[13.041264,77.58942]],"stops":[{"id":"24016","name":"Yeshawanthapura Bus Station","lat":13.01771,"lon":77.55657,"sequence":1},{"id":"21215","name":"Tata Institute","lat":13.01437,"lon":77.56803,"sequence":2},{"id":"21098","name":"Sadashivanagara Police Station","lat":13.01553,"lon":77.57269,"sequence":3},{"id":"20731","name":"CPRI Quarters","lat":13.02241,"lon":77.5722,"sequence":4},{"id":"33958","name":"MS Ramayya Hospital","lat":13.02847,"lon":77.57141,"sequence":5},{"id":"23198","name":"Ashwathnagara","lat":13.02691,"lon":77.57973,"sequence":6},{"id":"20786","name":"Geddalahalli","lat":13.0308,"lon":77.5775,"sequence":7},{"id":"21151","name":"Sanjayanagara","lat":13.03418,"lon":77.57566,"sequence":8},{"id":"21134","name":"RMS Sanjayanagara","lat":13.03778,"lon":77.57424,"sequence":9},{"id":"21048","name":"Nagashetty halli","lat":13.04171,"lon":77.57273,"sequence":10},{"id":"20668","name":"Bhoopasandra Ayyappa Bakery","lat":13.04271,"lon":77.57711,"sequence":11},{"id":"20666","name":"Bhoopasandra","lat":13.04247,"lon":77.5808,"sequence":12},{"id":"20817","name":"Hebbala","lat":13.04127,"lon":77.58942,"sequence":13}]},{"direction":"DOWN","headsign":"Yeshawanthapura Bus Station","path":[[13.041264,77.58942],[13.0413,77.58919],[13.04171,77.58568],[13.04185,77.58432],[13.04192,77.58395],[13.04209,77.58322],[13.04225,77.58202],[13.04246,77.58083],[13.04246,77.58007],[13.04251,77.57907],[13.04251,77.57879],[13.04256,77.57821],[13.04261,77.57786],[13.04265,77.57726],[13.04264,77.57702],[13.0426,77.57664],[13.04254,77.57623],[13.04249,77.57577],[13.04249,77.57527],[13.04241,77.57461],[13.04242,77.57439],[13.04254,77.57369],[13.04255,77.57358],[13.04254,77.57325],[13.04246,77.57316],[13.04237,77.57308],[13.0421,77.57291],[13.04193,77.57285],[13.04184,77.57277],[13.041754,77.572716],[13.04166,77.57269],[13.04138,77.57271],[13.04114,77.57275],[13.041,77.57281],[13.04084,77.57291],[13.04066,77.57307],[13.04059,77.57314],[13.04002,77.57365],[13.03979,77.57381],[13.03968,77.57391],[13.03949,77.57401],[13.03884,77.57406],[13.03844,77.57407],[13.03821,77.5741],[13.03802,77.57414],[13.03792,77.57418],[13.037798,77.57425],[13.03675,77.57464],[13.036,77.57496],[13.03512,77.57526],[13.03446,77.57553],[13.0334,77.57603],[13.03279,77.57638],[13.03208,77.57675],[13.03127,77.57725],[13.03105,77.57739],[13.03057,77.57761],[13.03045,77.5777],[13.03028,77.57786],[13.02985,77.57819],[13.02908,77.57875],[13.02876,77.57893],[13.0284,77.57911],[13.02803,77.57924],[13.02775,77.57939],[13.027,77.5797],[13.02691,77.57974],[13.02692,77.57948],[13.02721,77.57793],[13.02749,77.57613],[13.02784,77.57429],[13.02803,77.57341],[13.02837,77.57171],[13.02835,77.57164],[13.02836,77.57154],[13.02833,77.57147],[13.02825,77.57139],[13.0274,77.57173],[13.02714,77.57182],[13.02695,77.57188],[13.02654,77.57194],[13.02448,77.57211],[13.02424,77.57207],[13.02352,77.57214],[13.02217,77.57224],[13.02187,77.57226],[13.02166,77.57228],[13.01904,77.5725],[13.01892,77.57254],[13.01883,77.57255],[13.01711,77.57266],[13.0158,77.57277],[13.01512,77.5728],[13.01462,77.57279],[13.01455,77.57191],[13.01445,77.57019],[13.01424,77.56771],[13.01426,77.56756],[13.0142,77.56744],[13.01418,77.56732],[13.01406,77.56602],[13.01399,77.56582],[13.01399,77.5657],[13.01408,77.56551],[13.01468,77.56448],[13.01479,77.56434],[13.01489,77.56428],[13.01515,77.56387],[13.01611,77.56223],[13.01684,77.56092],[13.0173,77.56017],[13.01739,77.56],[13.01804,77.55892],[13.01803,77.55879],[13.01806,77.55872],[13.01813,77.55858],[13.01842,77.5581],[13.01846,77.55795],[13.01844,77.5578],[13.01838,77.55768],[13.01828,77.55757],[13.01817,77.55748],[13.01804,77.55671],[13.01801,77.55662]],"stops":[{"id":"20817","name":"Hebbala","lat":13.04127,"lon":77.58942,"sequence":1},{"id":"20665","name":"Bhoopasandra","lat":13.04244,"lon":77.58086,"sequence":2},{"id":"20667","name":"Bhoopasandra Ayyappa Bakery","lat":13.04265,"lon":77.57712,"sequence":3},{"id":"34057","name":"Gundappa Road","lat":13.04256,"lon":77.5733,"sequence":4},{"id":"21047","name":"Nagashetty halli","lat":13.04175,"lon":77.57279,"sequence":5},{"id":"21133","name":"RMS Sanjayanagara","lat":13.03784,"lon":77.57427,"sequence":6},{"id":"21150","name":"Sanjayanagara","lat":13.03425,"lon":77.57569,"sequence":7},{"id":"25367","name":"Geddalahalli","lat":13.03085,"lon":77.57753,"sequence":8},{"id":"23198","name":"Ashwathnagara","lat":13.02691,"lon":77.57973,"sequence":9},{"id":"21029","name":"MS Ramaiah Hospital","lat":13.02698,"lon":77.57189,"sequence":10},{"id":"20730","name":"CPRI Quarters","lat":13.02217,"lon":77.57224,"sequence":11},{"id":"21099","name":"Sadashivanagara Police Station","lat":13.01587,"lon":77.57277,"sequence":12},{"id":"21213","name":"Tata Institute","lat":13.01514,"lon":77.56382,"sequence":13},{"id":"21288","name":"Yeshawanthapura Bus Station","lat":13.01801,"lon":77.55662,"sequence":14}]}]}