{"short_name":"410-FC NLS-JHC","long_name":"Jalahalli Cross ⇔ National Law College University","directions":[{"direction":"UP","headsign":"Jalahalli Cross","path":[[12.953203,77.51667],[12.95416,77.51723],[12.9548,77.51777],[12.95516,77.51811],[12.95534,77.51824],[12.95546,77.5183],[12.95596,77.51838],[12.95641,77.51844],[12.95719,77.51863],[12.95755,77.51868],[12.95799,77.51877],[12.95808,77.51864],[12.95817,77.51846],[12.95824,77.51827],[12.95836,77.51784],[12.9585,77.51741],[12.95873,77.51692],[12.95883,77.51674],[12.95892,77.5168],[12.95909,77.51656],[12.95944,77.51597],[12.95966,77.51556],[12.95978,77.51527],[12.96027,77.51395],[12.96055,77.51325],[12.96064,77.51306],[12.96073,77.51292],[12.96091,77.51272],[12.96104,77.51262],[12.96115,77.51255],[12.96136,77.51247],[12.96173,77.5124],[12.96194,77.51238],[12.96351,77.5123],[12.96525,77.51231],[12.96862,77.5125],[12.97146,77.51267],[12.97196,77.51273],[12.97275,77.51287],[12.97339,77.51301],[12.97418,77.51324],[12.97659,77.51414],[12.97783,77.51464],[12.97843,77.51493],[12.97889,77.51519],[12.97893,77.51514],[12.97921,77.51531],[12.98005,77.51589],[12.9818,77.51714],[12.98305,77.51798],[12.98385,77.51846],[12.98418,77.51859],[12.98479,77.51879],[12.98532,77.51889],[12.98646,77.51904],[12.98728,77.51922],[12.98769,77.51934],[12.988486,77.5196],[12.99114,77.52049],[12.9911,77.52058],[12.99255,77.52107],[12.99344,77.52142],[12.99408,77.52172],[12.997521,77.52334],[12.99801,77.52357],[12.99816,77.52365],[13.0015,77.52522],[13.00221,77.52553],[13.00369,77.52627],[13.00417,77.52645],[13.00461,77.52657],[13.00522,77.52663],[13.00588,77.52664],[13.00792,77.52661],[13.00811,77.52662],[13.00847,77.52666],[13.00892,77.52674],[13.00955,77.52693],[13.00988,77.5271],[13.01037,77.52739],[13.01073,77.52765],[13.01101,77.5279],[13.01144,77.52834],[13.01207,77.52892],[13.01269,77.52935],[13.01351,77.52989],[13.01395,77.53016],[13.0145,77.53043],[13.01518,77.53071],[13.01618,77.53104],[13.01721,77.53134],[13.01749,77.53143],[13.01858,77.53174],[13.01878,77.53178],[13.01905,77.53185],[13.0201,77.53205],[13.02094,77.53218],[13.02141,77.53228],[13.0223,77.53255],[13.02278,77.53275],[13.02292,77.53281],[13.02355,77.53315],[13.02434,77.53363],[13.02486,77.53397],[13.0259,77.53455],[13.02739,77.53545],[13.02824,77.53593],[13.02896,77.53637],[13.02971,77.53678],[13.03028,77.53712],[13.03091,77.53608],[13.03114,77.53567],[13.03132,77.53533],[13.03154,77.53488],[13.03225,77.53358],[13.03282,77.53273],[13.03299,77.53243],[13.03365,77.53141],[13.034273,77.53032],[13.03443,77.52997],[13.03459,77.52953],[13.03463,77.52957],[13.03469,77.52938],[13.0351,77.52779],[13.03522,77.52713],[13.03531,77.52679],[13.03541,77.5265],[13.03552,77.52627],[13.03596,77.52548],[13.03607,77.52526],[13.03623,77.525],[13.03764,77.52241],[13.03802,77.52174],[13.03865,77.5206],[13.03919,77.51959],[13.03948,77.51903],[13.03967,77.51871],[13.03965,77.51854],[13.03956,77.51837]],"stops":[{"id":"29345","name":"National Law College University","lat":12.95323,"lon":77.51662,"sequence":1},{"id":"29205","name":"Nagarabhavi Circle","lat":12.95894,"lon":77.51681,"sequence":2},{"id":"31929","name":"BDA Complex Cross Nagarabhavi","lat":12.97199,"lon":77.51278,"sequence":3},{"id":"28656","name":"Malagala","lat":12.97856,"lon":77.51502,"sequence":4},{"id":"35413","name":"Summanahalli","lat":12.98814,"lon":77.51951,"sequence":5},{"id":"35917","name":"Depot-31 Gate","lat":12.99311,"lon":77.5213,"sequence":6},{"id":"33695","name":"Lurdubayi Samudaya Bhavana","lat":12.99752,"lon":77.52334,"sequence":7},{"id":"33443","name":"Kempegowda Arch","lat":13.00171,"lon":77.52538,"sequence":8},{"id":"28439","name":"Laggere Bridge","lat":13.00843,"lon":77.52664,"sequence":9},{"id":"27499","name":"Nandini Layout Ring Road","lat":13.0116,"lon":77.52853,"sequence":10},{"id":"29289","name":"Nandhini Layout","lat":13.01473,"lon":77.53052,"sequence":11},{"id":"34344","name":"Rajkumar Punya Bhoomi","lat":13.01818,"lon":77.53163,"sequence":12},{"id":"35254","name":"Kanteerava Studio","lat":13.02263,"lon":77.5327,"sequence":13},{"id":"24014","name":"Modern Food Goraguntepalya","lat":13.02482,"lon":77.53395,"sequence":14},{"id":"24015","name":"Reliance Petrol Bunk Goraguntepalya","lat":13.02861,"lon":77.53612,"sequence":15},{"id":"20723","name":"CMTI","lat":13.03074,"lon":77.53647,"sequence":16},{"id":"21189","name":"SRS Peenya","lat":13.03428,"lon":77.53032,"sequence":17},{"id":"21082","name":"Peenya Industry Metro Station","lat":13.03556,"lon":77.52613,"sequence":18},{"id":"20870","name":"Jalahalli Cross","lat":13.03959,"lon":77.51839,"sequence":19}]},{"direction":"DOWN","headsign":"National Law College University","path":[[13.03991,77.5188],[13.03982,77.51893],[13.03935,77.51971],[13.03883,77.52077],[13.03811,77.52204],[13.03794,77.52238],[13.03789,77.52233],[13.03779,77.52251],[13.03725,77.52351],[13.03608,77.5256],[13.03568,77.52636],[13.03549,77.52687],[13.0348,77.52966],[13.03459,77.53018],[13.03442,77.53055],[13.03422,77.53092],[13.03272,77.53344],[13.03255,77.5337],[13.03246,77.5338],[13.03238,77.53386],[13.03199,77.53463],[13.03153,77.53544],[13.03094,77.53658],[13.03049,77.53734],[13.02796,77.53587],[13.02761,77.53566],[13.02723,77.53547],[13.0269,77.53528],[13.02588,77.53467],[13.024852,77.5341],[13.02339,77.53325],[13.02332,77.53325],[13.02308,77.5332],[13.02287,77.53308],[13.02254,77.53293],[13.02222,77.5328],[13.02216,77.53287],[13.02207,77.53292],[13.02199,77.5329],[13.02191,77.53286],[13.02172,77.53262],[13.02159,77.53258],[13.02121,77.53249],[13.02012,77.53233],[13.0193,77.53217],[13.01914,77.53212],[13.01897,77.53204],[13.01851,77.53192],[13.01797,77.53175],[13.01784,77.53171],[13.01674,77.53141],[13.01611,77.53122],[13.01583,77.53113],[13.01511,77.53085],[13.01403,77.5304],[13.01358,77.53015],[13.01336,77.53001],[13.01262,77.5295],[13.01181,77.52893],[13.01128,77.52844],[13.01091,77.52801],[13.01067,77.52777],[13.0105,77.52763],[13.01011,77.52738],[13.0095,77.5271],[13.00891,77.52694],[13.00835,77.52684],[13.0052,77.52683],[13.00467,77.52677],[13.00412,77.52663],[13.00345,77.52635],[13.00224,77.52576],[12.9999,77.5247],[12.99901,77.52423],[12.99844,77.52397],[12.99804,77.52376],[12.99749,77.52352],[12.99536,77.5225],[12.99475,77.52223],[12.99313,77.52147],[12.99309,77.52158],[12.99287,77.52147],[12.99247,77.52132],[12.99085,77.52078],[12.98919,77.52026],[12.98736,77.51961],[12.98692,77.51948],[12.986309,77.51934],[12.98613,77.51931],[12.98509,77.51922],[12.98441,77.51907],[12.98409,77.51897],[12.98384,77.51886],[12.98353,77.5187],[12.98292,77.51831],[12.97906,77.51558],[12.97868,77.51533],[12.97873,77.51525],[12.97847,77.51511],[12.97818,77.51495],[12.97778,77.51477],[12.97646,77.51424],[12.97454,77.51352],[12.97371,77.51325],[12.9725,77.51297],[12.97165,77.51285],[12.96982,77.51275],[12.96862,77.51267],[12.96861,77.51278],[12.96833,77.51276],[12.96525,77.5126],[12.96366,77.51256],[12.96246,77.51261],[12.96176,77.51266],[12.96142,77.51273],[12.96121,77.51284],[12.961,77.51301],[12.96086,77.5132],[12.96071,77.51351],[12.96,77.51539],[12.95964,77.51615],[12.95908,77.51701],[12.95895,77.51727],[12.95888,77.51744],[12.95846,77.51868],[12.95841,77.51878],[12.95832,77.51892],[12.95786,77.51879],[12.95779,77.51874],[12.95758,77.51869],[12.9572,77.51862],[12.95665,77.51854],[12.95594,77.51847],[12.95574,77.51843],[12.9554,77.51831],[12.95528,77.51822],[12.95444,77.51746],[12.95367,77.51693],[12.953208,77.51666]],"stops":[{"id":"20869","name":"Jalahalli Cross","lat":13.0399,"lon":77.51879,"sequence":1},{"id":"21083","name":"Peenya Industry Metro Station","lat":13.03599,"lon":77.52579,"sequence":2},{"id":"21190","name":"SRS Peenya","lat":13.03471,"lon":77.52987,"sequence":3},{"id":"38803","name":"Peenya Metro Station","lat":13.03299,"lon":77.53297,"sequence":4},{"id":"20724","name":"CMTI","lat":13.03143,"lon":77.53561,"sequence":5},{"id":"24002","name":"Reliance Petrol Bunk Goraguntepalya","lat":13.02866,"lon":77.5363,"sequence":6},{"id":"24003","name":"Modern Food Goraguntepalya","lat":13.02483,"lon":77.53414,"sequence":7},{"id":"33342","name":"Kanteerava Studio","lat":13.02138,"lon":77.53252,"sequence":8},{"id":"34345","name":"Rajkumar Punya Bhoomi","lat":13.01859,"lon":77.5319,"sequence":9},{"id":"34086","name":"Nandhini Layout","lat":13.01466,"lon":77.5307,"sequence":10},{"id":"29290","name":"Nandini Layout Ring Road","lat":13.01159,"lon":77.52872,"sequence":11},{"id":"33650","name":"Laggere Bridge","lat":13.00756,"lon":77.52678,"sequence":12},{"id":"30988","name":"Kempegowda Arch","lat":13.00174,"lon":77.52556,"sequence":13},{"id":"28518","name":"Lurdubayi Samudaya Bhavana","lat":12.99723,"lon":77.52339,"sequence":14},{"id":"21887","name":"Depot-31 Gate","lat":12.99306,"lon":77.52146,"sequence":15},{"id":"26750","name":"Summanahalli","lat":12.98631,"lon":77.51934,"sequence":16},{"id":"39782","name":"Sattva Anugraha Apartment","lat":12.98291,"lon":77.51833,"sequence":17},{"id":"33759","name":"Malagala","lat":12.97863,"lon":77.51525,"sequence":18},{"id":"29809","name":"BDA Complex Cross Nagarabhavi","lat":12.97211,"lon":77.51293,"sequence":19},{"id":"35384","name":"Nagarabhavi Circle","lat":12.95829,"lon":77.5189,"sequence":20},{"id":"29345","name":"National Law College University","lat":12.95323,"lon":77.51662,"sequence":21}]}]}