{"short_name":"43-H ASP-PLO","long_name":"Ashoka Pillar ⇔ Pramod Layout","directions":[{"direction":"UP","headsign":"Pramod Layout","path":[[12.94368,77.58496],[12.94366,77.583],[12.94363,77.58289],[12.94361,77.58262],[12.94362,77.58241],[12.94367,77.5822],[12.94366,77.58143],[12.94363,77.58135],[12.94362,77.58118],[12.94363,77.58041],[12.94362,77.58012],[12.94366,77.58004],[12.94616,77.57997],[12.94828,77.57998],[12.94829,77.57786],[12.94823,77.57603],[12.94824,77.57368],[12.94819,77.57176],[12.94819,77.56988],[12.94817,77.56919],[12.94821,77.56911],[12.94821,77.56831],[12.94811,77.56818],[12.94798,77.56805],[12.94789,77.56804],[12.94782,77.568],[12.94776,77.56791],[12.94776,77.56785],[12.94754,77.56781],[12.94731,77.5678],[12.94606,77.56786],[12.94386,77.5679],[12.94374,77.5679],[12.94361,77.56784],[12.94361,77.56669],[12.94359,77.56654],[12.94351,77.56628],[12.94326,77.56581],[12.94315,77.56564],[12.94309,77.56557],[12.94295,77.56543],[12.94273,77.56531],[12.94249,77.56524],[12.94222,77.56521],[12.94176,77.56513],[12.94174,77.56218],[12.94169,77.56132],[12.94162,77.56059],[12.94161,77.5603],[12.94164,77.55792],[12.93792,77.5573],[12.93822,77.55649],[12.938237,77.556496],[12.93825,77.55645],[12.93831,77.55605],[12.93843,77.55503],[12.9386,77.55326],[12.93865,77.55295],[12.93878,77.5525],[12.93893,77.55206],[12.93903,77.55167],[12.93903,77.55157],[12.93898,77.55141],[12.93894,77.55132],[12.93889,77.55118],[12.9388,77.55098],[12.93869,77.55079],[12.93862,77.55069],[12.93821,77.55017],[12.93763,77.5495],[12.93742,77.5493],[12.93596,77.54805],[12.93579,77.5479],[12.9352,77.5474],[12.93457,77.54684],[12.93378,77.54623],[12.9327,77.54533],[12.93172,77.54456],[12.93149,77.54435],[12.93055,77.54357],[12.93043,77.54345],[12.93041,77.5434],[12.93117,77.54251],[12.93125,77.54244],[12.93137,77.5424],[12.93213,77.5414],[12.93272,77.54059],[12.93305,77.54018],[12.93338,77.53972],[12.93396,77.53877],[12.934925,77.537094],[12.93518,77.53663],[12.93615,77.5347],[12.93633,77.53442],[12.93643,77.53432],[12.93656,77.53422],[12.93677,77.53411],[12.93749,77.53388],[12.93773,77.53376],[12.93834,77.53341],[12.93877,77.53311],[12.93853,77.53225],[12.93844,77.5321],[12.93838,77.53202],[12.93809,77.53192],[12.93813,77.53178],[12.93841,77.53189],[12.93907,77.5318],[12.93931,77.53174],[12.9394,77.5317],[12.93928,77.53159],[12.93924,77.53149],[12.93917,77.53107],[12.93828,77.53117],[12.9381,77.52996],[12.9379,77.5299],[12.93797,77.52954],[12.93802,77.52918],[12.93812,77.52919],[12.93883,77.52907],[12.93877,77.52875]],"stops":[{"id":"23759","name":"Ashoka Pillar","lat":12.94367,"lon":77.58496,"sequence":1},{"id":"22434","name":"R V Teachers College","lat":12.94446,"lon":77.5799,"sequence":2},{"id":"20968","name":"Lalbagh West Gate","lat":12.94826,"lon":77.57918,"sequence":3},{"id":"21067","name":"North Road","lat":12.94816,"lon":77.57055,"sequence":4},{"id":"21118","name":"Ramakrishna Ashrama","lat":12.94715,"lon":77.56783,"sequence":5},{"id":"20808","name":"Hanumanthanagara Ward Office","lat":12.94339,"lon":77.56602,"sequence":6},{"id":"21197","name":"Subramanya Swamy Temple","lat":12.94171,"lon":77.562,"sequence":7},{"id":"21066","name":"Nirmala Store","lat":12.94162,"lon":77.55957,"sequence":8},{"id":"22512","name":"Srinivasa Nagara","lat":12.93787,"lon":77.55717,"sequence":9},{"id":"21716","name":"Bank Colony","lat":12.93864,"lon":77.55305,"sequence":10},{"id":"22472","name":"Seetha Circle","lat":12.93779,"lon":77.54968,"sequence":11},{"id":"22044","name":"Hoskerehalli Cross","lat":12.93247,"lon":77.54519,"sequence":12},{"id":"20845","name":"Hosakerehalli Petrol Bunk","lat":12.933,"lon":77.54018,"sequence":13},{"id":"21089","name":"PES College","lat":12.93489,"lon":77.53707,"sequence":14},{"id":"21250","name":"Veerabhadranagara","lat":12.93828,"lon":77.53343,"sequence":15},{"id":"27746","name":"Pramod Layout","lat":12.93877,"lon":77.52878,"sequence":16}]}]}