{"short_name":"43-J PPLO-HKLO","long_name":"H Krishnappa Layout ⇔ Poornaprajna Layout","directions":[{"direction":"UP","headsign":"H Krishnappa Layout","path":[[12.90881,77.53585],[12.90917,77.53595],[12.90948,77.536],[12.90952,77.53591],[12.91107,77.53527],[12.91121,77.53523],[12.91135,77.53523],[12.91148,77.53524],[12.91177,77.5353],[12.91183,77.53521],[12.91204,77.53468],[12.91215,77.53444],[12.91245,77.53361],[12.91284,77.53262],[12.91297,77.53236],[12.91313,77.53216],[12.91331,77.53183],[12.91376,77.53206],[12.91401,77.53154],[12.91418,77.53106],[12.91416,77.531],[12.91411,77.53096],[12.91391,77.5309],[12.91385,77.53085],[12.91385,77.53076],[12.91396,77.53053],[12.914,77.53037],[12.91403,77.53005],[12.91401,77.52975],[12.91402,77.5296],[12.91405,77.52949],[12.91395,77.52907],[12.91391,77.52877],[12.91384,77.52858],[12.91372,77.52848],[12.91371,77.52831],[12.91419,77.52614],[12.91461,77.52621],[12.91504,77.52626],[12.91552,77.52628],[12.9157,77.52635],[12.91614,77.52643],[12.9163,77.52649],[12.91655,77.52656],[12.91795,77.52718],[12.91827,77.52728],[12.91898,77.52741],[12.91922,77.52742],[12.91938,77.5274],[12.91962,77.52735],[12.92014,77.5272],[12.92026,77.52719],[12.92054,77.52721],[12.92117,77.52737],[12.92118,77.52745],[12.92115,77.52764],[12.92116,77.52767],[12.92126,77.52772],[12.9213,77.52779],[12.9213,77.52789],[12.92119,77.52838],[12.9212,77.52842],[12.92124,77.52845],[12.92141,77.52844],[12.92151,77.52846],[12.92154,77.5285],[12.92153,77.52857],[12.92138,77.52896],[12.92138,77.52903],[12.92143,77.52907],[12.92194,77.52918],[12.92302,77.52955],[12.92319,77.52965],[12.923301,77.529785]],"stops":[{"id":"34271","name":"Poornaprajna Layout","lat":12.90877,"lon":77.53592,"sequence":1},{"id":"25357","name":"Gaviyappa Thimayya Layout","lat":12.91383,"lon":77.53175,"sequence":2},{"id":"32866","name":"Haridasa Nagara","lat":12.91852,"lon":77.52733,"sequence":3},{"id":"25652","name":"H Krishnappa Layout","lat":12.92327,"lon":77.52981,"sequence":4}]},{"direction":"DOWN","headsign":"Poornaprajna Layout","path":[[12.923303,77.52978],[12.92319,77.52967],[12.92302,77.52955],[12.92293,77.52952],[12.92279,77.52948],[12.92194,77.52919],[12.92147,77.52909],[12.92137,77.52903],[12.9214,77.52891],[12.92153,77.52855],[12.92153,77.5285],[12.92148,77.52847],[12.92131,77.52846],[12.9212,77.52843],[12.92124,77.52816],[12.9213,77.52789],[12.9213,77.52783],[12.92128,77.52777],[12.92124,77.52772],[12.92115,77.52764],[12.92116,77.52752],[12.92118,77.52747],[12.92116,77.5274],[12.92109,77.52737],[12.92097,77.52734],[12.9206,77.52724],[12.92046,77.52722],[12.92015,77.52722],[12.91988,77.52729],[12.91943,77.52743],[12.91906,77.52747],[12.91897,77.52747],[12.91841,77.52737],[12.91825,77.52734],[12.91776,77.52715],[12.91702,77.5268],[12.91678,77.52672],[12.91653,77.52661],[12.91613,77.52649],[12.91541,77.52632],[12.91461,77.52623],[12.91427,77.52618],[12.91382,77.5283],[12.91379,77.52841],[12.91372,77.52845],[12.91381,77.52855],[12.91387,77.52869],[12.91392,77.52889],[12.91399,77.52946],[12.91402,77.5296],[12.91401,77.52975],[12.91403,77.53005],[12.914,77.53037],[12.91396,77.53053],[12.91385,77.53076],[12.91385,77.53085],[12.91391,77.5309],[12.91411,77.53096],[12.91416,77.531],[12.91418,77.53106],[12.91401,77.53154],[12.91376,77.53206],[12.91331,77.53183],[12.91313,77.53216],[12.91297,77.53236],[12.91284,77.53262],[12.91245,77.53361],[12.91215,77.53444],[12.91204,77.53468],[12.91183,77.53521],[12.91177,77.5353],[12.91148,77.53524],[12.91135,77.53523],[12.91121,77.53523],[12.91107,77.53527],[12.90952,77.53591],[12.90948,77.536],[12.9088,77.53585]],"stops":[{"id":"25652","name":"H Krishnappa Layout","lat":12.92327,"lon":77.52981,"sequence":1},{"id":"32865","name":"Haridasa Nagara","lat":12.91848,"lon":77.52736,"sequence":2},{"id":"25357","name":"Gaviyappa Thimayya Layout","lat":12.91383,"lon":77.53175,"sequence":3},{"id":"34271","name":"Poornaprajna Layout","lat":12.90877,"lon":77.53592,"sequence":4}]}]}