{"short_name":"49","long_name":"Brundavana Nagara ⇔ Kempegowda Bus Station","directions":[{"direction":"UP","headsign":"Brundavana Nagara","path":[[12.97751,77.57141],[12.97749,77.57098],[12.97932,77.57111],[12.97954,77.57115],[12.97978,77.57133],[12.97998,77.57152],[12.98025,77.57191],[12.98031,77.57223],[12.98036,77.57259],[12.98035,77.57268],[12.98036,77.57276],[12.98052,77.57336],[12.98058,77.57368],[12.98065,77.57429],[12.98068,77.57474],[12.98068,77.57552],[12.98057,77.57769],[12.98047,77.57895],[12.9804,77.5802],[12.9803,77.58072],[12.98023,77.58093],[12.98003,77.58139],[12.97965,77.58197],[12.97884,77.58312],[12.97786,77.58465],[12.97684,77.58605],[12.97601,77.58713],[12.976,77.58725],[12.97597,77.5873],[12.97593,77.58733],[12.97585,77.58736],[12.97575,77.58733],[12.97569,77.58725],[12.97568,77.58716],[12.97448,77.58665],[12.9743,77.5866],[12.97409,77.58658],[12.97376,77.58661],[12.97263,77.58677],[12.97136,77.58698],[12.96954,77.58716],[12.96812,77.58743],[12.96806,77.58745],[12.96796,77.58752],[12.96791,77.58761],[12.96787,77.58774],[12.96782,77.58812],[12.96781,77.58843],[12.96742,77.58843],[12.96729,77.58841],[12.96676,77.58797],[12.96663,77.58783],[12.96631,77.58752],[12.96567,77.58697],[12.96494,77.58632],[12.96458,77.58597],[12.96384,77.58529],[12.9637,77.58462],[12.96362,77.58401],[12.96349,77.58334],[12.96347,77.58299],[12.9634,77.58237],[12.96339,77.58196],[12.9634,77.58173],[12.96347,77.58107],[12.96344,77.58084],[12.96344,77.58074],[12.96352,77.57982],[12.96355,77.57858],[12.96357,77.5784],[12.9636,77.57824],[12.96364,77.57812],[12.9639,77.57746],[12.96368,77.577415],[12.95623,77.57727],[12.9572,77.57311],[12.957214,77.57311],[12.95722,77.57224],[12.95725,77.57214],[12.95722,77.57168],[12.95716,77.56994],[12.95713,77.56987],[12.95707,77.56855],[12.95708,77.56748],[12.95711,77.56739],[12.95706,77.56662],[12.95704,77.56451],[12.95702,77.56412],[12.95702,77.56309],[12.95697,77.56213],[12.95696,77.5607],[12.95691,77.55924],[12.95648,77.55871],[12.95622,77.55834],[12.95575,77.55779],[12.95559,77.55755],[12.95537,77.55735],[12.95515,77.55723],[12.95505,77.55719],[12.95423,77.55697],[12.95395,77.5569],[12.95378,77.55684],[12.95351,77.5567],[12.95259,77.55611],[12.95225,77.55592],[12.95192,77.55578],[12.95174,77.55573],[12.95139,77.55562],[12.95096,77.55554],[12.9507,77.55551],[12.95043,77.55551]],"stops":[{"id":"20921","name":"Kempegowda Bus Station","lat":12.97751,"lon":77.57141,"sequence":1},{"id":"20981","name":"Maharani College","lat":12.97703,"lon":77.5858,"sequence":2},{"id":"20939","name":"KR Circle","lat":12.97386,"lon":77.58661,"sequence":3},{"id":"21195","name":"St Marthas Hospital","lat":12.96945,"lon":77.58716,"sequence":4},{"id":"20727","name":"Corporation","lat":12.96701,"lon":77.58822,"sequence":5},{"id":"21232","name":"Town Hall","lat":12.96355,"lon":77.58375,"sequence":6},{"id":"20941","name":"KR Market","lat":12.96368,"lon":77.57742,"sequence":7},{"id":"22243","name":"Makkala Koota","lat":12.9572,"lon":77.57311,"sequence":8},{"id":"20710","name":"Chamarajapet","lat":12.95707,"lon":77.56705,"sequence":9},{"id":"21117","name":"Chamarajapet Rama Mandira","lat":12.957,"lon":77.56302,"sequence":10},{"id":"21233","name":"TR Mill","lat":12.95683,"lon":77.55921,"sequence":11},{"id":"31625","name":"Vittal Nagara","lat":12.95464,"lon":77.55713,"sequence":12},{"id":"20682","name":"Brundavana Nagara","lat":12.95049,"lon":77.55553,"sequence":13}]},{"direction":"DOWN","headsign":"Kempegowda Bus Station","path":[[12.95043,77.55551],[12.9507,77.55551],[12.95096,77.55554],[12.95139,77.55562],[12.95174,77.55573],[12.95192,77.55578],[12.95225,77.55592],[12.95259,77.55611],[12.95351,77.5567],[12.95378,77.55684],[12.95395,77.5569],[12.95423,77.55697],[12.95515,77.55723],[12.95537,77.55735],[12.95559,77.55755],[12.95575,77.55779],[12.95622,77.55834],[12.95648,77.55871],[12.95691,77.55924],[12.95773,77.55924],[12.95777,77.56081],[12.95696,77.56085],[12.95697,77.56213],[12.95702,77.56309],[12.95702,77.56412],[12.95704,77.56451],[12.95706,77.56662],[12.95711,77.56739],[12.95714,77.56749],[12.95713,77.56796],[12.9572,77.56962],[12.9572,77.5698],[12.95719,77.56988],[12.95716,77.56994],[12.95722,77.57168],[12.95725,77.57214],[12.95729,77.57223],[12.95728,77.57272],[12.9573,77.57335],[12.95751,77.57365],[12.95766,77.57373],[12.95812,77.5739],[12.9586,77.5741],[12.95907,77.57426],[12.95958,77.57446],[12.95973,77.57451],[12.95978,77.57456],[12.96005,77.57462],[12.96073,77.5749],[12.96148,77.57528],[12.96192,77.57555],[12.96208,77.57571],[12.96225,77.57592],[12.96268,77.57622],[12.9634,77.57651],[12.96406,77.57684],[12.96411,77.57686],[12.96418,77.57689],[12.96427,77.57689],[12.9644,77.57696],[12.96439,77.57706],[12.96444,77.57752],[12.96442,77.57794],[12.96411,77.58116],[12.96403,77.58222],[12.96396,77.58296],[12.96391,77.58402],[12.96387,77.58412],[12.96383,77.58434],[12.96381,77.58461],[12.96382,77.58484],[12.96387,77.58511],[12.96391,77.58524],[12.96397,77.58532],[12.96406,77.58542],[12.96539,77.58659],[12.9656,77.58669],[12.9658,77.58674],[12.9659,77.58678],[12.96604,77.58689],[12.96636,77.58719],[12.96647,77.58726],[12.96657,77.5873],[12.96682,77.58737],[12.9671,77.58741],[12.96748,77.58744],[12.9678,77.58725],[12.96799,77.58719],[12.96853,77.5866],[12.96887,77.58623],[12.96913,77.58591],[12.9696,77.58537],[12.97017,77.5847],[12.97101,77.5838],[12.97168,77.583],[12.97217,77.58249],[12.97258,77.58194],[12.97281,77.58153],[12.97314,77.58084],[12.97397,77.57895],[12.97437,77.57808],[12.97476,77.57712],[12.97485,77.57696],[12.97492,77.57691],[12.97508,77.57668],[12.97536,77.57611],[12.9754,77.57597],[12.97554,77.57464],[12.9759,77.57469],[12.97635,77.57469],[12.97676,77.57457],[12.97703,77.57446],[12.97713,77.5744],[12.97746,77.57409],[12.97749,77.57327]],"stops":[{"id":"20683","name":"Brundavana Nagara","lat":12.95042,"lon":77.5555,"sequence":1},{"id":"34857","name":"Vittal Nagara","lat":12.95414,"lon":77.55696,"sequence":2},{"id":"21233","name":"TR Mill","lat":12.95683,"lon":77.55921,"sequence":3},{"id":"34311","name":"Raghavendra Colony","lat":12.95773,"lon":77.55941,"sequence":4},{"id":"21116","name":"Chamarajapet Rama Mandira","lat":12.95703,"lon":77.56381,"sequence":5},{"id":"20709","name":"Chamarajapet","lat":12.95714,"lon":77.56801,"sequence":6},{"id":"20986","name":"Makkala Koota","lat":12.95803,"lon":77.57385,"sequence":7},{"id":"21557","name":"KR Market","lat":12.96207,"lon":77.5756,"sequence":8},{"id":"22199","name":"KR Market","lat":12.96437,"lon":77.57736,"sequence":9},{"id":"21231","name":"Town Hall","lat":12.96384,"lon":77.58434,"sequence":10},{"id":"20725","name":"Corporation","lat":12.96839,"lon":77.58675,"sequence":11},{"id":"35383","name":"Mysore Bank","lat":12.97253,"lon":77.58199,"sequence":12},{"id":"20922","name":"Kempegowda Bus Station","lat":12.97749,"lon":77.57327,"sequence":13}]}]}