{"short_name":"507 D23G-KPRGH","long_name":"KR Pura Bus Stand ⇔ Kalyananagara Bus Stand","directions":[{"direction":"UP","headsign":"KR Pura Market","path":[[13.026406,77.63839],[13.02621,77.63944],[13.0261,77.63988],[13.02576,77.64077],[13.02461,77.6434],[13.0245,77.64338],[13.02441,77.64337],[13.02432,77.6434],[13.02354,77.64523],[13.02308,77.64624],[13.02304,77.64637],[13.02303,77.64654],[13.02257,77.64749],[13.02195,77.64896],[13.02003,77.65336],[13.01914,77.6556],[13.01801,77.65813],[13.01686,77.66084],[13.01695,77.66089],[13.01664,77.66158],[13.0165,77.66182],[13.01636,77.66197],[13.01627,77.66204],[13.01616,77.6621],[13.01593,77.66218],[13.01554,77.66225],[13.01508,77.66229],[13.01351,77.6624],[13.01333,77.6625],[13.01322,77.66265],[13.01317,77.66285],[13.01313,77.6629],[13.01303,77.66322],[13.01295,77.66361],[13.01297,77.66369],[13.01252,77.66537],[13.01233,77.66617],[13.01207,77.66789],[13.01202,77.66798],[13.012,77.66836],[13.01196,77.66868],[13.0117,77.67033],[13.01164,77.67153],[13.01158,77.67231],[13.01155,77.67321],[13.0115,77.67388],[13.0115,77.67422],[13.01147,77.67487],[13.01135,77.67576],[13.01133,77.67607],[13.01153,77.67712],[13.01165,77.67804],[13.01169,77.67825],[13.01174,77.67876],[13.01172,77.6789],[13.01166,77.67909],[13.01121,77.68035],[13.01108,77.68063],[13.01095,77.68082],[13.0104,77.68149],[13.00993,77.68209],[13.0098,77.68221],[13.00882,77.68281],[13.0086,77.68295],[13.00836,77.6831],[13.007892,77.683365],[13.0079,77.68338],[13.0052,77.68498],[13.00532,77.68522],[13.005311,77.68523],[13.00546,77.68551],[13.00542,77.68554],[13.00592,77.68641],[13.00616,77.68687],[13.00747,77.68953],[13.00762,77.68992],[13.00788,77.69102],[13.00799,77.69156],[13.00815,77.69219],[13.00826,77.69273],[13.00829,77.69302],[13.00831,77.69362],[13.0083,77.69401]],"stops":[{"id":"36441","name":"Kalyananagara Bus Stand","lat":13.02642,"lon":77.63839,"sequence":1},{"id":"20618","name":"Babusabpalya","lat":13.02274,"lon":77.64721,"sequence":2},{"id":"20838","name":"Horamavu Signal","lat":13.01966,"lon":77.65437,"sequence":3},{"id":"21263","name":"Vijaya Bank Colony Ring Road","lat":13.01726,"lon":77.65992,"sequence":4},{"id":"21695","name":"B Channasandra Bridge(Ramamurthy Nagara Ring Road)","lat":13.01318,"lon":77.66272,"sequence":5},{"id":"22420","name":"Ramamurthy Nagara Police Station","lat":13.01206,"lon":77.66785,"sequence":6},{"id":"22418","name":"Ramamurthy Nagara Manipal","lat":13.01172,"lon":77.67031,"sequence":7},{"id":"22632","name":"Yarayyanapalya","lat":13.01157,"lon":77.67326,"sequence":8},{"id":"22414","name":"Ramamurthy Nagara Alada Mara","lat":13.01146,"lon":77.67644,"sequence":9},{"id":"22416","name":"Ramamurthy Nagara Church","lat":13.01177,"lon":77.67878,"sequence":10},{"id":"22084","name":"ITI Circle","lat":13.0079,"lon":77.68338,"sequence":11},{"id":"20863","name":"ITI Colony Gate","lat":13.00532,"lon":77.68522,"sequence":12},{"id":"22207","name":"KR Pura Market","lat":13.00841,"lon":77.69403,"sequence":13}]}]}