{"short_name":"55-B KPA-CLO","long_name":"Chandra Layout ⇔ Kempapura Agarahara","directions":[{"direction":"UP","headsign":"Chandra Layout","path":[[12.969074,77.554665],[12.96946,77.55599],[12.96955,77.55642],[12.96957,77.55679],[12.96955,77.55715],[12.9695,77.55751],[12.96941,77.55797],[12.96905,77.55942],[12.96868,77.55927],[12.96849,77.55919],[12.96838,77.55946],[12.96809,77.55993],[12.96795,77.56009],[12.96758,77.56042],[12.96744,77.5606],[12.9666,77.56181],[12.96604,77.56266],[12.96598,77.56274],[12.96481,77.56196],[12.96459,77.56178],[12.96441,77.56165],[12.96323,77.56071],[12.96277,77.56037],[12.96205,77.55981],[12.96175,77.55959],[12.96143,77.55932],[12.96138,77.55924],[12.9613,77.55922],[12.96114,77.55921],[12.96096,77.55841],[12.96062,77.55843],[12.9602,77.55843],[12.96011,77.55674],[12.9598,77.55624],[12.95965,77.55605],[12.95938,77.55582],[12.95874,77.55538],[12.95857,77.55522],[12.95848,77.55512],[12.95832,77.55488],[12.95826,77.55476],[12.95782,77.55354],[12.95712,77.55135],[12.95697,77.55075],[12.95675,77.54956],[12.95658,77.54847],[12.95635,77.54719],[12.95626,77.54687],[12.95622,77.54678],[12.95599,77.54634],[12.95551,77.54551],[12.95532,77.54523],[12.95492,77.5447],[12.95461,77.54433],[12.95428,77.54399],[12.95413,77.54404],[12.95387,77.54406],[12.95371,77.544],[12.9536,77.54378],[12.95346,77.5434],[12.95358,77.54322],[12.9538,77.54311],[12.95368,77.54276],[12.95354,77.54244],[12.95339,77.54219],[12.95308,77.54186],[12.95284,77.54155],[12.95264,77.54137],[12.95246,77.54116],[12.9522,77.54072],[12.95178,77.54004],[12.95165,77.53987],[12.95124,77.53925],[12.95098,77.53873],[12.95082,77.53829],[12.95075,77.53815],[12.95064,77.53798],[12.95063,77.53782],[12.95064,77.53773],[12.95066,77.53768],[12.951,77.53742],[12.95159,77.53716],[12.95271,77.53679],[12.95306,77.53662],[12.95323,77.53652],[12.95357,77.53622],[12.95484,77.53495],[12.95504,77.5348],[12.9553,77.53467],[12.95619,77.53441],[12.95661,77.53435],[12.95676,77.53433],[12.95766,77.53397],[12.95811,77.53376],[12.95957,77.53316],[12.95984,77.53305],[12.96003,77.53301],[12.95996,77.5323],[12.95993,77.53184],[12.95993,77.53164],[12.95996,77.53145],[12.96025,77.53074],[12.96042,77.53015],[12.96054,77.52961],[12.95876,77.52896],[12.95757,77.52859],[12.95703,77.52837],[12.95746,77.52776],[12.9576,77.52754],[12.95825,77.52632],[12.959249,77.52671]],"stops":[{"id":"30971","name":"Kempapura Agarahara","lat":12.96912,"lon":77.55465,"sequence":1},{"id":"30972","name":"Kempapura Agarahara Railway Gate","lat":12.96913,"lon":77.55925,"sequence":2},{"id":"21472","name":"Binnypet","lat":12.96448,"lon":77.56171,"sequence":3},{"id":"21605","name":"Sirsi Circle","lat":12.96223,"lon":77.55995,"sequence":4},{"id":"21043","name":"Mysore Road TollGate","lat":12.95768,"lon":77.55319,"sequence":5},{"id":"21057","name":"New Guddadahalli","lat":12.95641,"lon":77.54761,"sequence":6},{"id":"21042","name":"Mysore Road Bus Station","lat":12.9536,"lon":77.54378,"sequence":7},{"id":"20739","name":"Deepanjalinagara","lat":12.9514,"lon":77.53724,"sequence":8},{"id":"20613","name":"Attiguppe","lat":12.95789,"lon":77.53385,"sequence":9},{"id":"20852","name":"Income Tax Layout","lat":12.96007,"lon":77.53112,"sequence":10},{"id":"20714","name":"Chandra Public School","lat":12.96046,"lon":77.52963,"sequence":11},{"id":"20779","name":"Ganesha Temple Chandra Layout","lat":12.95803,"lon":77.52876,"sequence":12},{"id":"20712","name":"Chandra Layout Circle","lat":12.95815,"lon":77.5265,"sequence":13},{"id":"22776","name":"Chandra Layout","lat":12.95925,"lon":77.52671,"sequence":14}]}]}