{"short_name":"79-B YTTMC-BRC","long_name":"Bandi Reddy Circle ⇔ Yeshawanthapura Bus Station","directions":[{"direction":"UP","headsign":"Bandi Reddy Circle","path":[[13.01801,77.55662],[13.01765,77.55658],[13.017359,77.55703],[13.01689,77.55678],[13.0168,77.55666],[13.01638,77.55643],[13.01612,77.55624],[13.016,77.55613],[13.01583,77.55592],[13.01565,77.55567],[13.01551,77.55578],[13.01457,77.55665],[13.01403,77.55717],[13.01329,77.55781],[13.01275,77.55818],[13.01213,77.55856],[13.01152,77.55887],[13.01144,77.5589],[13.01137,77.5589],[13.01101,77.55905],[13.01087,77.5591],[13.0107,77.55917],[13.0091,77.5597],[13.00718,77.56026],[13.00532,77.56086],[13.00437,77.56121],[13.00413,77.56132],[13.00286,77.56205],[13.00083,77.56319],[13.00034,77.56349],[13.00014,77.5636],[12.99997,77.5637],[12.99922,77.56412],[12.99902,77.56421],[12.99851,77.56455],[12.99825,77.56476],[12.99784,77.56512],[12.99668,77.56604],[12.99653,77.56612],[12.9961,77.56626],[12.99593,77.56629],[12.99449,77.56636],[12.99417,77.56645],[12.99379,77.56648],[12.99214,77.56647],[12.99123,77.56652],[12.99136,77.56516],[12.99144,77.56386]],"stops":[{"id":"21288","name":"Yeshawanthapura Bus Station","lat":13.01801,"lon":77.55662,"sequence":1},{"id":"28998","name":"Milk Colony","lat":13.00914,"lon":77.55971,"sequence":2},{"id":"34712","name":"Subramanyanagara Cross","lat":13.00415,"lon":77.56136,"sequence":3},{"id":"34326","name":"Malleshwara Railway Station","lat":13.00068,"lon":77.56332,"sequence":4},{"id":"24678","name":"Chowdeshwari Temple","lat":12.99483,"lon":77.56638,"sequence":5},{"id":"22923","name":"Sriramapura 5th Cross","lat":12.99214,"lon":77.56647,"sequence":6},{"id":"29699","name":"Bandi Reddy Circle","lat":12.99141,"lon":77.56389,"sequence":7}]},{"direction":"DOWN","headsign":"Yeshawanthapura Bus Station","path":[[12.99144,77.56386],[12.99142,77.56418],[12.99188,77.56425],[12.99276,77.56444],[12.99356,77.56468],[12.99351,77.56509],[12.99349,77.56578],[12.99346,77.56626],[12.99343,77.5683],[12.99341,77.56863],[12.9934,77.56878],[12.99333,77.56891],[12.99326,77.56915],[12.99324,77.56936],[12.99325,77.56959],[12.99345,77.56952],[12.99417,77.5693],[12.99408,77.56829],[12.99444,77.56801],[12.99519,77.56752],[12.99619,77.56682],[12.99664,77.56642],[12.99678,77.56631],[12.99717,77.56605],[12.99797,77.56559],[12.99814,77.56552],[12.99915,77.56551],[13.00047,77.56545],[13.00203,77.5654],[13.00259,77.56536],[13.00278,77.56535],[13.00327,77.56531],[13.00474,77.56526],[13.00519,77.56523],[13.00548,77.56519],[13.00561,77.56519],[13.00569,77.56521],[13.00602,77.565],[13.00709,77.56429],[13.00757,77.56402],[13.00762,77.56303],[13.00829,77.56301],[13.00898,77.5629],[13.00897,77.56318],[13.01066,77.56217],[13.01156,77.56166],[13.01167,77.56154],[13.01192,77.56138],[13.01315,77.5607],[13.01392,77.56026],[13.01449,77.55995],[13.01543,77.55939],[13.015453,77.55938],[13.01765,77.55812],[13.01792,77.55799],[13.01822,77.55781],[13.01839,77.55773],[13.01834,77.55765],[13.01826,77.55756],[13.01814,77.55746],[13.01736,77.55703],[13.01748,77.55682],[13.01765,77.55658],[13.01771,77.55657]],"stops":[{"id":"31879","name":"Bandi Reddy Circle","lat":12.99141,"lon":77.56384,"sequence":1},{"id":"27916","name":"Ramamandira","lat":12.99343,"lon":77.56781,"sequence":2},{"id":"33893","name":"MD Block","lat":12.99328,"lon":77.56951,"sequence":3},{"id":"22940","name":"Malleshwara 8th Cross (8th Main)","lat":13.00003,"lon":77.56544,"sequence":4},{"id":"22872","name":"Malleshwaram 13th Cross  (8th Mian)","lat":13.00323,"lon":77.56526,"sequence":5},{"id":"35424","name":"Malleshwaram 15th Cross(8th Main)","lat":13.00715,"lon":77.56423,"sequence":6},{"id":"35601","name":"Malleshwaram 18th Cross (Malleshwaram 8th Main)","lat":13.01,"lon":77.56254,"sequence":7},{"id":"29176","name":"Mysore Lamp","lat":13.01546,"lon":77.55939,"sequence":8},{"id":"22706","name":"Yeshawanthapura ACP Office","lat":13.01782,"lon":77.558,"sequence":9},{"id":"24016","name":"Yeshawanthapura Bus Station","lat":13.01771,"lon":77.55657,"sequence":10}]}]}