{"short_name":"80-A YTTMC-NLO","long_name":"Nandini Layout Bus Stand ⇔ Yeshawanthapura Bus Station","directions":[{"direction":"UP","headsign":"Nandini Layout Bus Stand","path":[[13.01801,77.55662],[13.01765,77.55658],[13.01748,77.55682],[13.01736,77.55703],[13.01692,77.5568],[13.0168,77.55666],[13.01621,77.55632],[13.016,77.55613],[13.0158,77.55589],[13.0156,77.55558],[13.01551,77.55539],[13.01543,77.55514],[13.01539,77.55483],[13.01533,77.55469],[13.01527,77.55438],[13.01524,77.5543],[13.01514,77.55421],[13.01479,77.55416],[13.01474,77.55412],[13.0137,77.55415],[13.01357,77.55418],[13.01328,77.55427],[13.01322,77.55432],[13.013087,77.55437],[13.01271,77.5544],[13.01257,77.55437],[13.01252,77.55433],[13.01249,77.55419],[13.01252,77.55407],[13.0126,77.55392],[13.01275,77.55377],[13.01265,77.5536],[13.01263,77.55351],[13.01259,77.55343],[13.01204,77.55235],[13.011743,77.551735],[13.01117,77.55064],[13.01106,77.55049],[13.01054,77.54998],[13.01,77.54953],[13.00986,77.54942],[13.00966,77.54929],[13.00925,77.5491],[13.00905,77.54905],[13.008,77.54887],[13.00768,77.54882],[13.00769,77.54866],[13.00778,77.5481],[13.00803,77.54681],[13.00818,77.54592],[13.00825,77.54561],[13.00841,77.54465],[13.00846,77.54425],[13.00857,77.54356],[13.00865,77.54313],[13.00846,77.54309],[13.00844,77.54297],[13.00843,77.54273],[13.00853,77.54217],[13.00866,77.54168],[13.00876,77.54113],[13.00887,77.54007],[13.00897,77.53953],[13.0091,77.53868],[13.00917,77.53798],[13.00927,77.53725],[13.00932,77.53675],[13.00934,77.53668],[13.00938,77.53662],[13.00949,77.53651],[13.00963,77.53646],[13.0097,77.53646],[13.01005,77.53662],[13.01016,77.53669],[13.01034,77.53676],[13.01043,77.53641],[13.01051,77.53621],[13.01068,77.53594],[13.01081,77.53582],[13.01107,77.53566],[13.01134,77.53557],[13.011611,77.53556]],"stops":[{"id":"21288","name":"Yeshawanthapura Bus Station","lat":13.01801,"lon":77.55662,"sequence":1},{"id":"20796","name":"Govt Soap Factory","lat":13.01309,"lon":77.55438,"sequence":2},{"id":"20859","name":"Iskcon Temple","lat":13.01174,"lon":77.55174,"sequence":3},{"id":"24188","name":"Mahalakshmi Layout Entrance","lat":13.00779,"lon":77.548,"sequence":4},{"id":"24189","name":"Shrinivasa Temple","lat":13.00833,"lon":77.54506,"sequence":5},{"id":"24190","name":"Ganesha Temple Mahalakshmi Layout","lat":13.00862,"lon":77.5432,"sequence":6},{"id":"28165","name":"Saraswathipuram","lat":13.00913,"lon":77.53821,"sequence":7},{"id":"29301","name":"Nandini Layout Bus Stand","lat":13.0116,"lon":77.53569,"sequence":8}]},{"direction":"DOWN","headsign":"Yeshawanthapura Bus Station","path":[[13.011611,77.53556],[13.01134,77.53557],[13.01107,77.53566],[13.01081,77.53582],[13.01068,77.53594],[13.01051,77.53621],[13.01043,77.53641],[13.01034,77.53676],[13.01016,77.53669],[13.01005,77.53662],[13.0097,77.53646],[13.00963,77.53646],[13.00949,77.53651],[13.00938,77.53662],[13.00934,77.53668],[13.00932,77.53675],[13.00927,77.53725],[13.00917,77.53798],[13.0091,77.53868],[13.00897,77.53953],[13.00887,77.54007],[13.00876,77.54113],[13.00866,77.54168],[13.00853,77.54217],[13.00843,77.54273],[13.00844,77.54297],[13.00846,77.54309],[13.00865,77.54313],[13.00857,77.54356],[13.00846,77.54425],[13.00841,77.54465],[13.00825,77.54561],[13.00818,77.54592],[13.00803,77.54681],[13.00778,77.5481],[13.00769,77.54866],[13.00861,77.5488],[13.00881,77.54884],[13.00953,77.54909],[13.0097,77.54917],[13.0102,77.54953],[13.01046,77.54974],[13.01089,77.55015],[13.01118,77.5504],[13.01131,77.55059],[13.011541,77.55106],[13.01196,77.55186],[13.01251,77.55298],[13.01272,77.55336],[13.01293,77.55363],[13.01303,77.5537],[13.01318,77.55375],[13.01325,77.55379],[13.01331,77.55385],[13.013506,77.5539],[13.01381,77.55395],[13.01551,77.55401],[13.01568,77.55402],[13.01605,77.55402],[13.01642,77.55399],[13.01754,77.55378],[13.01774,77.55372],[13.017784,77.553696],[13.01783,77.55364],[13.01786,77.55357],[13.01685,77.5538],[13.01661,77.55383],[13.01621,77.55385],[13.01607,77.55387],[13.01596,77.55391],[13.01587,77.55396],[13.0158,77.55402],[13.01562,77.55424],[13.01556,77.55434],[13.01552,77.55445],[13.01549,77.55467],[13.0155,77.55485],[13.01554,77.55511],[13.01562,77.55535],[13.0157,77.55551],[13.01589,77.55584],[13.01613,77.55609],[13.01625,77.55619],[13.01656,77.55637],[13.01667,77.55643],[13.01674,77.55643],[13.0168,77.55645],[13.01707,77.55658],[13.01748,77.55682],[13.01765,77.55658],[13.01771,77.55657]],"stops":[{"id":"29301","name":"Nandini Layout Bus Stand","lat":13.0116,"lon":77.53569,"sequence":1},{"id":"34474","name":"Saraswathipuram","lat":13.00918,"lon":77.53818,"sequence":2},{"id":"25298","name":"Ganesha Temple Mahalakshmi Layout","lat":13.00868,"lon":77.54313,"sequence":3},{"id":"24192","name":"Shrinivasa Temple","lat":13.00838,"lon":77.54501,"sequence":4},{"id":"20980","name":"Mahalakshmi Layout Entrance","lat":13.00782,"lon":77.54867,"sequence":5},{"id":"20860","name":"Iskcon Temple","lat":13.0116,"lon":77.55103,"sequence":6},{"id":"20797","name":"Govt Soap Factory","lat":13.01352,"lon":77.55385,"sequence":7},{"id":"20793","name":"Govardhan Talkies","lat":13.01781,"lon":77.55374,"sequence":8},{"id":"24016","name":"Yeshawanthapura Bus Station","lat":13.01771,"lon":77.55657,"sequence":9}]}]}