{"short_name":"89-D YTTMC-JCN","long_name":"JC Nagara Kurubarahalli ⇔ Yeshawanthapura Bus Station","directions":[{"direction":"UP","headsign":"JC Nagara Kurubarahalli","path":[[13.01801,77.55662],[13.01765,77.55658],[13.017359,77.55703],[13.01689,77.55678],[13.0168,77.55666],[13.01638,77.55643],[13.016,77.55613],[13.01583,77.55592],[13.01565,77.55567],[13.01551,77.55539],[13.01542,77.55511],[13.01537,77.55481],[13.01532,77.55468],[13.01527,77.55436],[13.01524,77.5543],[13.01514,77.55421],[13.01479,77.55416],[13.01474,77.55412],[13.01407,77.55414],[13.01372,77.55413],[13.01365,77.55414],[13.01328,77.55427],[13.01322,77.55432],[13.01315,77.55435],[13.01277,77.5544],[13.01269,77.5544],[13.01254,77.55437],[13.0125,77.55432],[13.01247,77.55426],[13.01246,77.55418],[13.01248,77.55408],[13.01254,77.55398],[13.01268,77.55382],[13.01261,77.55352],[13.01151,77.55131],[13.01115,77.55065],[13.01106,77.55052],[13.01076,77.5502],[13.01052,77.55],[13.01018,77.54968],[13.01,77.54953],[13.00968,77.54933],[13.009,77.54903],[13.00845,77.54892],[13.007364,77.54876],[13.0071,77.54874],[13.00677,77.54876],[13.00614,77.54886],[13.006,77.54887],[13.00582,77.54892],[13.004697,77.549065],[13.00394,77.5492],[13.00372,77.54922],[13.00221,77.54947],[13.00189,77.54951],[13.00175,77.54955],[13.00122,77.54963],[12.99993,77.54985],[12.99979,77.54988],[12.99966,77.55003],[12.99767,77.55043],[12.9976,77.55045],[12.99757,77.55025],[12.9975,77.549],[12.99745,77.54749],[12.99741,77.54699],[12.99741,77.54663],[12.99739,77.54638],[12.99741,77.54546],[12.99746,77.54512],[12.99771,77.54436],[12.99834,77.5428],[12.99857,77.54237],[12.99895,77.54177],[12.99912,77.54142],[12.99926,77.54123],[12.99934,77.54116],[12.99953,77.54073],[12.99971,77.54038],[12.99983,77.54011],[12.99992,77.53969],[13.00004,77.53856],[13.00011,77.53824],[13.00072,77.53606],[13.00075,77.53599],[13.00079,77.53595],[13.00085,77.53591],[13.00103,77.53664],[13.00164,77.53649],[13.00222,77.53634],[13.00283,77.53612],[13.0033,77.53597],[13.00344,77.53591],[13.00374,77.53582],[13.00459,77.53551],[13.00502,77.53539],[13.0059,77.53503]],"stops":[{"id":"21288","name":"Yeshawanthapura Bus Station","lat":13.01801,"lon":77.55662,"sequence":1},{"id":"20796","name":"Govt Soap Factory","lat":13.01309,"lon":77.55438,"sequence":2},{"id":"20859","name":"Iskcon Temple","lat":13.01174,"lon":77.55174,"sequence":3},{"id":"20979","name":"Mahalakshmi Layout Entrance","lat":13.00736,"lon":77.54879,"sequence":4},{"id":"20575","name":"Rajajinagara 1st Block","lat":13.0047,"lon":77.54909,"sequence":5},{"id":"21049","name":"Navarang Theatre","lat":12.99748,"lon":77.54884,"sequence":6},{"id":"21027","name":"Modi Hospital","lat":12.9974,"lon":77.54573,"sequence":7},{"id":"21164","name":"Shankar Mutt","lat":12.99897,"lon":77.5417,"sequence":8},{"id":"33636","name":"Kurubarahalli","lat":13.00084,"lon":77.53588,"sequence":9},{"id":"34811","name":"JC Nagara Kurubarahalli","lat":13.00592,"lon":77.53494,"sequence":10}]},{"direction":"DOWN","headsign":"Yeshawanthapura Bus Station","path":[[13.0059,77.53503],[13.00502,77.53539],[13.00459,77.53551],[13.00374,77.53582],[13.00344,77.53591],[13.0033,77.53597],[13.00283,77.53612],[13.00222,77.53634],[13.00164,77.53649],[13.00103,77.53664],[13.00112,77.53705],[13.00108,77.53711],[13.00101,77.53727],[13.00074,77.53836],[13.00011,77.53824],[13.00004,77.53856],[12.99992,77.53969],[12.99983,77.54011],[12.99971,77.54038],[12.99953,77.54073],[12.99934,77.54116],[12.99933,77.54128],[12.99923,77.54147],[12.99863,77.54241],[12.9984,77.54283],[12.99798,77.54386],[12.99752,77.5451],[12.99748,77.54549],[12.99746,77.54662],[12.99752,77.54771],[12.99756,77.54894],[12.99763,77.55012],[12.99858,77.54992],[12.99898,77.54984],[12.99954,77.54971],[12.99963,77.54979],[13.00152,77.54944],[13.00178,77.54941],[13.00188,77.54943],[13.00197,77.54942],[13.0022,77.54937],[13.00381,77.54911],[13.0039,77.5491],[13.00512,77.54888],[13.00595,77.54875],[13.00616,77.54869],[13.00644,77.54864],[13.00671,77.54862],[13.0074,77.54863],[13.00796,77.54869],[13.00889,77.54885],[13.00952,77.54908],[13.00973,77.54918],[13.00991,77.54929],[13.01066,77.54992],[13.01102,77.55024],[13.01125,77.55049],[13.01139,77.55069],[13.01149,77.5509],[13.01233,77.55253],[13.01253,77.55296],[13.01268,77.55321],[13.012849,77.553444],[13.01294,77.55354],[13.01303,77.5537],[13.01324,77.55377],[13.01329,77.55381],[13.01357,77.55393],[13.01379,77.55396],[13.01404,77.55397],[13.01472,77.55394],[13.01546,77.55399],[13.01566,77.55402],[13.01617,77.55402],[13.01658,77.55397],[13.01683,77.55392],[13.01768,77.55374],[13.01774,77.55372],[13.01779,77.55369],[13.01783,77.55364],[13.01786,77.55357],[13.01685,77.5538],[13.01662,77.55383],[13.0162,77.55385],[13.01607,77.55387],[13.01596,77.55391],[13.01587,77.55396],[13.0158,77.55402],[13.01562,77.55424],[13.01556,77.55434],[13.01552,77.55445],[13.01549,77.55469],[13.0155,77.55485],[13.01554,77.55511],[13.01562,77.55535],[13.0157,77.55551],[13.01583,77.55573],[13.01599,77.55595],[13.01626,77.5562],[13.01667,77.55643],[13.01674,77.55643],[13.0168,77.55645],[13.01707,77.55658],[13.01748,77.55682],[13.01765,77.55658],[13.01771,77.55657]],"stops":[{"id":"34811","name":"JC Nagara Kurubarahalli","lat":13.00592,"lon":77.53494,"sequence":1},{"id":"21165","name":"Shankar Mutt","lat":12.99915,"lon":77.54161,"sequence":2},{"id":"21028","name":"Modi Hospital","lat":12.99749,"lon":77.54586,"sequence":3},{"id":"21050","name":"Rajajinagara Metro Station","lat":12.99967,"lon":77.54976,"sequence":4},{"id":"20576","name":"Rajajinagara 1st Block","lat":13.00515,"lon":77.54887,"sequence":5},{"id":"20980","name":"Mahalakshmi Layout Entrance","lat":13.00782,"lon":77.54867,"sequence":6},{"id":"20860","name":"Iskcon Temple","lat":13.0116,"lon":77.55103,"sequence":7},{"id":"20797","name":"Govt Soap Factory","lat":13.01352,"lon":77.55385,"sequence":8},{"id":"20793","name":"Govardhan Talkies","lat":13.01781,"lon":77.55374,"sequence":9},{"id":"24016","name":"Yeshawanthapura Bus Station","lat":13.01771,"lon":77.55657,"sequence":10}]}]}