{"short_name":"96-B YTTMC-BEMLKN","long_name":"BEML Layout Kamalanagara ⇔ Yeshawanthapura Bus Station","directions":[{"direction":"UP","headsign":"BEML Layout Kamalanagara","path":[[13.01801,77.55662],[13.01801,77.5571],[13.01736,77.55703],[13.01692,77.5568],[13.0168,77.55666],[13.01621,77.55632],[13.016,77.55613],[13.0158,77.55589],[13.0156,77.55558],[13.01551,77.55539],[13.01543,77.55514],[13.01539,77.55483],[13.01533,77.55469],[13.01527,77.55438],[13.01524,77.5543],[13.01514,77.55421],[13.01479,77.55416],[13.01474,77.55412],[13.0137,77.55415],[13.01357,77.55418],[13.01328,77.55427],[13.01322,77.55432],[13.013087,77.55437],[13.01271,77.5544],[13.01257,77.55437],[13.01252,77.55433],[13.01249,77.55419],[13.01252,77.55407],[13.0126,77.55392],[13.01275,77.55377],[13.01265,77.5536],[13.01263,77.55351],[13.01259,77.55343],[13.01204,77.55235],[13.011743,77.551735],[13.01117,77.55064],[13.01106,77.55049],[13.01054,77.54998],[13.01,77.54953],[13.00986,77.54942],[13.00966,77.54929],[13.00925,77.5491],[13.00881,77.549],[13.00768,77.54882],[13.00707,77.54876],[13.00686,77.54876],[13.00652,77.54878],[13.0056,77.54893],[13.00511,77.54905],[13.00296,77.54942],[13.00229,77.54952],[13.00175,77.54957],[12.99993,77.54985],[12.99979,77.54988],[12.99964,77.55002],[12.9979,77.55036],[12.99768,77.55042],[12.9976,77.55044],[12.99756,77.55015],[12.99755,77.54929],[12.99752,77.54843],[12.99743,77.54703],[12.99742,77.54663],[12.99745,77.54555],[12.99749,77.5451],[12.99773,77.54436],[12.99835,77.54282],[12.99858,77.54239],[12.99882,77.54199],[12.99914,77.54142],[12.9993,77.54116],[12.99937,77.5411],[12.99917,77.54106],[12.99883,77.54097],[12.99763,77.54059],[12.99697,77.54038],[12.99689,77.54039],[12.99566,77.53998],[12.99463,77.53959],[12.99435,77.53949],[12.99331,77.5391],[12.99099,77.53827],[12.99055,77.53814],[12.98968,77.53795],[12.98977,77.53735],[12.9902,77.53739],[12.9903,77.53701],[12.9906,77.53704],[12.99094,77.53711],[12.991,77.53661],[12.99123,77.53523],[12.99135,77.53423],[12.9922,77.53444],[12.99245,77.533],[12.99275,77.53025],[12.992813,77.52994]],"stops":[{"id":"21288","name":"Yeshawanthapura Bus Station","lat":13.01801,"lon":77.55662,"sequence":1},{"id":"20796","name":"Govt Soap Factory","lat":13.01309,"lon":77.55438,"sequence":2},{"id":"20859","name":"Iskcon Temple","lat":13.01174,"lon":77.55174,"sequence":3},{"id":"20979","name":"Mahalakshmi Layout Entrance","lat":13.00736,"lon":77.54879,"sequence":4},{"id":"20575","name":"Rajajinagara 1st Block","lat":13.0047,"lon":77.54909,"sequence":5},{"id":"21049","name":"Navarang Theatre","lat":12.99748,"lon":77.54884,"sequence":6},{"id":"21027","name":"Modi Hospital","lat":12.9974,"lon":77.54573,"sequence":7},{"id":"21164","name":"Shankar Mutt","lat":12.99897,"lon":77.5417,"sequence":8},{"id":"21273","name":"Kamalanagara Water Tank","lat":12.99557,"lon":77.53992,"sequence":9},{"id":"20591","name":"Kamalanagara 8th Main","lat":12.99178,"lon":77.53856,"sequence":10},{"id":"24060","name":"Sharada Colony","lat":12.99239,"lon":77.53358,"sequence":11},{"id":"35141","name":"Kamalanagara","lat":12.99268,"lon":77.53082,"sequence":12},{"id":"24062","name":"BEML Layout Kamalanagara","lat":12.99284,"lon":77.52994,"sequence":13}]},{"direction":"DOWN","headsign":"Yeshawanthapura Bus Station","path":[[12.992813,77.52994],[12.99275,77.53025],[12.99245,77.533],[12.9922,77.53444],[12.9921,77.53515],[12.99166,77.53498],[12.99128,77.53481],[12.99123,77.53523],[12.991,77.53661],[12.99094,77.53711],[12.9906,77.53704],[12.9903,77.53701],[12.9902,77.53739],[12.98977,77.53735],[12.98969,77.53787],[12.99056,77.53807],[12.99101,77.5382],[12.99288,77.53884],[12.99438,77.5394],[12.99466,77.53951],[12.995449,77.539795],[12.99568,77.53989],[12.99658,77.54019],[12.99688,77.54031],[12.99697,77.54038],[12.99763,77.54059],[12.99883,77.54097],[12.99917,77.54106],[12.99937,77.5411],[12.99936,77.54118],[12.99933,77.54128],[12.99903,77.54181],[12.99867,77.54242],[12.99828,77.54321],[12.99779,77.54443],[12.99764,77.54485],[12.99757,77.5451],[12.99753,77.54548],[12.997508,77.54586],[12.99749,77.54662],[12.9975,77.54702],[12.99759,77.54843],[12.99765,77.55013],[12.998762,77.54989],[12.99941,77.54973],[12.99963,77.54979],[13.00073,77.54959],[13.00382,77.54913],[13.00391,77.54911],[13.00471,77.54897],[13.00645,77.54863],[13.00688,77.5486],[13.00769,77.54866],[13.00861,77.5488],[13.00881,77.54884],[13.00913,77.54894],[13.00953,77.54909],[13.0097,77.54917],[13.01003,77.54941],[13.01046,77.54974],[13.01089,77.55015],[13.01118,77.5504],[13.01131,77.55059],[13.011541,77.55106],[13.01196,77.55186],[13.01251,77.55298],[13.01272,77.55336],[13.01293,77.55363],[13.01303,77.5537],[13.01318,77.55375],[13.01325,77.55379],[13.01331,77.55385],[13.013506,77.5539],[13.01381,77.55395],[13.01551,77.55401],[13.01568,77.55402],[13.01605,77.55402],[13.01642,77.55399],[13.01754,77.55378],[13.01774,77.55372],[13.01783,77.55364],[13.01786,77.55357],[13.01685,77.5538],[13.01661,77.55383],[13.01621,77.55385],[13.01607,77.55387],[13.01596,77.55391],[13.01587,77.55396],[13.0158,77.55402],[13.01562,77.55424],[13.01556,77.55434],[13.01552,77.55445],[13.01549,77.55467],[13.0155,77.55485],[13.01554,77.55511],[13.01562,77.55535],[13.0157,77.55551],[13.01589,77.55584],[13.01613,77.55609],[13.01625,77.55619],[13.01656,77.55637],[13.01667,77.55643],[13.01674,77.55643],[13.0168,77.55645],[13.01707,77.55658],[13.01748,77.55682],[13.01765,77.55658],[13.01771,77.55657]],"stops":[{"id":"24062","name":"BEML Layout Kamalanagara","lat":12.99284,"lon":77.52994,"sequence":1},{"id":"35264","name":"Kamalanagara","lat":12.99272,"lon":77.53063,"sequence":2},{"id":"24065","name":"Sharada Colony","lat":12.9922,"lon":77.53454,"sequence":3},{"id":"20592","name":"Kamalanagara 8th Main","lat":12.99163,"lon":77.53839,"sequence":4},{"id":"21274","name":"Water Tank Kamalanagara","lat":12.99546,"lon":77.53977,"sequence":5},{"id":"21165","name":"Shankar Mutt","lat":12.99915,"lon":77.54161,"sequence":6},{"id":"21028","name":"Modi Hospital","lat":12.99749,"lon":77.54586,"sequence":7},{"id":"21050","name":"Rajajinagara Metro Station","lat":12.99967,"lon":77.54976,"sequence":8},{"id":"20576","name":"Rajajinagara 1st Block","lat":13.00515,"lon":77.54887,"sequence":9},{"id":"20980","name":"Mahalakshmi Layout Entrance","lat":13.00782,"lon":77.54867,"sequence":10},{"id":"20860","name":"Iskcon Temple","lat":13.0116,"lon":77.55103,"sequence":11},{"id":"20797","name":"Govt Soap Factory","lat":13.01352,"lon":77.55385,"sequence":12},{"id":"24016","name":"Yeshawanthapura Bus Station","lat":13.01771,"lon":77.55657,"sequence":13}]}]}