{"short_name":"ALS-PTH","long_name":"Puttenahalli ⇔ Allalasandra","directions":[{"direction":"UP","headsign":"Puttenahalli","path":[[13.08813,77.58864],[13.0883,77.58865],[13.08862,77.58879],[13.08948,77.58925],[13.09093,77.58989],[13.09102,77.58994],[13.09165,77.59051],[13.09225,77.59101],[13.09264,77.5913],[13.09276,77.59128],[13.09288,77.59123],[13.09303,77.59113],[13.09304,77.59095],[13.09257,77.59017],[13.09275,77.59008],[13.09285,77.59],[13.09348,77.58971],[13.09433,77.58937],[13.09512,77.58907],[13.09691,77.58832],[13.099,77.58748],[13.09909,77.58748],[13.09928,77.58793],[13.099427,77.58817],[13.09973,77.58857],[13.10004,77.58891],[13.10013,77.589],[13.09888,77.59047],[13.09785,77.59164],[13.0973,77.59228],[13.0972,77.59218],[13.09774,77.5916],[13.09883,77.59035],[13.10004,77.58891],[13.10129,77.58736],[13.102,77.5865],[13.10288,77.58537],[13.10326,77.58491],[13.10425,77.58382],[13.10469,77.58337],[13.10533,77.58277],[13.10621,77.58197],[13.10662,77.58163],[13.10729,77.58113],[13.10752,77.58101],[13.10784,77.58087],[13.1089,77.58055],[13.109948,77.58022]],"stops":[{"id":"35515","name":"Allalasandra","lat":13.08809,"lon":77.58863,"sequence":1},{"id":"30346","name":"Cambridge Public School Yelahanka","lat":13.09431,"lon":77.58933,"sequence":2},{"id":"22482","name":"Sheshadripuram College","lat":13.09943,"lon":77.58817,"sequence":3},{"id":"22357","name":"NES Office","lat":13.09784,"lon":77.59167,"sequence":4},{"id":"32598","name":"Escorts","lat":13.10271,"lon":77.58558,"sequence":5},{"id":"31633","name":"Wheel And Axle Plant","lat":13.10572,"lon":77.58241,"sequence":6},{"id":"34299","name":"Puttenahalli","lat":13.10995,"lon":77.58022,"sequence":7}]}]}