{"short_name":"ATR-PTH","long_name":"Puttenahalli ⇔ Atturu","directions":[{"direction":"UP","headsign":"Puttenahalli","path":[[13.1065,77.56578],[13.10624,77.56589],[13.10588,77.56607],[13.10519,77.56636],[13.10434,77.56663],[13.10393,77.56673],[13.10365,77.5668],[13.10336,77.56685],[13.10247,77.56695],[13.1014,77.56687],[13.10072,77.56686],[13.1001,77.56691],[13.09926,77.56695],[13.09844,77.567],[13.09805,77.56706],[13.09786,77.56708],[13.09805,77.56868],[13.0981,77.56928],[13.09812,77.57003],[13.09815,77.57047],[13.09832,77.57156],[13.09845,77.57227],[13.09895,77.57481],[13.09904,77.57494],[13.09909,77.57509],[13.09924,77.57592],[13.09936,77.57646],[13.09959,77.57723],[13.09969,77.5775],[13.09994,77.57843],[13.09999,77.5787],[13.09997,77.57891],[13.10055,77.58091],[13.1009,77.58216],[13.10125,77.58334],[13.10171,77.58502],[13.10206,77.58615],[13.10215,77.58632],[13.10288,77.58537],[13.10326,77.58491],[13.10425,77.58382],[13.10469,77.58337],[13.10533,77.58277],[13.10621,77.58197],[13.10662,77.58163],[13.10729,77.58113],[13.10766,77.58094],[13.10784,77.58087],[13.1089,77.58055],[13.10995,77.580215]],"stops":[{"id":"23211","name":"Atturu","lat":13.10653,"lon":77.56578,"sequence":1},{"id":"35662","name":"Atturu Layout Vegetable Market","lat":13.10081,"lon":77.56689,"sequence":2},{"id":"21676","name":"Atturu Layout","lat":13.09792,"lon":77.56753,"sequence":3},{"id":"22301","name":"Mother Dairy Cross Yelahanka","lat":13.09954,"lon":77.57707,"sequence":4},{"id":"32598","name":"Escorts","lat":13.10271,"lon":77.58558,"sequence":5},{"id":"31633","name":"Wheel And Axle Plant","lat":13.10572,"lon":77.58241,"sequence":6},{"id":"34299","name":"Puttenahalli","lat":13.10995,"lon":77.58022,"sequence":7}]},{"direction":"DOWN","headsign":"Atturu","path":[[13.110156,77.58023],[13.10801,77.58092],[13.10755,77.5811],[13.1074,77.58118],[13.10714,77.58136],[13.10626,77.58206],[13.10508,77.58312],[13.10432,77.58388],[13.10359,77.58467],[13.102783,77.58564],[13.10216,77.58648],[13.10209,77.58639],[13.10203,77.58627],[13.10192,77.58595],[13.10175,77.58537],[13.10114,77.58316],[13.10048,77.58092],[13.09992,77.57892],[13.09986,77.57884],[13.09981,77.5787],[13.09948,77.57757],[13.09933,77.57719],[13.09921,77.57677],[13.09907,77.57643],[13.09903,77.57631],[13.09895,77.57591],[13.09889,77.57539],[13.09887,77.575],[13.0989,77.57482],[13.09875,77.57402],[13.09839,77.57226],[13.09812,77.5706],[13.09807,77.57009],[13.09805,77.56929],[13.09798,77.56836],[13.09776,77.56709],[13.09805,77.56706],[13.09844,77.567],[13.09926,77.56695],[13.1001,77.56691],[13.10072,77.56686],[13.1014,77.56687],[13.10247,77.56695],[13.10336,77.56685],[13.10365,77.5668],[13.10393,77.56673],[13.10434,77.56663],[13.10519,77.56636],[13.10588,77.56607],[13.10624,77.56589],[13.1065,77.56578]],"stops":[{"id":"34300","name":"Puttenahalli","lat":13.11016,"lon":77.58024,"sequence":1},{"id":"34849","name":"Wheel And Axle Plant","lat":13.10603,"lon":77.58227,"sequence":2},{"id":"25225","name":"Escorts","lat":13.10281,"lon":77.58566,"sequence":3},{"id":"22299","name":"Mother Dairy Cross Yelahanka","lat":13.09934,"lon":77.57717,"sequence":4},{"id":"21675","name":"Atturu Layout","lat":13.09774,"lon":77.56766,"sequence":5},{"id":"29590","name":"Atturu Layout Vegetable Market","lat":13.10078,"lon":77.56685,"sequence":6},{"id":"23214","name":"Atturu","lat":13.10649,"lon":77.56577,"sequence":7}]}]}