{"short_name":"BC-3A D38G-JAPC","long_name":"Jigani APC Circle ⇔ Depot-38 Gate","directions":[{"direction":"UP","headsign":"Jigani APC Circle","path":[[12.84903,77.6925],[12.84804,77.69176],[12.84792,77.6917],[12.84772,77.69157],[12.84765,77.6915],[12.84752,77.69126],[12.84743,77.691],[12.84734,77.69079],[12.84721,77.69063],[12.8469,77.69041],[12.84558,77.68941],[12.84491,77.68892],[12.84379,77.68807],[12.8427,77.68727],[12.84247,77.68713],[12.8419,77.68671],[12.84174,77.6866],[12.83948,77.68494],[12.83885,77.68452],[12.83863,77.68436],[12.83776,77.68358],[12.83765,77.68352],[12.83695,77.68327],[12.83684,77.68319],[12.83678,77.68311],[12.83674,77.68302],[12.83671,77.68291],[12.8367,77.6828],[12.83674,77.68231],[12.83693,77.68087],[12.83691,77.68065],[12.83688,77.68055],[12.83682,77.68044],[12.83625,77.67961],[12.83614,77.67942],[12.83609,77.67928],[12.8332,77.68037],[12.8284,77.68184],[12.82768,77.68212],[12.82666,77.6826],[12.8267,77.68269],[12.82658,77.68275],[12.82633,77.6829],[12.82543,77.68346],[12.82482,77.68389],[12.82458,77.68408],[12.82341,77.68514],[12.82294,77.6856],[12.82267,77.68584],[12.82211,77.68639],[12.82065,77.68775],[12.81961,77.68877],[12.81927,77.68908],[12.819,77.6893],[12.81894,77.68914],[12.81886,77.68901],[12.81872,77.68884],[12.81722,77.68717],[12.81702,77.68697],[12.81666,77.68657],[12.81588,77.68573],[12.81438,77.68404],[12.81181,77.68121],[12.81534,77.67787],[12.81659,77.67668],[12.81697,77.67629],[12.81691,77.67592],[12.8168,77.67554],[12.81668,77.67524],[12.81659,77.67507],[12.8162,77.67418],[12.81607,77.67385],[12.81597,77.67355],[12.81563,77.6724],[12.81549,77.67185],[12.81538,77.6715],[12.81526,77.6712],[12.81518,77.67106],[12.81477,77.67004],[12.81428,77.66911],[12.81377,77.66829],[12.81366,77.66815],[12.81323,77.66755],[12.81268,77.6669],[12.81232,77.66654],[12.81181,77.66608],[12.81094,77.66537],[12.81019,77.66489],[12.80924,77.66433],[12.80902,77.66422],[12.80863,77.66406],[12.808072,77.66388],[12.80759,77.66375],[12.80624,77.66335],[12.80377,77.66261],[12.80295,77.66234],[12.80227,77.66217],[12.80023,77.66158],[12.79748,77.66072],[12.79689,77.66051],[12.79646,77.66035],[12.79507,77.65976],[12.79425,77.65936],[12.79284,77.65858],[12.79206,77.6581],[12.79163,77.65781],[12.79145,77.65769],[12.79121,77.65751],[12.79062,77.65709],[12.78971,77.65637],[12.78834,77.65514],[12.78789,77.65471],[12.78741,77.65412],[12.78641,77.65278],[12.78616,77.6524],[12.78554,77.6515],[12.7843,77.64948],[12.783,77.64733],[12.78261,77.64677],[12.78238,77.64656],[12.78198,77.64628],[12.78164,77.64609],[12.7798,77.64518],[12.77959,77.64504],[12.77946,77.64489],[12.77933,77.64467],[12.77928,77.64453],[12.7791,77.64369],[12.779307,77.643585]],"stops":[{"id":"36785","name":"Depot-38 Gate","lat":12.84902,"lon":77.69251,"sequence":1},{"id":"35058","name":"Singena Agrahara Cross Fruits Market","lat":12.84235,"lon":77.68709,"sequence":2},{"id":"22063","name":"Huskur Gate","lat":12.8361,"lon":77.67942,"sequence":3},{"id":"39202","name":"SFS High School Hebbagodi","lat":12.83378,"lon":77.68021,"sequence":4},{"id":"22017","name":"Hebbagodi","lat":12.82752,"lon":77.68224,"sequence":5},{"id":"23891","name":"Bommasandra","lat":12.81857,"lon":77.68864,"sequence":6},{"id":"31251","name":"Kottanayakana halli","lat":12.81302,"lon":77.68262,"sequence":7},{"id":"23876","name":"Industrial Area Water Tank Bommasandra","lat":12.81695,"lon":77.67627,"sequence":8},{"id":"23166","name":"Aravinda Limited","lat":12.81475,"lon":77.67016,"sequence":9},{"id":"23877","name":"Rupesh Hotel","lat":12.81165,"lon":77.66601,"sequence":10},{"id":"23878","name":"Biocon Jigani Road","lat":12.80807,"lon":77.66389,"sequence":11},{"id":"35075","name":"Yarandahalli","lat":12.80472,"lon":77.66291,"sequence":12},{"id":"34697","name":"Sriramapura Bommasandra Road","lat":12.80231,"lon":77.66218,"sequence":13},{"id":"27542","name":"OMEX Circle","lat":12.79879,"lon":77.66117,"sequence":14},{"id":"33859","name":"Maruthi Nagara","lat":12.7914,"lon":77.65766,"sequence":15},{"id":"34121","name":"Navya Badavane","lat":12.78723,"lon":77.65396,"sequence":16},{"id":"22785","name":"Jigani APC Circle","lat":12.7793,"lon":77.64357,"sequence":17}]},{"direction":"DOWN","headsign":"Depot-38 Gate","path":[[12.779307,77.643585],[12.7792,77.64364],[12.77926,77.64404],[12.77933,77.6444],[12.7794,77.64463],[12.77946,77.64473],[12.77961,77.64492],[12.77986,77.6451],[12.78,77.64518],[12.78056,77.64545],[12.78084,77.64557],[12.78167,77.64601],[12.78205,77.64619],[12.78231,77.64636],[12.78263,77.64664],[12.78277,77.64681],[12.78347,77.64793],[12.78562,77.65144],[12.78622,77.65234],[12.7868,77.65318],[12.78749,77.65407],[12.78795,77.65461],[12.7889,77.65552],[12.78977,77.65628],[12.79012,77.65657],[12.79023,77.65665],[12.79067,77.657],[12.79167,77.6577],[12.79265,77.65833],[12.7943,77.65924],[12.79512,77.65966],[12.79651,77.66025],[12.79691,77.6604],[12.79795,77.66075],[12.79889,77.66103],[12.799178,77.66114],[12.79968,77.66131],[12.8023,77.66205],[12.80297,77.66222],[12.80354,77.6624],[12.80382,77.6625],[12.80592,77.66313],[12.80745,77.66362],[12.80785,77.66374],[12.80835,77.66384],[12.80866,77.66394],[12.80891,77.66404],[12.80931,77.66424],[12.81043,77.66491],[12.8108,77.66515],[12.8119,77.666],[12.8124,77.66646],[12.81278,77.66686],[12.81331,77.66748],[12.81377,77.66809],[12.81401,77.66846],[12.81435,77.66905],[12.81462,77.66953],[12.814857,77.67001],[12.81524,77.67101],[12.81526,77.6711],[12.81526,77.6712],[12.81538,77.6715],[12.81549,77.67185],[12.81563,77.6724],[12.81597,77.67355],[12.81607,77.67385],[12.8162,77.67418],[12.81659,77.67507],[12.81668,77.67524],[12.8168,77.67554],[12.81691,77.67592],[12.81697,77.67604],[12.81702,77.67625],[12.81708,77.67658],[12.81707,77.6767],[12.81806,77.68131],[12.81832,77.68277],[12.81845,77.68319],[12.81876,77.68379],[12.81907,77.6843],[12.82042,77.68616],[12.82095,77.68685],[12.82113,77.68667],[12.82309,77.68478],[12.82382,77.68414],[12.82421,77.68381],[12.82509,77.68313],[12.82532,77.68297],[12.82577,77.68272],[12.82611,77.68254],[12.82615,77.6827],[12.82654,77.68248],[12.827,77.68225],[12.82762,77.68197],[12.82849,77.68165],[12.82998,77.68117],[12.83271,77.68036],[12.83318,77.6802],[12.83605,77.67914],[12.83755,77.67855],[12.83802,77.67829],[12.83945,77.67726],[12.83988,77.67693],[12.83997,77.67707],[12.83857,77.67811],[12.83791,77.67853],[12.83765,77.67867],[12.83714,77.67889],[12.83609,77.67928],[12.83614,77.67942],[12.83625,77.67961],[12.83682,77.68044],[12.83688,77.68055],[12.83691,77.68065],[12.83693,77.68087],[12.83671,77.68257],[12.8367,77.6828],[12.83671,77.68291],[12.83678,77.68311],[12.83684,77.68319],[12.83695,77.68327],[12.83765,77.68352],[12.83776,77.68358],[12.83863,77.68436],[12.83885,77.68452],[12.83948,77.68494],[12.84174,77.6866],[12.8419,77.68671],[12.84247,77.68713],[12.8427,77.68727],[12.84379,77.68807],[12.84491,77.68892],[12.84558,77.68941],[12.8469,77.69041],[12.84721,77.69063],[12.84734,77.69079],[12.84743,77.691],[12.84752,77.69126],[12.84765,77.6915],[12.84772,77.69157],[12.84792,77.6917],[12.84804,77.69176],[12.849005,77.692474]],"stops":[{"id":"22785","name":"Jigani APC Circle","lat":12.7793,"lon":77.64357,"sequence":1},{"id":"29359","name":"Navya Badavane","lat":12.78732,"lon":77.65385,"sequence":2},{"id":"33858","name":"Maruthi Nagara","lat":12.79194,"lon":77.65788,"sequence":3},{"id":"35235","name":"OMEX Circle Sriramapura","lat":12.7992,"lon":77.66107,"sequence":4},{"id":"26673","name":"Sriramapura Bommasandra Road","lat":12.80229,"lon":77.66208,"sequence":5},{"id":"35236","name":"Yarandahalli","lat":12.80444,"lon":77.66268,"sequence":6},{"id":"23887","name":"Biocon Jigani Road","lat":12.80822,"lon":77.66384,"sequence":7},{"id":"23888","name":"Rupesh Hotel","lat":12.81176,"lon":77.66589,"sequence":8},{"id":"23889","name":"Aravinda Limited","lat":12.81485,"lon":77.67002,"sequence":9},{"id":"23890","name":"Industrial Area Water Tank Bommasandra","lat":12.817,"lon":77.67616,"sequence":10},{"id":"23875","name":"Bommasandra","lat":12.82097,"lon":77.68687,"sequence":11},{"id":"38658","name":"Hebbagodi","lat":12.82583,"lon":77.68271,"sequence":12},{"id":"39203","name":"SFS High School Hebbagodi","lat":12.83359,"lon":77.68,"sequence":13},{"id":"23499","name":"Huskur Gate","lat":12.83633,"lon":77.67952,"sequence":14},{"id":"26491","name":"Singena Agrahara Cross Fruits Market","lat":12.84257,"lon":77.68718,"sequence":15},{"id":"24866","name":"Depot-38 Gate","lat":12.84901,"lon":77.69247,"sequence":16}]}]}