{"short_name":"BC-7B BDYH-PSS","long_name":"Peenya 2nd Stage ⇔ Byadarahalli","directions":[{"direction":"UP","headsign":"Peenya 2nd Stage","path":[[12.98516,77.482185],[12.98511,77.48254],[12.98504,77.48341],[12.98503,77.48383],[12.98506,77.48408],[12.98512,77.48434],[12.98535,77.48509],[12.98577,77.485],[12.98589,77.4855],[12.98615,77.48548],[12.98612,77.48494],[12.98535,77.48509],[12.986,77.48747],[12.98655,77.48969],[12.98688,77.49078],[12.98692,77.49089],[12.98746,77.49263],[12.9878,77.49387],[12.98825,77.49386],[12.9897,77.49399],[12.98975,77.49363],[12.99071,77.49371],[12.99068,77.49413],[12.992,77.49433],[12.99217,77.49435],[12.9924,77.49438],[12.99266,77.49443],[12.9932,77.49455],[12.99351,77.49459],[12.99362,77.49462],[12.99394,77.49475],[12.99449,77.49502],[12.99554,77.49564],[12.99665,77.49638],[12.99737,77.49682],[12.99742,77.49689],[12.9974,77.49698],[12.99718,77.49752],[12.99701,77.49805],[12.99682,77.49855],[12.99656,77.49914],[12.99641,77.49942],[12.99628,77.49971],[12.99596,77.50053],[12.99592,77.50073],[12.99592,77.5009],[12.99581,77.50161],[12.99574,77.50217],[12.99572,77.50248],[12.99577,77.50249],[12.9965,77.50263],[12.99684,77.50271],[12.99764,77.50298],[12.99819,77.50313],[12.99847,77.5032],[12.99964,77.50353],[12.99969,77.50356],[12.99976,77.50363],[12.99977,77.50376],[12.99974,77.50407],[12.99977,77.50418],[12.99986,77.50425],[13.00043,77.5044],[13.00109,77.50455],[13.00154,77.5046],[13.00167,77.5046],[13.00181,77.50457],[13.0019,77.50452],[13.00207,77.50445],[13.00238,77.50438],[13.00269,77.50433],[13.00296,77.50434],[13.00322,77.50437],[13.00368,77.50459],[13.00375,77.50459],[13.00385,77.50463],[13.00446,77.50491],[13.00469,77.50499],[13.00554,77.50511],[13.00621,77.50522],[13.00644,77.50526],[13.00717,77.50541],[13.00766,77.50551],[13.00845,77.50569],[13.00936,77.50589],[13.00958,77.50596],[13.00963,77.50601],[13.00983,77.50613],[13.01033,77.5065],[13.010897,77.50687]],"stops":[{"id":"21474","name":"Byadarahalli","lat":12.98517,"lon":77.48219,"sequence":1},{"id":"31500","name":"Thunganagara Cross","lat":12.98551,"lon":77.48501,"sequence":2},{"id":"21455","name":"Anjananagara","lat":12.98617,"lon":77.48817,"sequence":3},{"id":"21523","name":"Herohalli Cross1","lat":12.98736,"lon":77.4924,"sequence":4},{"id":"32914","name":"Herohalli Cross","lat":12.98796,"lon":77.49385,"sequence":5},{"id":"33862","name":"Maruthi Nagara","lat":12.98975,"lon":77.49394,"sequence":6},{"id":"33739","name":"Mahadeshwara Nagara","lat":12.99201,"lon":77.49425,"sequence":7},{"id":"38617","name":"Nagaraholenagara Cross","lat":12.99736,"lon":77.49682,"sequence":8},{"id":"21055","name":"Neelagiri Thopu","lat":12.99577,"lon":77.50249,"sequence":9},{"id":"20827","name":"Hegganahalli Cross","lat":12.99977,"lon":77.50395,"sequence":10},{"id":"20824","name":"Hegganahalli","lat":13.00367,"lon":77.50454,"sequence":11},{"id":"21024","name":"Milk Dairy Hegganahalli","lat":13.0074,"lon":77.50543,"sequence":12},{"id":"21080","name":"Peenya 2nd Stage","lat":13.01092,"lon":77.50683,"sequence":13}]}]}