{"short_name":"BC-7E","long_name":"Gangondanahalli ⇔ 8th Mile Dasarahalli","directions":[{"direction":"UP","headsign":"Gangondanahalli","path":[[13.045473,77.50551],[13.045,77.50544],[13.04386,77.50522],[13.04351,77.50513],[13.04325,77.50502],[13.04292,77.50495],[13.04232,77.50496],[13.0418,77.5049],[13.04125,77.50489],[13.04054,77.50479],[13.03993,77.50468],[13.03916,77.50457],[13.03807,77.50453],[13.0374,77.50444],[13.03598,77.50434],[13.03542,77.50424],[13.03526,77.50425],[13.03518,77.50428],[13.03509,77.50433],[13.0349,77.50439],[13.03471,77.50438],[13.03265,77.50388],[13.03244,77.50382],[13.0322,77.50378],[13.03173,77.50373],[13.03165,77.50371],[13.0316,77.50367],[13.03156,77.50361],[13.03123,77.50293],[13.03073,77.50202],[13.03012,77.50083],[13.03001,77.50058],[13.02894,77.49765],[13.02881,77.49736],[13.02835,77.49651],[13.02827,77.4963],[13.02822,77.49607],[13.02812,77.49527],[13.02806,77.49498],[13.02766,77.49359],[13.0277,77.49352],[13.02775,77.49338],[13.02783,77.49281],[13.02789,77.4919],[13.02822,77.49],[13.02848,77.48861],[13.02922,77.48514],[13.02932,77.48456],[13.02937,77.48417],[13.0294,77.4838],[13.0294,77.48356],[13.02935,77.48316],[13.02936,77.48269],[13.02939,77.48217],[13.02937,77.48183],[13.02932,77.48153],[13.02925,77.48134],[13.0292,77.48128],[13.02912,77.48123],[13.02853,77.481],[13.02835,77.48089],[13.02764,77.48037],[13.0275,77.48028],[13.027,77.48001],[13.02644,77.47979],[13.02615,77.47966],[13.02605,77.4796],[13.02601,77.47951],[13.026,77.47942],[13.02601,77.47886],[13.02589,77.47821],[13.02593,77.47653],[13.02595,77.47622],[13.02602,77.47576],[13.02607,77.47553],[13.0263,77.47477],[13.02635,77.47455],[13.02638,77.47426],[13.02638,77.47404],[13.02633,77.47345],[13.02631,77.47333],[13.02628,77.47324],[13.02625,77.47317],[13.0261,77.47292],[13.02575,77.47245],[13.02509,77.47178],[13.02461,77.47126],[13.0237,77.47018],[13.02335,77.46985],[13.02283,77.46942],[13.02275,77.46934],[13.02262,77.46917],[13.0224,77.46881],[13.02229,77.46869],[13.02207,77.46849],[13.02178,77.46817],[13.02169,77.468],[13.02163,77.46775]],"stops":[{"id":"35571","name":"8th Mile Dasarahalli","lat":13.04555,"lon":77.50555,"sequence":1},{"id":"34439","name":"Rukmini Nagara","lat":13.041,"lon":77.50488,"sequence":2},{"id":"34052","name":"Nagasandra Cross","lat":13.03849,"lon":77.50451,"sequence":3},{"id":"25894","name":"HMT Layout 8th Mile","lat":13.03368,"lon":77.50415,"sequence":4},{"id":"34131","name":"Nelagadarenahalli","lat":13.03155,"lon":77.50364,"sequence":5},{"id":"25559","name":"Gruhalakshmi Layout","lat":13.0299,"lon":77.50036,"sequence":6},{"id":"32632","name":"Ganga International School","lat":13.02824,"lon":77.49634,"sequence":7},{"id":"26129","name":"Indiranagara","lat":13.02768,"lon":77.4938,"sequence":8},{"id":"34595","name":"Siddartha International School","lat":13.02848,"lon":77.48843,"sequence":9},{"id":"34996","name":"Thippennahalli Cross","lat":13.02936,"lon":77.48361,"sequence":10},{"id":"28270","name":"Shanthinagara","lat":13.02626,"lon":77.47343,"sequence":11},{"id":"25326","name":"Gangondanahalli","lat":13.02162,"lon":77.46776,"sequence":12}]},{"direction":"DOWN","headsign":"8th Mile Dasarahalli","path":[[13.02163,77.46775],[13.02169,77.468],[13.02178,77.46817],[13.02207,77.46849],[13.02229,77.46869],[13.0224,77.46881],[13.02262,77.46917],[13.02275,77.46934],[13.02283,77.46942],[13.02335,77.46985],[13.0237,77.47018],[13.02461,77.47126],[13.02509,77.47178],[13.02575,77.47245],[13.0261,77.47292],[13.02625,77.47317],[13.02628,77.47324],[13.02631,77.47333],[13.02633,77.47345],[13.02638,77.47404],[13.02638,77.47426],[13.02635,77.47455],[13.0263,77.47477],[13.02614,77.47528],[13.02602,77.47576],[13.02595,77.47622],[13.02593,77.47653],[13.02589,77.47821],[13.02601,77.47886],[13.026,77.47942],[13.02601,77.47951],[13.02605,77.4796],[13.02615,77.47966],[13.02644,77.47979],[13.027,77.48001],[13.0275,77.48028],[13.02764,77.48037],[13.02835,77.48089],[13.02853,77.481],[13.02912,77.48123],[13.0292,77.48128],[13.02925,77.48134],[13.02932,77.48153],[13.02937,77.48183],[13.02939,77.48217],[13.02936,77.48269],[13.02935,77.48316],[13.0294,77.48356],[13.0294,77.4838],[13.02937,77.48417],[13.02932,77.48456],[13.02922,77.48514],[13.02848,77.48861],[13.02822,77.49],[13.02789,77.4919],[13.02783,77.49281],[13.02775,77.49338],[13.0277,77.49352],[13.02766,77.49359],[13.02806,77.49498],[13.02812,77.49527],[13.02822,77.49607],[13.02827,77.4963],[13.02835,77.49651],[13.02881,77.49736],[13.02894,77.49765],[13.03001,77.50058],[13.03012,77.50083],[13.03073,77.50202],[13.03123,77.50293],[13.03156,77.50361],[13.0316,77.50367],[13.03165,77.50371],[13.03173,77.50373],[13.0322,77.50378],[13.03244,77.50382],[13.03265,77.50388],[13.03471,77.50438],[13.0349,77.50439],[13.03509,77.50433],[13.03518,77.50428],[13.03526,77.50425],[13.03542,77.50424],[13.03598,77.50434],[13.0374,77.50444],[13.03807,77.50453],[13.03916,77.50457],[13.03993,77.50468],[13.04054,77.50479],[13.04125,77.50489],[13.0418,77.5049],[13.04232,77.50496],[13.04292,77.50495],[13.04325,77.50502],[13.04351,77.50513],[13.04386,77.50522],[13.045,77.50544],[13.045435,77.5055]],"stops":[{"id":"32643","name":"Gangondanahalli","lat":13.02164,"lon":77.46773,"sequence":1},{"id":"34524","name":"Shanthinagara","lat":13.02631,"lon":77.47336,"sequence":2},{"id":"31454","name":"Thippennahalli Cross","lat":13.02943,"lon":77.48362,"sequence":3},{"id":"33035","name":"Indiranagara","lat":13.02772,"lon":77.4937,"sequence":4},{"id":"25303","name":"Ganga International School","lat":13.02828,"lon":77.49633,"sequence":5},{"id":"32763","name":"Gruhalakshmi Layout","lat":13.02992,"lon":77.50026,"sequence":6},{"id":"34132","name":"Nelagadarenahalli","lat":13.03157,"lon":77.50358,"sequence":7},{"id":"36387","name":"HMT Layout 8th Mile","lat":13.03367,"lon":77.50411,"sequence":8},{"id":"28076","name":"Rukmini Nagara","lat":13.04099,"lon":77.50482,"sequence":9},{"id":"35572","name":"8th Mile Dasarahalli","lat":13.04543,"lon":77.50547,"sequence":10}]}]}