{"short_name":"BCGHS-GBC","long_name":"Shivajinagara Bus Station ⇔ Bishop Coton Girls High School","directions":[{"direction":"UP","headsign":"Shivajinagara Bus Station","path":[[12.968735,77.60151],[12.97019,77.60348],[12.97057,77.6041],[12.97074,77.60445],[12.97085,77.60485],[12.9709,77.60477],[12.97094,77.60478],[12.97128,77.60465],[12.97178,77.60443],[12.97215,77.60428],[12.97222,77.60424],[12.97232,77.60413],[12.97271,77.60353],[12.97284,77.60326],[12.97289,77.60292],[12.97295,77.60205],[12.97297,77.60155],[12.97304,77.60148],[12.97313,77.60142],[12.97333,77.60137],[12.97447,77.60154],[12.97488,77.60158],[12.97509,77.60161],[12.97547,77.60164],[12.9765,77.60182],[12.97664,77.6018],[12.97681,77.60183],[12.97794,77.60209],[12.97918,77.6024],[12.97931,77.60247],[12.98031,77.60282],[12.98169,77.60328],[12.98218,77.60342],[12.98271,77.60326],[12.98278,77.60324],[12.98281,77.60325],[12.98295,77.60297],[12.98328,77.60304]],"stops":[{"id":"36208","name":"Bishop Coton Girls High School","lat":12.96889,"lon":77.6014,"sequence":1},{"id":"21194","name":"St Joseph College","lat":12.97036,"lon":77.60368,"sequence":2},{"id":"23433","name":"St Joseph Boys High School Musuem Road","lat":12.97176,"lon":77.60441,"sequence":3},{"id":"21608","name":"State Bank India Garage","lat":12.97465,"lon":77.60154,"sequence":4},{"id":"21572","name":"MG Road","lat":12.97779,"lon":77.60204,"sequence":5},{"id":"21173","name":"Shivajinagara Bus Station","lat":12.98328,"lon":77.60304,"sequence":6}]}]}