{"short_name":"BEML5-CKGP","long_name":"Chikkegowdanapalya ⇔ BEML Layout 5th stage","directions":[{"direction":"UP","headsign":"Chikkegowdanapalya","path":[[12.906853,77.52137],[12.90684,77.52108],[12.90661,77.52104],[12.90543,77.52107],[12.90432,77.52104],[12.90406,77.52103],[12.90349,77.52109],[12.90303,77.52121],[12.90283,77.52125],[12.90268,77.52057],[12.90263,77.52025],[12.90264,77.5199],[12.90272,77.51921],[12.90277,77.51889],[12.90303,77.51774],[12.90316,77.51708],[12.90343,77.51586],[12.90375,77.51407],[12.90391,77.51329],[12.90402,77.51261],[12.90405,77.51214],[12.90403,77.51071],[12.90395,77.51076],[12.90323,77.51079],[12.90291,77.510796],[12.90237,77.51083],[12.90193,77.51084],[12.9017,77.51086],[12.90132,77.51091],[12.90104,77.51097],[12.90086,77.51103],[12.90047,77.5112],[12.89983,77.51153],[12.89895,77.51195],[12.89847,77.51213],[12.89775,77.51233],[12.89524,77.51292],[12.89434,77.51313],[12.8941,77.5132],[12.89399,77.51318],[12.89346,77.51347],[12.89333,77.51356],[12.8931,77.51369],[12.89304,77.51377],[12.89253,77.51414],[12.89206,77.51454],[12.89091,77.51522],[12.89064,77.51535],[12.89047,77.51541],[12.88878,77.516],[12.88842,77.51609],[12.88816,77.51613],[12.88644,77.51622],[12.88374,77.51634],[12.88185,77.51641],[12.87796,77.51661],[12.87828,77.51586],[12.878724,77.51472]],"stops":[{"id":"29871","name":"BEML Layout 5th stage","lat":12.90685,"lon":77.52137,"sequence":1},{"id":"21823","name":"Channasandra","lat":12.90281,"lon":77.52127,"sequence":2},{"id":"21825","name":"Channasandra Colony","lat":12.90331,"lon":77.5164,"sequence":3},{"id":"36801","name":"Srinivasapura Cross","lat":12.90401,"lon":77.51075,"sequence":4},{"id":"39106","name":"Milk Booth","lat":12.90291,"lon":77.5108,"sequence":5},{"id":"32620","name":"Ganakal","lat":12.89797,"lon":77.51227,"sequence":6},{"id":"29418","name":"Kariyanapalya Cross (80ft Road Junction)","lat":12.89224,"lon":77.51442,"sequence":7},{"id":"39108","name":"MRB Grand Hotel","lat":12.88851,"lon":77.51609,"sequence":8},{"id":"39111","name":"Chikkegowdanapalya Junction","lat":12.8782,"lon":77.51661,"sequence":9},{"id":"24613","name":"Chikkegowdanapalya","lat":12.8787,"lon":77.51471,"sequence":10}]},{"direction":"DOWN","headsign":"BEML Layout 5th stage","path":[[12.878809,77.51473],[12.87834,77.51588],[12.8781,77.51651],[12.8786,77.51651],[12.87937,77.51648],[12.88185,77.51636],[12.88242,77.51634],[12.88643,77.51614],[12.88816,77.51607],[12.88841,77.51603],[12.88876,77.51593],[12.89047,77.51534],[12.89089,77.51514],[12.89203,77.51444],[12.89286,77.51378],[12.89301,77.5137],[12.8931,77.51369],[12.89333,77.51356],[12.89346,77.51347],[12.89399,77.51318],[12.89407,77.51309],[12.89427,77.51303],[12.89486,77.5129],[12.89586,77.51266],[12.89683,77.51245],[12.89775,77.51223],[12.89845,77.51204],[12.89871,77.51195],[12.89908,77.51178],[12.90064,77.511],[12.90106,77.51086],[12.90173,77.51076],[12.90268,77.51073],[12.90323,77.5107],[12.90395,77.51069],[12.90403,77.51071],[12.90405,77.51188],[12.90404,77.51243],[12.90411,77.51239],[12.90431,77.51238],[12.9048,77.51238],[12.90625,77.51234],[12.90659,77.51228],[12.90682,77.51217],[12.90713,77.51208],[12.90778,77.51199],[12.90808,77.51198],[12.90826,77.51201],[12.90836,77.51205],[12.90855,77.51219],[12.90864,77.5123],[12.909,77.51287],[12.9091,77.513],[12.90927,77.51315],[12.90967,77.51334],[12.91004,77.51345],[12.91021,77.51348],[12.91071,77.51351],[12.91317,77.51359],[12.91349,77.51358],[12.91427,77.51347],[12.91477,77.51342],[12.91557,77.51339],[12.91555,77.51377],[12.91486,77.51915],[12.91485,77.5194],[12.91486,77.52023],[12.9149,77.52065],[12.91304,77.52074],[12.91158,77.52091],[12.91119,77.52094],[12.91076,77.52094],[12.91,77.52102],[12.90887,77.52101],[12.90786,77.52104],[12.90686,77.52101],[12.906889,77.52136]],"stops":[{"id":"32327","name":"Chikkegowdanapalya","lat":12.87882,"lon":77.51474,"sequence":1},{"id":"39110","name":"Chikkegowdanapalya Junction","lat":12.87816,"lon":77.51649,"sequence":2},{"id":"39109","name":"MRB Grand Hotel","lat":12.88835,"lon":77.51601,"sequence":3},{"id":"39072","name":"Kariyanapalya Cross (80ft Road Junction)","lat":12.89216,"lon":77.51434,"sequence":4},{"id":"32617","name":"Ganakal","lat":12.89789,"lon":77.51219,"sequence":5},{"id":"39107","name":"Milk Booth","lat":12.90268,"lon":77.5107,"sequence":6},{"id":"39105","name":"Aditya Bakery","lat":12.90351,"lon":77.51069,"sequence":7},{"id":"36802","name":"Srinivasapura Cross","lat":12.90405,"lon":77.5107,"sequence":8},{"id":"31969","name":"Bengaluru Children Hospital","lat":12.90987,"lon":77.51339,"sequence":9},{"id":"32567","name":"Double Road BEML Layout","lat":12.91492,"lon":77.52067,"sequence":10},{"id":"29871","name":"BEML Layout 5th stage","lat":12.90685,"lon":77.52137,"sequence":11}]}]}