{"short_name":"BSGK-KWS","long_name":"RWB Gate Kengeri (Kengeri Work shop) ⇔ Basava Gangotri Samste","directions":[{"direction":"UP","headsign":"RWB Gate Kengeri (Kengeri Work shop)","path":[[12.88358,77.45041],[12.88415,77.45057],[12.88418,77.4506],[12.88418,77.45065],[12.884,77.45117],[12.88491,77.45147],[12.88497,77.4515],[12.88498,77.45156],[12.88492,77.45179],[12.88524,77.45192],[12.88528,77.45201],[12.88526,77.45207],[12.88537,77.45211],[12.8856,77.45223],[12.88593,77.45238],[12.88554,77.45284],[12.88543,77.45304],[12.88534,77.45328],[12.88524,77.45361],[12.88481,77.4549],[12.8844,77.45608],[12.88414,77.45692],[12.88402,77.45736],[12.88392,77.45761],[12.88345,77.45843],[12.88331,77.45876],[12.88326,77.45892],[12.88339,77.45896],[12.88365,77.45896],[12.88376,77.45899],[12.88379,77.45903],[12.88384,77.4594],[12.88394,77.45936],[12.88637,77.45904],[12.88667,77.45897],[12.88701,77.45882],[12.88731,77.45878],[12.8884,77.45868],[12.8892,77.45857],[12.8897,77.45858],[12.89047,77.45865],[12.89059,77.45866],[12.89065,77.45863],[12.89073,77.45854],[12.89108,77.45792],[12.89119,77.45777],[12.89197,77.45714],[12.89175,77.4568],[12.89094,77.4555],[12.8906,77.45501],[12.88954,77.45365],[12.88921,77.45328],[12.88867,77.45279],[12.88749,77.45182],[12.88739,77.45175],[12.88691,77.45129],[12.88672,77.45114],[12.88601,77.4506],[12.88368,77.44893],[12.88321,77.44861],[12.88204,77.44784],[12.88108,77.44727],[12.88052,77.44697],[12.88019,77.44677],[12.87916,77.44613],[12.87824,77.4455],[12.87849,77.44532],[12.87992,77.44623],[12.88207,77.44754],[12.88376,77.44851],[12.88452,77.44909],[12.88566,77.45],[12.88649,77.45067],[12.887,77.45111],[12.88768,77.45161],[12.88894,77.45265],[12.88941,77.4531],[12.88985,77.45367],[12.8907,77.4547],[12.89098,77.45506],[12.8924,77.45729],[12.892587,77.45754],[12.89286,77.45787],[12.89316,77.45816],[12.89331,77.45829],[12.89534,77.45987],[12.89623,77.46053],[12.89729,77.46146],[12.89756,77.46174],[12.8979,77.4622],[12.89861,77.46329],[12.89993,77.46523],[12.90083,77.46665],[12.90092,77.46687],[12.90094,77.46703],[12.90113,77.4674],[12.90167,77.46825],[12.90212,77.46886],[12.90226,77.46903],[12.90255,77.46931],[12.90294,77.46961],[12.9046,77.47058],[12.90504,77.47096],[12.9058,77.47198],[12.90596,77.47222],[12.90642,77.47282],[12.90673,77.47327],[12.90699,77.47376],[12.90704,77.47393],[12.90714,77.4743],[12.90725,77.47489],[12.90737,77.47538],[12.90758,77.47583],[12.90778,77.47617],[12.90849,77.47718],[12.90901,77.47819],[12.90925,77.47875],[12.90975,77.4801],[12.90994,77.48069],[12.90984,77.48072],[12.90967,77.48016],[12.9092,77.47891],[12.90886,77.4781],[12.90838,77.47719],[12.90827,77.47702],[12.90767,77.47621],[12.90757,77.47604],[12.90689,77.47594],[12.90632,77.47589],[12.90624,77.4759],[12.90617,77.47593],[12.90594,77.47606],[12.90578,77.47609],[12.90526,77.476],[12.90445,77.4758],[12.90405,77.47574]],"stops":[{"id":"29745","name":"Basava Gangotri Samste","lat":12.88359,"lon":77.45044,"sequence":1},{"id":"27956","name":"Ramohalli Cross","lat":12.88701,"lon":77.45112,"sequence":2},{"id":"30477","name":"Juggath Pharma","lat":12.89106,"lon":77.45517,"sequence":3},{"id":"20605","name":"Anchepalya","lat":12.8926,"lon":77.45753,"sequence":4},{"id":"21142","name":"RR Medical College","lat":12.89633,"lon":77.46058,"sequence":5},{"id":"20628","name":"Vishwa Okkaligara Mata Basavanagara","lat":12.90109,"lon":77.46733,"sequence":6},{"id":"21063","name":"NICE Road Kengeri Road Junction","lat":12.90277,"lon":77.46944,"sequence":7},{"id":"36407","name":"Depot-12 Gate","lat":12.90481,"lon":77.47068,"sequence":8},{"id":"22525","name":"Kengeri Metro Station","lat":12.90761,"lon":77.47586,"sequence":9},{"id":"35377","name":"RWB Gate Kengeri (Kengeri Work shop)","lat":12.90405,"lon":77.47574,"sequence":10}]}]}