{"short_name":"BSK-KDHP-PNN","long_name":"Padmanabha Nagara Rock ⇔ Banashankari Bus Station","directions":[{"direction":"UP","headsign":"Padmanabha Nagara Rock","path":[[12.91779,77.57272],[12.91793,77.57284],[12.91789,77.57322],[12.91768,77.57359],[12.91712,77.57365],[12.91698,77.57365],[12.91665,77.57286],[12.91656,77.57202],[12.91659,77.57125],[12.91657,77.57108],[12.91645,77.57069],[12.91633,77.5704],[12.91615,77.57023],[12.91575,77.57002],[12.91561,77.56987],[12.91536,77.56914],[12.9153,77.56903],[12.91497,77.56859],[12.91441,77.56799],[12.91421,77.56776],[12.9139,77.56736],[12.91386,77.5673],[12.91384,77.56723],[12.91366,77.56726],[12.91267,77.56732],[12.9126,77.56728],[12.9125,77.56713],[12.91332,77.56641],[12.91365,77.56614],[12.91402,77.56592],[12.91532,77.56538],[12.91629,77.565],[12.91648,77.56492],[12.91723,77.56463],[12.91808,77.56428],[12.91844,77.56409],[12.91924,77.56359],[12.91941,77.56345],[12.9196,77.56322],[12.91975,77.56299],[12.92004,77.56245],[12.92012,77.56235],[12.92038,77.56215],[12.92051,77.56209],[12.92071,77.56201],[12.92096,77.56189],[12.92103,77.5618],[12.92115,77.56173],[12.92137,77.56153],[12.9215,77.56133],[12.92156,77.56121],[12.92167,77.5608],[12.92174,77.56025],[12.92143,77.56022],[12.9209,77.56014],[12.92067,77.5601],[12.92056,77.56003],[12.92024,77.55996],[12.91972,77.55989],[12.9181,77.55965],[12.91818,77.55936],[12.91839,77.55816],[12.9185,77.55779],[12.91852,77.55765],[12.9185,77.55751],[12.918464,77.55742]],"stops":[{"id":"20623","name":"Banashankari Bus Station","lat":12.91779,"lon":77.57272,"sequence":1},{"id":"20897","name":"Kadirenahalli Cross","lat":12.91364,"lon":77.56727,"sequence":2},{"id":"20899","name":"Kadirenahalli Park","lat":12.91762,"lon":77.56447,"sequence":3},{"id":"23735","name":"Devegowda Petrol Bunk","lat":12.92141,"lon":77.56027,"sequence":4},{"id":"35088","name":"Padmanabha Nagara","lat":12.91824,"lon":77.55968,"sequence":5},{"id":"35210","name":"Padmanabha Nagara Rock","lat":12.91845,"lon":77.55743,"sequence":6}]},{"direction":"DOWN","headsign":"Banashankari Bus Station","path":[[12.91842,77.55735],[12.91847,77.55743],[12.9185,77.55751],[12.91852,77.55765],[12.9185,77.55779],[12.91839,77.55816],[12.91818,77.55936],[12.9181,77.55965],[12.91972,77.55989],[12.92024,77.55996],[12.92056,77.56003],[12.92074,77.56],[12.92089,77.56004],[12.92175,77.56017],[12.9218,77.55961],[12.92192,77.55912],[12.92208,77.55869],[12.92221,77.55855],[12.92249,77.55762],[12.92351,77.5545],[12.92371,77.55382],[12.92383,77.55377],[12.92331,77.55546],[12.92309,77.55607],[12.92271,77.55723],[12.92203,77.55938],[12.92194,77.55989],[12.92182,77.56082],[12.92177,77.56104],[12.92172,77.56124],[12.92159,77.5615],[12.92151,77.56161],[12.92139,77.56173],[12.92126,77.56182],[12.92111,77.56191],[12.92061,77.56214],[12.92026,77.56234],[12.92012,77.5625],[12.91975,77.56314],[12.91956,77.56342],[12.91932,77.56363],[12.91898,77.56387],[12.91865,77.56407],[12.91814,77.56435],[12.91776,77.56451],[12.91736,77.56469],[12.91564,77.56536],[12.91557,77.56543],[12.91551,77.56547],[12.91433,77.56592],[12.91409,77.56603],[12.91398,77.5662],[12.91393,77.56634],[12.91386,77.5667],[12.91384,77.56723],[12.91386,77.5673],[12.91441,77.56799],[12.91497,77.56859],[12.9153,77.56903],[12.91536,77.56914],[12.91561,77.56987],[12.91575,77.57002],[12.91615,77.57023],[12.91633,77.5704],[12.91638,77.5705],[12.91657,77.57108],[12.91659,77.57125],[12.91656,77.57202],[12.91665,77.57286],[12.91692,77.5735],[12.91712,77.57349],[12.91713,77.5735],[12.91718,77.57272],[12.91736,77.5727]],"stops":[{"id":"27572","name":"Padmanabha Nagara Rock","lat":12.91845,"lon":77.55737,"sequence":1},{"id":"35196","name":"Padmanabha Nagara","lat":12.91811,"lon":77.55964,"sequence":2},{"id":"20755","name":"Devegowda Petrol Bunk","lat":12.92189,"lon":77.56058,"sequence":3},{"id":"20898","name":"Kadirenahalli Park","lat":12.91768,"lon":77.56453,"sequence":4},{"id":"20896","name":"Kadirenahalli Cross","lat":12.91391,"lon":77.56657,"sequence":5},{"id":"20624","name":"Banashankari Bus Station","lat":12.91736,"lon":77.5727,"sequence":6}]}]}