{"short_name":"CKA-DSIT","long_name":"Dayananda Sagar College ⇔ Channammanakere Achukattu","directions":[{"direction":"UP","headsign":"Dayananda Sagar College","path":[[12.928304,77.556496],[12.92813,77.55624],[12.92798,77.55608],[12.92773,77.55558],[12.92762,77.55506],[12.9276,77.55473],[12.92752,77.55465],[12.92687,77.55412],[12.92636,77.55362],[12.92628,77.55355],[12.92611,77.55344],[12.92449,77.55342],[12.9242,77.55339],[12.92396,77.55332],[12.92345,77.55489],[12.92315,77.55575],[12.92297,77.55632],[12.92241,77.55799],[12.92224,77.55857],[12.92221,77.55885],[12.92201,77.55966],[12.92195,77.56026],[12.92183,77.56102],[12.92177,77.56125],[12.92166,77.56145],[12.92134,77.56181],[12.92127,77.56187],[12.92103,77.56196],[12.92096,77.56196],[12.92039,77.56222],[12.92023,77.56232],[12.92016,77.56239],[12.91995,77.56271],[12.91978,77.56301],[12.91968,77.56316],[12.91943,77.56349],[12.91901,77.56383],[12.91847,77.56416],[12.91794,77.56442],[12.91563,77.56533],[12.91548,77.56545],[12.91493,77.56566],[12.91408,77.566],[12.91393,77.56636],[12.91384,77.56674],[12.91382,77.56687],[12.91382,77.56714],[12.91384,77.56725],[12.913639,77.56726],[12.91279,77.56735],[12.91261,77.56732],[12.91255,77.56726],[12.91252,77.56717],[12.91227,77.56736],[12.91167,77.56723],[12.91141,77.56717],[12.9112,77.56713],[12.91051,77.56698],[12.90967,77.56685],[12.90954,77.56679],[12.90949,77.56673],[12.90945,77.56658],[12.90945,77.56637],[12.909498,77.56553]],"stops":[{"id":"22727","name":"Channammanakere Achukattu","lat":12.9283,"lon":77.5565,"sequence":1},{"id":"35773","name":"Kamakya Talkies","lat":12.92382,"lon":77.55393,"sequence":2},{"id":"20755","name":"Devegowda Petrol Bunk","lat":12.92189,"lon":77.56058,"sequence":3},{"id":"20898","name":"Kadirenahalli Park","lat":12.91768,"lon":77.56453,"sequence":4},{"id":"20897","name":"Kadirenahalli Cross","lat":12.91364,"lon":77.56727,"sequence":5},{"id":"21874","name":"Dayananda Sagar College","lat":12.90948,"lon":77.56553,"sequence":6}]}]}