{"short_name":"CLO-SNB","long_name":"Shankarnagh Bus Stand ⇔ Chandra Layout","directions":[{"direction":"UP","headsign":"Shankarnagh Bus Stand","path":[[12.959249,77.52671],[12.95832,77.52635],[12.95783,77.52737],[12.95757,77.52781],[12.95731,77.52819],[12.95736,77.52836],[12.95741,77.52843],[12.95757,77.52859],[12.95876,77.52896],[12.96054,77.52961],[12.96042,77.53015],[12.96025,77.53074],[12.95996,77.53145],[12.95993,77.53164],[12.95993,77.53184],[12.95996,77.5323],[12.96003,77.53301],[12.9603,77.533],[12.96074,77.5331],[12.96192,77.53357],[12.9634,77.53421],[12.96462,77.53472],[12.96478,77.53458],[12.96615,77.53517],[12.9661,77.53534],[12.96759,77.53601],[12.96887,77.53655],[12.97004,77.53693],[12.97105,77.53728],[12.97213,77.53776],[12.97255,77.53802],[12.97268,77.53813],[12.97284,77.5383],[12.97309,77.53869],[12.97321,77.53902],[12.97373,77.54117],[12.97391,77.54229],[12.97409,77.54223],[12.97467,77.54212],[12.97512,77.54213],[12.97566,77.54223],[12.97756,77.54243],[12.97783,77.54247],[12.97813,77.54254],[12.97845,77.54257],[12.97847,77.54239],[12.97859,77.54166],[12.97869,77.54133],[12.97902,77.5405],[12.97927,77.53996],[12.97964,77.53907],[12.97984,77.53863],[12.98012,77.53789],[12.97983,77.53778],[12.97951,77.53769],[12.98003,77.53643],[12.98057,77.53668],[12.98079,77.5368],[12.98088,77.53681],[12.98159,77.53707],[12.98202,77.53716],[12.982118,77.53717],[12.98257,77.53723],[12.98275,77.53721],[12.98326,77.53704],[12.98348,77.53699],[12.98546,77.53714],[12.98589,77.53719],[12.98679,77.53728],[12.98742,77.53735],[12.98764,77.53737],[12.98798,77.53743],[12.98969,77.53786],[12.99024,77.53796],[12.99073,77.53806],[12.99163,77.53837],[12.99168,77.53784],[12.9919,77.53658],[12.99199,77.53595],[12.9923,77.53607],[12.99275,77.53622],[12.99321,77.53633],[12.99397,77.5363],[12.99474,77.53639],[12.99485,77.53544],[12.99503,77.53435],[12.995308,77.53328],[12.99563,77.53217],[12.99593,77.53105],[12.99627,77.52987],[12.99639,77.5295],[12.99658,77.5288],[12.99666,77.52849],[12.99671,77.52821],[12.99694,77.52734],[12.99637,77.52725],[12.99525,77.52701],[12.994694,77.52687]],"stops":[{"id":"22776","name":"Chandra Layout","lat":12.95925,"lon":77.52671,"sequence":1},{"id":"20713","name":"Chandra Layout Circle","lat":12.95817,"lon":77.52669,"sequence":2},{"id":"20780","name":"Ganesha Temple Chandra Layout","lat":12.95772,"lon":77.52863,"sequence":3},{"id":"20715","name":"Chandra Public School","lat":12.96029,"lon":77.52954,"sequence":4},{"id":"20853","name":"Income Tax Layout","lat":12.96014,"lon":77.53108,"sequence":5},{"id":"39679","name":"Attiguppe Metro Station","lat":12.96245,"lon":77.53377,"sequence":6},{"id":"35395","name":"Vijayanagara Bus Station","lat":12.96558,"lon":77.53492,"sequence":7},{"id":"21011","name":"Maruthi Mandira","lat":12.96783,"lon":77.53611,"sequence":8},{"id":"21266","name":"Vijayanagara","lat":12.97192,"lon":77.53766,"sequence":9},{"id":"21013","name":"MC Layout","lat":12.97498,"lon":77.54212,"sequence":10},{"id":"20600","name":"Agrahara Dasarahalli","lat":12.97874,"lon":77.54121,"sequence":11},{"id":"20891","name":"Siddaiah Puranik Road Junction","lat":12.98212,"lon":77.53716,"sequence":12},{"id":"20813","name":"Havanur Circle","lat":12.98898,"lon":77.53767,"sequence":13},{"id":"20592","name":"Kamalanagara 8th Main","lat":12.99163,"lon":77.53839,"sequence":14},{"id":"33871","name":"Maruthi Temple Kamalanagara","lat":12.99492,"lon":77.53549,"sequence":15},{"id":"32773","name":"Gudde Devastana Kamalanagara","lat":12.99527,"lon":77.53327,"sequence":16},{"id":"28846","name":"Kamalanagara Market","lat":12.99605,"lon":77.53071,"sequence":17},{"id":"33287","name":"Kamalanagara","lat":12.99676,"lon":77.52737,"sequence":18},{"id":"28258","name":"Shankarnagh Bus Stand","lat":12.99472,"lon":77.52677,"sequence":19}]}]}