{"short_name":"D06G-BRSQ","long_name":"Depot-06 Gate ⇔ Bristol Quarters","directions":[{"direction":"UP","headsign":"Bristol Quarters","path":[[12.982603,77.63503],[12.98269,77.6363],[12.98272,77.63653],[12.98282,77.63697],[12.98297,77.63748],[12.9836,77.63919],[12.98433,77.64101],[12.98482,77.64245],[12.9862,77.64614],[12.98681,77.64759],[12.98697,77.64801],[12.9872,77.64848],[12.98831,77.65092],[12.98889,77.65214],[12.98924,77.65294],[12.98952,77.65354],[12.98967,77.65382],[12.9901,77.65473],[12.99124,77.65706],[12.99114,77.65721],[12.99109,77.65734],[12.99108,77.6574],[12.99093,77.65873],[12.99076,77.65986],[12.99069,77.66046],[12.99053,77.66146],[12.99049,77.66187],[12.99048,77.66232],[12.99047,77.66241],[12.99043,77.66255],[12.99032,77.6627],[12.99012,77.66291],[12.99,77.66306],[12.98995,77.66312],[12.98961,77.66373],[12.98949,77.66388],[12.98957,77.66379],[12.98973,77.66351],[12.98851,77.66346],[12.988539,77.66239]],"stops":[{"id":"20741","name":"Depot-06 Gate","lat":12.98255,"lon":77.63434,"sequence":1},{"id":"20672","name":"Binnamangala","lat":12.98331,"lon":77.63834,"sequence":2},{"id":"22527","name":"Swamy Vivekananda Metro Station/Isolation Hospital","lat":12.9858,"lon":77.64501,"sequence":3},{"id":"21060","name":"NGEF","lat":12.98787,"lon":77.64987,"sequence":4},{"id":"20634","name":"Bayyappanahalli Metro Station","lat":12.99001,"lon":77.65454,"sequence":5},{"id":"29239","name":"Nagavarapalya","lat":12.98948,"lon":77.6639,"sequence":6},{"id":"23431","name":"Bristol Quarters","lat":12.98855,"lon":77.66239,"sequence":7}]}]}