{"short_name":"D09G-ISROOJ","long_name":"ISRO Quarters Jalahalli ⇔ Depot-09 Gate","directions":[{"direction":"UP","headsign":"ISRO Quarters Jalahalli","path":[[13.021025,77.50077],[13.02071,77.50136],[13.02024,77.50238],[13.02082,77.50275],[13.02092,77.50282],[13.02046,77.50363],[13.0204,77.5036],[13.01984,77.50455],[13.01966,77.50496],[13.01913,77.50593],[13.0188,77.50638],[13.01851,77.50688],[13.01946,77.50748],[13.02082,77.50839],[13.02137,77.50879],[13.0224,77.50948],[13.02269,77.50965],[13.02321,77.51002],[13.02335,77.51013],[13.02387,77.51048],[13.02398,77.51051],[13.02429,77.51072],[13.02451,77.51083],[13.02506,77.51105],[13.02628,77.51423],[13.02633,77.51428],[13.02637,77.51435],[13.02664,77.51493],[13.02673,77.51517],[13.02674,77.51525],[13.02677,77.51533],[13.02723,77.51651],[13.02769,77.51761],[13.02811,77.51874],[13.02817,77.5188],[13.02821,77.51888],[13.02839,77.51934],[13.02849,77.51963],[13.0285,77.51971],[13.02824,77.51981],[13.02786,77.51995],[13.02588,77.52082],[13.02586,77.52072],[13.02611,77.5206],[13.02732,77.52006],[13.02901,77.51943],[13.03051,77.51879],[13.03103,77.51859],[13.03162,77.51833],[13.0321,77.51812],[13.03284,77.51785],[13.03307,77.51779],[13.03334,77.51776],[13.0336,77.51777],[13.03413,77.51785],[13.03491,77.51795],[13.03522,77.51802],[13.03561,77.51815],[13.03605,77.51826],[13.0365,77.51829],[13.03702,77.51827],[13.03786,77.51823],[13.03907,77.51823],[13.03997,77.51835],[13.04017,77.51845],[13.03982,77.51893],[13.03935,77.51971],[13.03883,77.52077],[13.03811,77.52204],[13.03794,77.52238],[13.03789,77.52233],[13.03779,77.52251],[13.03725,77.52351],[13.03608,77.5256],[13.03576,77.52619],[13.03568,77.52636],[13.03549,77.52687],[13.0348,77.52966],[13.03459,77.53018],[13.03442,77.53055],[13.03422,77.53092],[13.03337,77.53236],[13.03346,77.53242],[13.03273,77.53367],[13.03309,77.53388],[13.03358,77.53407],[13.03505,77.53456],[13.03526,77.53462],[13.03547,77.53459],[13.03658,77.53502],[13.03669,77.53514],[13.03689,77.53514],[13.03793,77.53543],[13.03842,77.53555],[13.03954,77.53586],[13.03991,77.53597],[13.0408,77.53622],[13.04039,77.53781],[13.04026,77.53863],[13.04134,77.5391],[13.04167,77.53922],[13.04177,77.53924],[13.04202,77.53935],[13.04217,77.53939],[13.04254,77.53939],[13.04281,77.5393],[13.04296,77.5393],[13.04311,77.53914],[13.04341,77.53897],[13.04345,77.53887],[13.04352,77.53883],[13.0436,77.53882],[13.04366,77.53885],[13.04379,77.53878],[13.04397,77.53878],[13.04416,77.53869],[13.04475,77.53863],[13.04505,77.5387],[13.04511,77.53868],[13.04512,77.53862],[13.04502,77.53844],[13.04478,77.53805],[13.04469,77.53786],[13.04457,77.53718],[13.0446,77.53681],[13.04509,77.53504],[13.04512,77.53484]],"stops":[{"id":"39142","name":"Depot-09 Gate","lat":13.02071,"lon":77.5006,"sequence":1},{"id":"20684","name":"Brundavana Peenya","lat":13.02034,"lon":77.50804,"sequence":2},{"id":"21068","name":"NTTF Peenya","lat":13.02514,"lon":77.51122,"sequence":3},{"id":"21136","name":"Rolling Mill","lat":13.02655,"lon":77.51468,"sequence":4},{"id":"27085","name":"TVS Cross Peenya","lat":13.02837,"lon":77.51984,"sequence":5},{"id":"21209","name":"Systems Peenya","lat":13.03497,"lon":77.51794,"sequence":6},{"id":"35866","name":"Jalahalli Cross Metro Station Departure","lat":13.0396,"lon":77.51933,"sequence":7},{"id":"21083","name":"Peenya Industry Metro Station","lat":13.03599,"lon":77.52579,"sequence":8},{"id":"21190","name":"SRS Peenya","lat":13.03471,"lon":77.52987,"sequence":9},{"id":"33051","name":"ISRO Quarters Jalahalli","lat":13.04509,"lon":77.53484,"sequence":10}]}]}