{"short_name":"D12G-BSVG","long_name":"Basava Gangotri Samste ⇔ Depot-12 Gate","directions":[{"direction":"UP","headsign":"Basava Gangotri Samste","path":[[12.90472,77.47083],[12.90459,77.47073],[12.90383,77.47024],[12.90291,77.46969],[12.90255,77.46942],[12.902299,77.46919],[12.90207,77.46895],[12.90163,77.46834],[12.90096,77.46732],[12.90028,77.46618],[12.89991,77.46565],[12.8994,77.46509],[12.89928,77.46493],[12.89792,77.46293],[12.8971,77.46169],[12.8967,77.46119],[12.89654,77.46101],[12.89612,77.46067],[12.89564,77.46034],[12.89462,77.45955],[12.8938,77.45896],[12.89315,77.45852],[12.8927,77.45815],[12.89241,77.4578],[12.89223,77.45754],[12.89209,77.4573],[12.89187,77.45697],[12.89175,77.45676],[12.89118,77.45594],[12.8911,77.45581],[12.89039,77.45481],[12.88999,77.45428],[12.88942,77.45356],[12.88919,77.45321],[12.88906,77.45308],[12.88856,77.45264],[12.8875,77.45177],[12.88738,77.45169],[12.88729,77.45161],[12.88671,77.45114],[12.8854,77.45015],[12.88436,77.44926],[12.88376,77.4488],[12.88324,77.44845],[12.88293,77.44939],[12.88287,77.44976],[12.88289,77.44992],[12.88293,77.44994],[12.88358,77.44999],[12.88363,77.45002],[12.88364,77.45006],[12.88358,77.45041]],"stops":[{"id":"35721","name":"Depot-12 Gate","lat":12.90471,"lon":77.47084,"sequence":1},{"id":"35386","name":"NICE Road Kengeri Road Junction","lat":12.90224,"lon":77.46926,"sequence":2},{"id":"20627","name":"Vishwa Okkaligara Mata Basavanagara","lat":12.90099,"lon":77.46746,"sequence":3},{"id":"35390","name":"RR Medical College","lat":12.89614,"lon":77.46087,"sequence":4},{"id":"20604","name":"Anchepalya","lat":12.89258,"lon":77.45798,"sequence":5},{"id":"35388","name":"Ramohalli Cross","lat":12.88674,"lon":77.45125,"sequence":6},{"id":"29745","name":"Basava Gangotri Samste","lat":12.88359,"lon":77.45044,"sequence":7}]}]}