{"short_name":"D14G-AFG","long_name":"Air force Gate Ashwathnagara ⇔ Depot-14 Gate","directions":[{"direction":"UP","headsign":"Air force Gate Ashwathnagara","path":[[13.02844,77.5937],[13.02801,77.59357],[13.02792,77.59359],[13.02728,77.59348],[13.02643,77.59328],[13.02506,77.59303],[13.02495,77.59297],[13.02507,77.59295],[13.02538,77.593],[13.02637,77.59318],[13.02648,77.59263],[13.02652,77.59256],[13.02659,77.59217],[13.0267,77.59147],[13.02672,77.59105],[13.02669,77.59084],[13.02638,77.58979],[13.0263,77.58939],[13.02624,77.58897],[13.02625,77.58865],[13.02628,77.5885],[13.02644,77.58791],[13.02654,77.58749],[13.02699,77.58577],[13.02654,77.58565],[13.02601,77.58548],[13.02546,77.58534],[13.02546,77.58523],[13.02355,77.58478],[13.02291,77.58468],[13.02223,77.58451],[13.0216,77.58437],[13.02079,77.58409],[13.02054,77.58405],[13.0196,77.58394],[13.01923,77.58395],[13.01725,77.58402],[13.0165,77.58403],[13.01627,77.58415],[13.01574,77.58419],[13.01503,77.58419],[13.0147,77.58414],[13.01448,77.58413],[13.01449,77.5838],[13.01506,77.58379],[13.01605,77.58383],[13.01617,77.58382],[13.0165,77.58389],[13.01682,77.58387],[13.01724,77.58387],[13.01754,77.58385],[13.01958,77.5838],[13.02034,77.58385],[13.02061,77.58388],[13.02293,77.58448],[13.02306,77.58439],[13.02321,77.58424],[13.02389,77.58338],[13.02464,77.58258],[13.0248,77.58235],[13.02515,77.58148],[13.02525,77.58129],[13.02537,77.58114],[13.02541,77.5811],[13.02574,77.58093],[13.02586,77.58083],[13.0262,77.5804],[13.02657,77.58009],[13.02689,77.57982],[13.026908,77.57964]],"stops":[{"id":"36584","name":"Depot-14 Gate","lat":13.02844,"lon":77.5937,"sequence":1},{"id":"21096","name":"RT Nagara Police Station","lat":13.02566,"lon":77.59301,"sequence":2},{"id":"21246","name":"Vasanthappa Block","lat":13.02624,"lon":77.58909,"sequence":3},{"id":"20699","name":"CBI","lat":13.02653,"lon":77.58565,"sequence":4},{"id":"35255","name":"Gangenahalli","lat":13.02309,"lon":77.5841,"sequence":5},{"id":"39704","name":"Air force Gate Ashwathnagara","lat":13.02684,"lon":77.57964,"sequence":6}]}]}