{"short_name":"D14G-ARMY PTRC","long_name":"Depot-14 Gate ⇔ ARMY PUBLIC SCHOOL (Parachute Regiment)","directions":[{"direction":"UP","headsign":"ARMY PUBLIC SCHOOL (Parachute Regiment)","path":[[13.02844,77.5937],[13.02801,77.59357],[13.02792,77.59359],[13.02766,77.59355],[13.02506,77.59304],[13.02495,77.59297],[13.02365,77.59277],[13.02264,77.5926],[13.02237,77.59257],[13.02202,77.59249],[13.02134,77.5925],[13.02075,77.59244],[13.02033,77.59242],[13.01904,77.59226],[13.01845,77.59211],[13.017567,77.59184],[13.01721,77.59175],[13.01622,77.59143],[13.01658,77.59091],[13.01675,77.59062],[13.01685,77.59039],[13.01694,77.59007],[13.01693,77.58998],[13.01681,77.58966],[13.01676,77.58943],[13.01674,77.58926],[13.01671,77.58859],[13.01672,77.58833],[13.01675,77.58813],[13.01682,77.58802],[13.0169,77.58783],[13.01694,77.58767],[13.01699,77.58737],[13.01705,77.58647],[13.01682,77.58645],[13.01657,77.58638],[13.01654,77.58621],[13.016503,77.58616]],"stops":[{"id":"36584","name":"Depot-14 Gate","lat":13.02844,"lon":77.5937,"sequence":1},{"id":"23786","name":"RT Nagara Police Station","lat":13.02424,"lon":77.59288,"sequence":2},{"id":"23787","name":"R T Nagara Post Office","lat":13.02201,"lon":77.59257,"sequence":3},{"id":"23788","name":"Rahamathnagara","lat":13.01755,"lon":77.59187,"sequence":4},{"id":"38962","name":"ARMY PUBLIC SCHOOL (Parachute Regiment)","lat":13.01651,"lon":77.58615,"sequence":5}]}]}