{"short_name":"D20-CSBS","long_name":"Chikkallasandra ⇔ Depot-20 Banashankari","directions":[{"direction":"UP","headsign":"Chikkallasandra","path":[[12.91869,77.57088],[12.91848,77.57107],[12.91818,77.57112],[12.91684,77.57107],[12.91657,77.57109],[12.91639,77.5705],[12.91634,77.5704],[12.91625,77.57029],[12.91615,77.57021],[12.91574,77.57],[12.91567,77.56993],[12.91552,77.56957],[12.91545,77.56929],[12.91539,77.56913],[12.91533,77.56902],[12.91422,77.56777],[12.91397,77.56746],[12.91392,77.56738],[12.91387,77.56725],[12.91267,77.56729],[12.91261,77.56728],[12.91254,77.56723],[12.91249,77.56712],[12.91251,77.56703],[12.91261,77.56692],[12.91351,77.56616],[12.91383,77.56593],[12.91424,77.56574],[12.91449,77.56495],[12.91498,77.56325],[12.91505,77.56296],[12.91522,77.56241],[12.91534,77.56211],[12.9154,77.562],[12.91569,77.56156],[12.91571,77.56144],[12.91568,77.56134],[12.91562,77.56125],[12.91547,77.56116],[12.91506,77.56096],[12.91495,77.56089],[12.91479,77.56074],[12.91462,77.56055],[12.91439,77.56035],[12.91425,77.56024],[12.91393,77.55987],[12.91388,77.55983],[12.91375,77.55969],[12.91365,77.55939],[12.91359,77.55899],[12.91338,77.55898],[12.91288,77.55892],[12.91279,77.55886],[12.91223,77.55867],[12.9117,77.55851],[12.91161,77.55844],[12.91158,77.55832],[12.91159,77.55788],[12.91167,77.55719],[12.91175,77.55673],[12.91176,77.55653],[12.91171,77.55627],[12.91157,77.55597],[12.91152,77.55581],[12.91151,77.55562],[12.91159,77.55509],[12.9116,77.55491],[12.91158,77.55481],[12.91139,77.55434],[12.91137,77.55422],[12.91137,77.55409],[12.91138,77.55402],[12.91173,77.55269],[12.91174,77.5526],[12.91171,77.55254],[12.91167,77.55237],[12.91163,77.55227],[12.91186,77.55217],[12.91228,77.55249],[12.91288,77.55281],[12.91321,77.55298],[12.91372,77.5532],[12.91406,77.5534],[12.91416,77.55347],[12.9142,77.55355],[12.91435,77.55367],[12.9149,77.55245],[12.91501,77.55217],[12.915066,77.55198]],"stops":[{"id":"21503","name":"Depot-20 Banashankari","lat":12.91871,"lon":77.57086,"sequence":1},{"id":"20897","name":"Kadirenahalli Cross","lat":12.91364,"lon":77.56727,"sequence":2},{"id":"22134","name":"Kadirenahalli Village","lat":12.9157,"lon":77.56146,"sequence":3},{"id":"22404","name":"Prarthana School","lat":12.9116,"lon":77.55741,"sequence":4},{"id":"21979","name":"Gowdanapalya","lat":12.91157,"lon":77.55608,"sequence":5},{"id":"24576","name":"Chikkallasandra Aralimara","lat":12.91184,"lon":77.55215,"sequence":6},{"id":"24575","name":"Chikkallasandra","lat":12.91507,"lon":77.55198,"sequence":7}]},{"direction":"DOWN","headsign":"Depot-20 Banashankari","path":[[12.915066,77.55198],[12.91501,77.55217],[12.9149,77.55245],[12.91435,77.55367],[12.9142,77.55355],[12.91416,77.55347],[12.91406,77.5534],[12.91372,77.5532],[12.91321,77.55298],[12.91288,77.55281],[12.91228,77.55249],[12.91186,77.55217],[12.91169,77.55224],[12.91175,77.5524],[12.91176,77.55255],[12.91138,77.55402],[12.91137,77.55422],[12.91139,77.55434],[12.91158,77.55481],[12.9116,77.55491],[12.91159,77.55509],[12.91151,77.55562],[12.91152,77.55581],[12.91157,77.55597],[12.91171,77.55627],[12.91176,77.55653],[12.91175,77.55673],[12.91167,77.55719],[12.91159,77.55788],[12.91158,77.55832],[12.91161,77.55844],[12.9117,77.55851],[12.91223,77.55867],[12.91279,77.55886],[12.91289,77.55885],[12.91361,77.55892],[12.91364,77.55899],[12.91373,77.5595],[12.91379,77.55967],[12.9138,77.55974],[12.91384,77.55979],[12.91393,77.55987],[12.91425,77.56024],[12.91439,77.56035],[12.91462,77.56055],[12.91479,77.56074],[12.91495,77.56089],[12.91506,77.56096],[12.91547,77.56116],[12.91562,77.56125],[12.91565,77.56129],[12.91571,77.56144],[12.91569,77.56156],[12.91547,77.56189],[12.915066,77.55198],[12.91501,77.55217],[12.9149,77.55245],[12.91435,77.55367],[12.9142,77.55355],[12.91416,77.55347],[12.91406,77.5534],[12.91372,77.5532],[12.91321,77.55298],[12.91288,77.55281],[12.91228,77.55249],[12.91186,77.55217],[12.91166,77.55223],[12.91176,77.55245],[12.91175,77.55263],[12.9117,77.55284],[12.91146,77.55366],[12.91134,77.55415],[12.91136,77.55438],[12.91155,77.55474],[12.91158,77.55484],[12.91159,77.55493],[12.91158,77.55517],[12.9115,77.5557],[12.91153,77.55587],[12.91169,77.55624],[12.91171,77.55641],[12.91166,77.55687],[12.91157,77.55849],[12.91208,77.55863],[12.91245,77.55876],[12.91284,77.55886],[12.9129,77.55884],[12.91363,77.55891],[12.91366,77.55899],[12.91369,77.55936],[12.91378,77.55961],[12.9138,77.55974],[12.91405,77.56003],[12.91421,77.56019],[12.91446,77.56041],[12.91491,77.56086],[12.91505,77.56097],[12.91541,77.56114],[12.91568,77.56124],[12.91574,77.5613],[12.91576,77.56139],[12.91574,77.56149],[12.91564,77.5617],[12.91541,77.56203],[12.91528,77.56231],[12.91515,77.56273],[12.91503,77.56325],[12.91482,77.56389],[12.91459,77.56474],[12.91443,77.56531],[12.91433,77.56559],[12.9143,77.56572],[12.91411,77.56601],[12.91401,77.56619],[12.91387,77.56688],[12.91388,77.56725],[12.91386,77.56731],[12.9139,77.56739],[12.91397,77.56751],[12.91418,77.56777],[12.91498,77.56863],[12.9153,77.56903],[12.91536,77.56914],[12.9156,77.56987],[12.91565,77.56997],[12.91572,77.57004],[12.91603,77.57019],[12.91613,77.57025],[12.91623,77.57033],[12.91631,77.57042],[12.91641,77.57068],[12.91653,77.57111],[12.91684,77.57109],[12.91748,77.57108],[12.91818,77.57112],[12.91848,77.57107],[12.91869,77.57088]],"stops":[{"id":"24575","name":"Chikkallasandra","lat":12.91507,"lon":77.55198,"sequence":1},{"id":"21840","name":"Chikkallasandra Aralimara","lat":12.91168,"lon":77.55226,"sequence":2},{"id":"21978","name":"Gowdanapalya","lat":12.91152,"lon":77.55591,"sequence":3},{"id":"22403","name":"Prarthana School","lat":12.91166,"lon":77.5574,"sequence":4},{"id":"22133","name":"Kadirenahalli Village","lat":12.91574,"lon":77.56141,"sequence":5},{"id":"20896","name":"Kadirenahalli Cross","lat":12.91391,"lon":77.56657,"sequence":6},{"id":"21503","name":"Depot-20 Banashankari","lat":12.91871,"lon":77.57086,"sequence":7}]}]}