{"short_name":"D30-NES","long_name":"NES Office ⇔ Depot-30 Puttenahalli","directions":[{"direction":"UP","headsign":"NES Office","path":[[13.110029,77.57771],[13.11044,77.57799],[13.11066,77.57833],[13.11118,77.57991],[13.11027,77.58019],[13.10939,77.58048],[13.10892,77.58062],[13.10801,77.58092],[13.10755,77.5811],[13.1074,77.58118],[13.10724,77.58128],[13.10698,77.58148],[13.10626,77.58206],[13.10538,77.58284],[13.10508,77.58312],[13.10432,77.58388],[13.10359,77.58467],[13.102783,77.58564],[13.10205,77.58662],[13.10039,77.58868],[13.09888,77.59047],[13.097831,77.59166]],"stops":[{"id":"24852","name":"Depot-30 Puttenahalli","lat":13.11009,"lon":77.57762,"sequence":1},{"id":"34300","name":"Puttenahalli","lat":13.11016,"lon":77.58024,"sequence":2},{"id":"34849","name":"Wheel And Axle Plant","lat":13.10603,"lon":77.58227,"sequence":3},{"id":"25225","name":"Escorts","lat":13.10281,"lon":77.58566,"sequence":4},{"id":"28297","name":"Sheshadripuram College","lat":13.10041,"lon":77.58864,"sequence":5},{"id":"22357","name":"NES Office","lat":13.09784,"lon":77.59167,"sequence":6}]},{"direction":"DOWN","headsign":"Depot-30 Puttenahalli","path":[[13.097673,77.591675],[13.09883,77.59035],[13.10004,77.58891],[13.10129,77.58736],[13.102,77.5865],[13.10288,77.58537],[13.10326,77.58491],[13.10425,77.58382],[13.10469,77.58337],[13.10533,77.58277],[13.10621,77.58197],[13.10662,77.58163],[13.1071,77.58127],[13.10729,77.58113],[13.10766,77.58094],[13.10784,77.58087],[13.1089,77.58055],[13.10995,77.580215],[13.11025,77.58013],[13.11116,77.57983],[13.11066,77.57833],[13.11044,77.57799],[13.110029,77.57771]],"stops":[{"id":"22356","name":"NES Office","lat":13.09766,"lon":77.59166,"sequence":1},{"id":"34534","name":"Sheshadripuram College","lat":13.10022,"lon":77.58866,"sequence":2},{"id":"32598","name":"Escorts","lat":13.10271,"lon":77.58558,"sequence":3},{"id":"31633","name":"Wheel And Axle Plant","lat":13.10572,"lon":77.58241,"sequence":4},{"id":"34299","name":"Puttenahalli","lat":13.10995,"lon":77.58022,"sequence":5},{"id":"24852","name":"Depot-30 Puttenahalli","lat":13.11009,"lon":77.57762,"sequence":6}]}]}