{"short_name":"D34-CKH","long_name":"Chikka Kammanahalli ⇔ Depot-34 Gate","directions":[{"direction":"UP","headsign":"Chikka Kammanahalli","path":[[12.87015,77.58569],[12.86981,77.58659],[12.86939,77.58761],[12.86936,77.58773],[12.86937,77.58782],[12.8698,77.58867],[12.87017,77.58949],[12.87084,77.59082],[12.87108,77.59139],[12.87113,77.59155],[12.87114,77.59162],[12.87113,77.59175],[12.871,77.59238],[12.87101,77.59247],[12.87115,77.59283],[12.87114,77.59295],[12.87104,77.59343],[12.87141,77.59358],[12.87243,77.59394],[12.87303,77.59412],[12.8733,77.59422],[12.87318,77.59451],[12.873,77.59556],[12.87294,77.59578],[12.8729,77.59587],[12.8728,77.59599],[12.87268,77.5961],[12.87258,77.59616],[12.87193,77.59639],[12.8712,77.59663],[12.87027,77.59687],[12.86956,77.59714],[12.86939,77.59723],[12.86932,77.59729],[12.86927,77.59735],[12.86919,77.5975],[12.86912,77.59758],[12.86866,77.59767],[12.86829,77.59777],[12.86808,77.59786],[12.86787,77.59791],[12.86767,77.59792],[12.86702,77.59792],[12.86676,77.59795],[12.86634,77.59803],[12.86607,77.59809],[12.86537,77.59835],[12.86517,77.5984],[12.86468,77.59855],[12.86438,77.59869],[12.86424,77.59877],[12.86412,77.59887],[12.86402,77.599],[12.86384,77.59935],[12.86373,77.59948],[12.86361,77.59959],[12.86341,77.59972],[12.86329,77.59978],[12.86318,77.59982],[12.86298,77.59986],[12.86291,77.59986],[12.86275,77.59983],[12.86217,77.59977],[12.86156,77.59976],[12.8608,77.59969],[12.86018,77.5997],[12.86,77.59965],[12.85942,77.59959],[12.85856,77.59961],[12.85834,77.59953],[12.85819,77.59942],[12.85778,77.59938],[12.85574,77.5995],[12.85497,77.59966],[12.85437,77.59982],[12.85413,77.59983],[12.85394,77.59988],[12.85324,77.59991],[12.85146,77.59989],[12.85071,77.59992],[12.85053,77.59991],[12.84968,77.59994]],"stops":[{"id":"35964","name":"Depot-34 Gate","lat":12.87021,"lon":77.58571,"sequence":1},{"id":"36211","name":"Loyola School","lat":12.87108,"lon":77.59339,"sequence":2},{"id":"27501","name":"Nobo Nagara","lat":12.8682,"lon":77.59783,"sequence":3},{"id":"35541","name":"AECS Dental College","lat":12.8654,"lon":77.59836,"sequence":4},{"id":"32540","name":"Doddakammanahalli","lat":12.85316,"lon":77.59994,"sequence":5},{"id":"32275","name":"Chikka Kammanahalli","lat":12.84969,"lon":77.59996,"sequence":6}]},{"direction":"DOWN","headsign":"Depot-34 Gate","path":[[12.84968,77.59994],[12.85053,77.59991],[12.85071,77.59992],[12.85146,77.59989],[12.85324,77.59991],[12.85394,77.59988],[12.85413,77.59983],[12.85437,77.59982],[12.85497,77.59966],[12.85574,77.5995],[12.85778,77.59938],[12.85819,77.59942],[12.85834,77.59953],[12.85856,77.59961],[12.85942,77.59959],[12.86,77.59965],[12.86018,77.5997],[12.8608,77.59969],[12.86156,77.59976],[12.86217,77.59977],[12.86275,77.59983],[12.86291,77.59986],[12.86298,77.59986],[12.86318,77.59982],[12.86329,77.59978],[12.86341,77.59972],[12.86361,77.59959],[12.86373,77.59948],[12.86384,77.59935],[12.86402,77.599],[12.86412,77.59887],[12.86424,77.59877],[12.86438,77.59869],[12.86468,77.59855],[12.86517,77.5984],[12.86537,77.59835],[12.86607,77.59809],[12.86634,77.59803],[12.86676,77.59795],[12.86702,77.59792],[12.86767,77.59792],[12.86787,77.59791],[12.86808,77.59786],[12.86829,77.59777],[12.86866,77.59767],[12.86912,77.59758],[12.86919,77.5975],[12.86927,77.59735],[12.86932,77.59729],[12.86939,77.59723],[12.86956,77.59714],[12.87027,77.59687],[12.8712,77.59663],[12.87193,77.59639],[12.87258,77.59616],[12.87268,77.5961],[12.8728,77.59599],[12.87279,77.59586],[12.8729,77.59523],[12.87296,77.59464],[12.87301,77.59446],[12.87309,77.59435],[12.87297,77.59431],[12.8728,77.59422],[12.87105,77.59363],[12.87042,77.59339],[12.86944,77.59306],[12.86917,77.59296],[12.86823,77.59264],[12.86798,77.59255],[12.8668,77.59216],[12.86624,77.59196],[12.8656,77.59174],[12.86499,77.59151],[12.865,77.59143],[12.86593,77.59179],[12.86625,77.59188],[12.86672,77.59195],[12.86689,77.59199],[12.86719,77.59207],[12.86924,77.59277],[12.87047,77.59323],[12.87104,77.59343],[12.87114,77.59295],[12.87115,77.59283],[12.87101,77.59247],[12.871,77.59238],[12.87113,77.59175],[12.87114,77.59162],[12.87113,77.59155],[12.87108,77.59139],[12.87084,77.59082],[12.87017,77.58949],[12.8698,77.58867],[12.86941,77.58791],[12.86937,77.58782],[12.86936,77.58773],[12.86939,77.58761],[12.86981,77.58659],[12.87015,77.58569]],"stops":[{"id":"24511","name":"Chikka Kammanahalli","lat":12.84966,"lon":77.59993,"sequence":1},{"id":"25096","name":"Doddakammanahalli","lat":12.85302,"lon":77.59989,"sequence":2},{"id":"29450","name":"AECS Dental College","lat":12.86536,"lon":77.59832,"sequence":3},{"id":"34173","name":"Nobo Nagara","lat":12.86809,"lon":77.59783,"sequence":4},{"id":"35231","name":"Loyola School","lat":12.87078,"lon":77.59333,"sequence":5},{"id":"32430","name":"Depot-34 Gate","lat":12.87023,"lon":77.58567,"sequence":6}]}]}