{"short_name":"D34G-HLMV","long_name":"Hulimavu ⇔ Depot-34 Gate","directions":[{"direction":"UP","headsign":"Hulimavu","path":[[12.87015,77.58569],[12.86981,77.58659],[12.86939,77.58761],[12.86936,77.58773],[12.86937,77.58782],[12.86941,77.58791],[12.8698,77.58867],[12.87017,77.58949],[12.87084,77.59082],[12.87108,77.59139],[12.87113,77.59155],[12.87114,77.59162],[12.87113,77.59175],[12.871,77.59238],[12.87101,77.59247],[12.87115,77.59283],[12.87114,77.59295],[12.87104,77.59343],[12.87141,77.59358],[12.87243,77.59394],[12.87303,77.59412],[12.8737,77.59437],[12.874,77.59447],[12.8742,77.59454],[12.87501,77.59481],[12.87597,77.59497],[12.87663,77.59505],[12.87662,77.5952],[12.87639,77.59699],[12.87632,77.59712],[12.87635,77.59827],[12.87633,77.59838],[12.87631,77.59874],[12.87639,77.59944],[12.87658,77.60019],[12.8767,77.60078],[12.87677,77.6013],[12.87671,77.60168],[12.87675,77.60168],[12.877,77.60205],[12.877098,77.60225]],"stops":[{"id":"35964","name":"Depot-34 Gate","lat":12.87021,"lon":77.58571,"sequence":1},{"id":"23867","name":"Meenakshi Temple","lat":12.87463,"lon":77.59469,"sequence":2},{"id":"32994","name":"Hulimavu","lat":12.87718,"lon":77.60221,"sequence":3}]},{"direction":"DOWN","headsign":"Depot-34 Gate","path":[[12.877034,77.602455],[12.87718,77.60242],[12.877,77.60205],[12.87675,77.60168],[12.87671,77.60168],[12.87677,77.6013],[12.8767,77.60078],[12.87658,77.60019],[12.87639,77.59944],[12.87631,77.59874],[12.87633,77.59838],[12.87635,77.59827],[12.87632,77.59712],[12.87621,77.59699],[12.87541,77.59583],[12.87536,77.59573],[12.87532,77.59554],[12.87536,77.59504],[12.87498,77.59497],[12.87417,77.59474],[12.87297,77.59431],[12.8728,77.59422],[12.87105,77.59363],[12.87042,77.59339],[12.86944,77.59306],[12.86917,77.59296],[12.86823,77.59264],[12.86798,77.59255],[12.8668,77.59216],[12.86624,77.59196],[12.8656,77.59174],[12.86499,77.59151],[12.865,77.59143],[12.86593,77.59179],[12.86625,77.59188],[12.86672,77.59195],[12.86689,77.59199],[12.86719,77.59207],[12.86924,77.59277],[12.87047,77.59323],[12.87104,77.59343],[12.87114,77.59295],[12.87115,77.59283],[12.87101,77.59247],[12.871,77.59238],[12.87113,77.59175],[12.87114,77.59162],[12.87113,77.59155],[12.87108,77.59139],[12.87084,77.59082],[12.87017,77.58949],[12.8698,77.58867],[12.86941,77.58791],[12.86937,77.58782],[12.86936,77.58773],[12.86939,77.58761],[12.86981,77.58659],[12.87015,77.58569]],"stops":[{"id":"26042","name":"Hulimavu","lat":12.87702,"lon":77.6024,"sequence":1},{"id":"23584","name":"Meenakshi Temple","lat":12.87467,"lon":77.5949,"sequence":2},{"id":"32430","name":"Depot-34 Gate","lat":12.87023,"lon":77.58567,"sequence":3}]}]}