{"short_name":"D34G-YLH","long_name":"Yelenahalli ⇔ Depot-34 Gate","directions":[{"direction":"UP","headsign":"Yelenahalli","path":[[12.87015,77.58569],[12.86981,77.58659],[12.86939,77.58761],[12.86936,77.58773],[12.86937,77.58782],[12.86941,77.58791],[12.8698,77.58867],[12.87017,77.58949],[12.87084,77.59082],[12.87108,77.59139],[12.87113,77.59155],[12.87114,77.59162],[12.87113,77.59175],[12.871,77.59238],[12.87101,77.59247],[12.87115,77.59283],[12.87114,77.59295],[12.87104,77.59343],[12.87141,77.59358],[12.87243,77.59394],[12.87303,77.59412],[12.8737,77.59437],[12.874,77.59447],[12.8742,77.59454],[12.87501,77.59481],[12.87597,77.59497],[12.87663,77.59505],[12.87662,77.5952],[12.87639,77.59699],[12.87632,77.59712],[12.87635,77.59827],[12.87633,77.59838],[12.87631,77.59874],[12.87634,77.59907],[12.87639,77.59944],[12.87658,77.60019],[12.8767,77.60078],[12.87677,77.6013],[12.87671,77.60168],[12.87675,77.60168],[12.877,77.60205],[12.87718,77.60242],[12.87757,77.60237],[12.87744,77.60334],[12.87741,77.6038],[12.87735,77.60401],[12.87722,77.60437],[12.87709,77.60513],[12.877,77.60612],[12.87684,77.60692],[12.87668,77.60694],[12.87657,77.60699],[12.87653,77.60712],[12.87656,77.6075],[12.87657,77.60781],[12.87664,77.60839],[12.87669,77.60863],[12.87675,77.60882],[12.8768,77.60892],[12.8767,77.60898],[12.87653,77.60921],[12.87646,77.60934],[12.87644,77.60947],[12.8765,77.60957],[12.87682,77.60989],[12.87689,77.61002],[12.8769,77.61019],[12.87687,77.6104],[12.87652,77.61158],[12.87636,77.61232],[12.87621,77.61285],[12.87611,77.61315],[12.87609,77.61329],[12.87612,77.61359],[12.87626,77.61434],[12.87631,77.61486],[12.8763,77.61529],[12.87624,77.61585],[12.8762,77.6162],[12.87608,77.61693],[12.8756,77.61692],[12.87447,77.6168],[12.87314,77.61667],[12.87125,77.61655],[12.87012,77.61642],[12.86987,77.61637],[12.86893,77.61627],[12.86807,77.61614],[12.86795,77.61615],[12.8679,77.61618]],"stops":[{"id":"35964","name":"Depot-34 Gate","lat":12.87021,"lon":77.58571,"sequence":1},{"id":"28059","name":"Royal Meenakshi Mall BG Road","lat":12.8765,"lon":77.59615,"sequence":2},{"id":"32994","name":"Hulimavu","lat":12.87718,"lon":77.60221,"sequence":3},{"id":"35522","name":"Akshayanagara New Town","lat":12.87657,"lon":77.61166,"sequence":4},{"id":"22822","name":"Yelenahalli","lat":12.86791,"lon":77.61622,"sequence":5}]}]}