{"short_name":"D35G-ABDVN","long_name":"Ashraya Badavane ⇔ Depot-35 Gate","directions":[{"direction":"UP","headsign":"Ashraya Badavane","path":[[12.97261,77.44269],[12.97267,77.44265],[12.97291,77.44265],[12.97331,77.44273],[12.97445,77.44304],[12.97513,77.4432],[12.97635,77.44355],[12.97691,77.44369],[12.97749,77.4438],[12.97825,77.44401],[12.97872,77.44416],[12.97915,77.44424],[12.97941,77.44426],[12.98011,77.44426],[12.9811,77.44416],[12.98126,77.44414],[12.98358,77.44395],[12.98386,77.44391],[12.98402,77.44386],[12.98409,77.4438],[12.98418,77.44392],[12.98484,77.44494],[12.98528,77.44565],[12.98558,77.44609],[12.98576,77.44632],[12.98606,77.44662],[12.98621,77.44674],[12.98687,77.44719],[12.98771,77.44777],[12.98817,77.44815],[12.98864,77.44869],[12.989117,77.44947],[12.9895,77.45015],[12.98979,77.45071],[12.99019,77.45168],[12.99034,77.45209],[12.99043,77.45238],[12.99056,77.45283],[12.99073,77.45351],[12.99137,77.45673],[12.99183,77.45933],[12.99193,77.46026],[12.99196,77.46081],[12.99197,77.46145],[12.99194,77.46231],[12.99175,77.46406],[12.99161,77.46508],[12.99146,77.4659],[12.99119,77.46708],[12.99098,77.46774],[12.99077,77.4683],[12.99062,77.46869],[12.99054,77.46865],[12.99062,77.46869],[12.99052,77.46891],[12.99021,77.46953],[12.98993,77.47013],[12.98919,77.47164],[12.98873,77.47264],[12.98867,77.47256],[12.98858,77.47248],[12.98816,77.47231],[12.98786,77.47223],[12.98754,77.47216],[12.98657,77.47186],[12.98654,77.47203],[12.98648,77.4722],[12.98638,77.47255],[12.98629,77.47302],[12.98622,77.47328],[12.98606,77.47418],[12.98593,77.47472],[12.98576,77.47551],[12.98565,77.47585],[12.98545,77.47576],[12.98518,77.47567],[12.98338,77.47498],[12.98295,77.47477],[12.98229,77.47453],[12.98179,77.47432],[12.98137,77.47416],[12.98111,77.47403],[12.98088,77.47452],[12.97915,77.47413],[12.97871,77.47405]],"stops":[{"id":"35809","name":"Depot-35 Gate","lat":12.9726,"lon":77.44268,"sequence":1},{"id":"39938","name":"Adukale Food Factory","lat":12.9769,"lon":77.44359,"sequence":2},{"id":"39940","name":"Seegehalli Cross","lat":12.97946,"lon":77.4442,"sequence":3},{"id":"21598","name":"Seegehalli Gate","lat":12.98408,"lon":77.44376,"sequence":4},{"id":"21548","name":"Kadabagere Cross","lat":12.98912,"lon":77.44947,"sequence":5},{"id":"21561","name":"Machohalli Gate","lat":12.99088,"lon":77.45429,"sequence":6},{"id":"21509","name":"Forest Gate","lat":12.99185,"lon":77.45952,"sequence":7},{"id":"21487","name":"Chikka Gollarahatti","lat":12.99147,"lon":77.46559,"sequence":8},{"id":"21546","name":"Kachohalli Gate","lat":12.99056,"lon":77.46871,"sequence":9},{"id":"32716","name":"Gollarahatti","lat":12.98848,"lon":77.47248,"sequence":10},{"id":"23193","name":"Ashraya Badavane","lat":12.97871,"lon":77.47403,"sequence":11}]},{"direction":"DOWN","headsign":"Depot-35 Gate","path":[[12.97871,77.47405],[12.97915,77.47413],[12.98088,77.47452],[12.98111,77.47403],[12.98137,77.47416],[12.98179,77.47432],[12.98229,77.47453],[12.98295,77.47477],[12.98338,77.47498],[12.98518,77.47567],[12.98545,77.47576],[12.98565,77.47585],[12.98576,77.47551],[12.98593,77.47472],[12.98606,77.47418],[12.98622,77.47328],[12.98629,77.47302],[12.98638,77.47255],[12.98648,77.4722],[12.98654,77.47203],[12.98657,77.47186],[12.98754,77.47216],[12.98786,77.47223],[12.98816,77.47231],[12.98858,77.47248],[12.98867,77.47256],[12.98901,77.47184],[12.98911,77.47159],[12.98958,77.47065],[12.98986,77.47005],[12.99005,77.46967],[12.99054,77.46865],[12.99073,77.46818],[12.99098,77.46748],[12.99119,77.46675],[12.99153,77.46506],[12.99175,77.46338],[12.99184,77.46256],[12.99188,77.4619],[12.99189,77.46144],[12.99188,77.4608],[12.99185,77.46023],[12.99178,77.45961],[12.99129,77.45674],[12.99062,77.4534],[12.99036,77.45244],[12.99017,77.45187],[12.98972,77.45076],[12.98923,77.44984],[12.98869,77.44893],[12.98857,77.44875],[12.98811,77.44823],[12.98759,77.44778],[12.98636,77.44696],[12.98584,77.44653],[12.98568,77.44635],[12.98538,77.44595],[12.98522,77.44569],[12.98453,77.44462],[12.98402,77.44386],[12.98386,77.44391],[12.98358,77.44395],[12.98126,77.44414],[12.9811,77.44416],[12.98011,77.44426],[12.97941,77.44426],[12.97915,77.44424],[12.97872,77.44416],[12.97825,77.44401],[12.97749,77.4438],[12.976933,77.443695],[12.97635,77.44355],[12.97513,77.4432],[12.97445,77.44304],[12.97331,77.44273],[12.97291,77.44265],[12.97267,77.44265],[12.97261,77.44269]],"stops":[{"id":"23193","name":"Ashraya Badavane","lat":12.97871,"lon":77.47403,"sequence":1},{"id":"32716","name":"Gollarahatti","lat":12.98848,"lon":77.47248,"sequence":2},{"id":"21547","name":"Kachohalli Gate","lat":12.99042,"lon":77.4688,"sequence":3},{"id":"21488","name":"Chikka Gollarahatti","lat":12.99142,"lon":77.4656,"sequence":4},{"id":"21510","name":"Forest Gate","lat":12.99176,"lon":77.45971,"sequence":5},{"id":"21562","name":"Machohalli Gate","lat":12.99081,"lon":77.45445,"sequence":6},{"id":"21549","name":"Kadabagere Cross","lat":12.98911,"lon":77.44966,"sequence":7},{"id":"21599","name":"Seegehalli Gate","lat":12.98401,"lon":77.44389,"sequence":8},{"id":"39941","name":"Seegehalli Cross","lat":12.97946,"lon":77.44428,"sequence":9},{"id":"39939","name":"Adukale Food Factory","lat":12.97693,"lon":77.44371,"sequence":10},{"id":"35809","name":"Depot-35 Gate","lat":12.9726,"lon":77.44268,"sequence":11}]}]}