{"short_name":"D36G-GFGC","long_name":"Depot-36 Gate ⇔ Govt First Grade College Bidadi","directions":[{"direction":"UP","headsign":"Govt First Grade College Bidadi","path":[[12.76839,77.41397],[12.77095,77.41191],[12.77373,77.40971],[12.77413,77.40942],[12.77445,77.40914],[12.77514,77.40859],[12.77559,77.40826],[12.77726,77.40691],[12.7787,77.40582],[12.77972,77.40501],[12.78092,77.40409],[12.78175,77.40342],[12.78186,77.40334],[12.78323,77.40225],[12.78487,77.40099],[12.78682,77.39946],[12.78717,77.39919],[12.78732,77.39906],[12.78757,77.39887],[12.78781,77.39873],[12.78816,77.39863],[12.78939,77.39837],[12.78997,77.39822],[12.79056,77.39809],[12.79205,77.39777],[12.79533,77.39704],[12.79577,77.39698],[12.79596,77.39697],[12.79933,77.3974],[12.79941,77.39746],[12.80181,77.39781],[12.802,77.39761],[12.80219,77.39739],[12.80232,77.39731],[12.80221,77.39711],[12.80211,77.39687],[12.80165,77.3954],[12.80122,77.39419],[12.80102,77.3937],[12.80041,77.39233],[12.79998,77.39145],[12.79973,77.39105],[12.79952,77.39074],[12.79901,77.39011],[12.79861,77.38967],[12.79724,77.38838],[12.79703,77.38811],[12.79689,77.38785],[12.79675,77.38745],[12.79667,77.38713],[12.79664,77.38664],[12.79656,77.38613],[12.79655,77.38584],[12.79663,77.38496],[12.79664,77.38478],[12.79663,77.38455],[12.7969,77.38458],[12.79703,77.38475],[12.79697,77.38493],[12.79678,77.38496],[12.7968,77.38455],[12.79666,77.38385],[12.79737,77.38388],[12.79787,77.38392],[12.79864,77.38404],[12.80022,77.38431],[12.80104,77.38442],[12.80123,77.3844],[12.8014,77.38433],[12.80297,77.38465],[12.80256,77.38647],[12.80317,77.38666],[12.80327,77.38672],[12.80335,77.38687],[12.8033,77.38726],[12.80326,77.38789],[12.80365,77.38806],[12.80448,77.38823],[12.80491,77.38833],[12.80506,77.38836],[12.80529,77.38838],[12.8056,77.38846],[12.80582,77.38856],[12.80609,77.38865],[12.80618,77.38871],[12.80684,77.38903]],"stops":[{"id":"24863","name":"Depot-36 Gate","lat":12.7684,"lon":77.41397,"sequence":1},{"id":"35564","name":"Abbanakuppe","lat":12.77413,"lon":77.40941,"sequence":2},{"id":"30444","name":"Jogera Doddy","lat":12.77958,"lon":77.40512,"sequence":3},{"id":"24711","name":"Coca Cola Byramangala","lat":12.78086,"lon":77.40412,"sequence":4},{"id":"28251","name":"Shanimahathma Temple","lat":12.78633,"lon":77.39983,"sequence":5},{"id":"28940","name":"Medanahalli","lat":12.78912,"lon":77.39841,"sequence":6},{"id":"35399","name":"Byramangala Cross","lat":12.80222,"lon":77.39714,"sequence":7},{"id":"21466","name":"Bidadi Railway Station","lat":12.79973,"lon":77.39107,"sequence":8},{"id":"35913","name":"Bidadi","lat":12.7969,"lon":77.38458,"sequence":9},{"id":"21465","name":"Bidadi","lat":12.79678,"lon":77.38496,"sequence":10},{"id":"33480","name":"K H B Colony","lat":12.80272,"lon":77.38582,"sequence":11},{"id":"32751","name":"Govt First Grade College Bidadi","lat":12.80685,"lon":77.38901,"sequence":12}]}]}