{"short_name":"D39-HSKTTMC","long_name":"Hosakote Bus Station (TTMC) ⇔ Depot-39 Hoskote","directions":[{"direction":"UP","headsign":"Hosakote Bus Station (TTMC)","path":[[13.068321,77.78172],[13.06885,77.78189],[13.06891,77.78187],[13.06906,77.78177],[13.06801,77.77985],[13.06777,77.77935],[13.06706,77.77809],[13.06674,77.77757],[13.0664,77.77713],[13.06616,77.77687],[13.06589,77.77663],[13.06458,77.77553],[13.06223,77.77339],[13.06099,77.77234],[13.06123,77.77201],[13.06336,77.77393],[13.06415,77.77469],[13.0648,77.77525],[13.06495,77.77535],[13.06573,77.77604],[13.06644,77.77672],[13.06687,77.77719],[13.06716,77.77757],[13.06771,77.77853],[13.06824,77.77954],[13.06933,77.78156],[13.07033,77.78336],[13.07099,77.78465],[13.07231,77.78699],[13.07199,77.78703],[13.0719,77.78686],[13.070771,77.7849],[13.07048,77.78505],[13.07031,77.78468]],"stops":[{"id":"32434","name":"Depot-39 Hoskote","lat":13.06832,"lon":77.78173,"sequence":1},{"id":"36725","name":"Depot-39 Gate","lat":13.06905,"lon":77.78178,"sequence":2},{"id":"22050","name":"Hosakote High School","lat":13.07048,"lon":77.78364,"sequence":3},{"id":"32978","name":"Hosakote K E B Circle","lat":13.07232,"lon":77.78701,"sequence":4},{"id":"36152","name":"Hosakote Bus Station (TTMC)","lat":13.07031,"lon":77.78468,"sequence":5}]},{"direction":"DOWN","headsign":"Depot-39 Hoskote","path":[[13.070261,77.78471],[13.07048,77.78505],[13.07076,77.78488],[13.06906,77.78177],[13.06891,77.78187],[13.06885,77.78189],[13.06832,77.78173]],"stops":[{"id":"36152","name":"Hosakote Bus Station (TTMC)","lat":13.07031,"lon":77.78468,"sequence":1},{"id":"22051","name":"Hosakote High School","lat":13.07012,"lon":77.78375,"sequence":2},{"id":"36725","name":"Depot-39 Gate","lat":13.06905,"lon":77.78178,"sequence":3},{"id":"32434","name":"Depot-39 Hoskote","lat":13.06832,"lon":77.78173,"sequence":4}]}]}