{"short_name":"D39G-HSK","long_name":"Hosakote Bus Stand (Old) ⇔ Depot-39 Hoskote","directions":[{"direction":"DOWN","headsign":"Depot-39 Hoskote","path":[[13.078756,77.78771],[13.07871,77.78832],[13.07866,77.78847],[13.0786,77.78832],[13.07862,77.78798],[13.0787,77.78724],[13.07875,77.78707],[13.07863,77.78702],[13.07837,77.78695],[13.0778,77.78685],[13.07732,77.78673],[13.07713,77.78666],[13.07639,77.78653],[13.07602,77.7865],[13.07549,77.78641],[13.07525,77.78638],[13.07502,77.7864],[13.07453,77.78651],[13.07437,77.78656],[13.0736,77.78674],[13.0731,77.78688],[13.07302,77.78688],[13.0721,77.78704],[13.072,77.78705],[13.07068,77.78486],[13.07023,77.78466],[13.07027,77.78456],[13.07033,77.78415],[13.06906,77.78177],[13.06891,77.78187],[13.06885,77.78189],[13.068589,77.781815]],"stops":[{"id":"22046","name":"Hosakote Bus Stand (Old)","lat":13.0787,"lon":77.78774,"sequence":1},{"id":"22049","name":"Hosakote Flower Market","lat":13.07531,"lon":77.78639,"sequence":2},{"id":"25997","name":"Hosakote K E B Circle","lat":13.072,"lon":77.78705,"sequence":3},{"id":"36152","name":"Hosakote Bus Station (TTMC)","lat":13.07031,"lon":77.78468,"sequence":4},{"id":"22051","name":"Hosakote High School","lat":13.07012,"lon":77.78375,"sequence":5},{"id":"32434","name":"Depot-39 Hoskote","lat":13.06832,"lon":77.78173,"sequence":6}]}]}