{"short_name":"D40-DSP","long_name":"Dasanapura ⇔ Depot-40 Dasanapura","directions":[{"direction":"UP","headsign":"Dasanapura","path":[[13.073925,77.44489],[13.07387,77.44519],[13.07376,77.44517],[13.07371,77.44509],[13.07364,77.44517],[13.07331,77.44523],[13.07258,77.4452],[13.07217,77.44527],[13.07205,77.44536],[13.07159,77.44593],[13.07151,77.44599],[13.07144,77.44601],[13.07031,77.44595],[13.0701,77.44592],[13.06949,77.44708],[13.06903,77.4479],[13.06893,77.44781],[13.06874,77.44769],[13.06932,77.4466],[13.06967,77.44602],[13.07057,77.44439],[13.07113,77.44334],[13.07182,77.44212],[13.07258,77.44071],[13.07351,77.43908],[13.075218,77.43598]],"stops":[{"id":"32435","name":"Depot-40 Dasanapura","lat":13.07402,"lon":77.44491,"sequence":1},{"id":"38537","name":"Ravuthanahalli Cross","lat":13.07334,"lon":77.43938,"sequence":2},{"id":"24788","name":"Dasanapura","lat":13.07523,"lon":77.43599,"sequence":3}]},{"direction":"DOWN","headsign":"Depot-40 Dasanapura","path":[[13.075413,77.436356],[13.07519,77.43674],[13.07454,77.43793],[13.07397,77.43892],[13.07374,77.43937],[13.07353,77.43972],[13.07322,77.44031],[13.0722,77.44217],[13.0701,77.44592],[13.07031,77.44595],[13.07144,77.44601],[13.07151,77.44599],[13.07159,77.44593],[13.07205,77.44536],[13.07217,77.44527],[13.07258,77.4452],[13.07331,77.44523],[13.07364,77.44517],[13.07371,77.44509],[13.07376,77.44517],[13.07387,77.44519],[13.073925,77.44489]],"stops":[{"id":"21873","name":"Dasanapura","lat":13.07542,"lon":77.43636,"sequence":1},{"id":"38538","name":"Ravuthanahalli Cross","lat":13.07362,"lon":77.43959,"sequence":2},{"id":"32435","name":"Depot-40 Dasanapura","lat":13.07402,"lon":77.44491,"sequence":3}]}]}