{"short_name":"D45-ATR","long_name":"Atturu ⇔ Depot-45 Gate","directions":[{"direction":"UP","headsign":"Atturu","path":[[13.08295,77.55067],[13.08319,77.55087],[13.08367,77.55134],[13.08407,77.55167],[13.08436,77.55194],[13.08455,77.55216],[13.08465,77.55236],[13.08471,77.55267],[13.08478,77.55289],[13.08488,77.55306],[13.08533,77.55369],[13.08555,77.55417],[13.08597,77.55523],[13.08605,77.55541],[13.0861,77.5555],[13.08615,77.55554],[13.0862,77.55557],[13.08638,77.55563],[13.08698,77.5557],[13.08751,77.5557],[13.08788,77.55565],[13.08826,77.55566],[13.08877,77.5558],[13.08886,77.55584],[13.08914,77.55601],[13.08949,77.55625],[13.08994,77.55653],[13.09009,77.55662],[13.09021,77.55671],[13.09041,77.55695],[13.09125,77.55818],[13.09145,77.55844],[13.09241,77.5595],[13.09284,77.55999],[13.09321,77.56038],[13.09339,77.56059],[13.09401,77.56119],[13.09409,77.56124],[13.09429,77.5613],[13.09462,77.56137],[13.09511,77.56151],[13.09559,77.56172],[13.09695,77.56244],[13.09731,77.56261],[13.09768,77.56283],[13.09774,77.56289],[13.09777,77.56296],[13.09776,77.56306],[13.09764,77.56371],[13.09762,77.56389],[13.09762,77.56408],[13.09765,77.56465],[13.09786,77.56708],[13.09805,77.56706],[13.09844,77.567],[13.09926,77.56695],[13.1001,77.56691],[13.10072,77.56686],[13.1014,77.56687],[13.10247,77.56695],[13.10336,77.56685],[13.10365,77.5668],[13.10393,77.56673],[13.10434,77.56663],[13.10519,77.56636],[13.10588,77.56607],[13.10624,77.56589],[13.1065,77.56578]],"stops":[{"id":"35044","name":"Depot-45 Gate","lat":13.08298,"lon":77.55066,"sequence":1},{"id":"22097","name":"Jalli Machine","lat":13.08606,"lon":77.55537,"sequence":2},{"id":"21833","name":"Chikka Bettahalli","lat":13.0895,"lon":77.55623,"sequence":3},{"id":"21750","name":"Bettahalli Layout","lat":13.09242,"lon":77.55946,"sequence":4},{"id":"22552","name":"Thirumala Dhaba","lat":13.09774,"lon":77.56304,"sequence":5},{"id":"38903","name":"Atturu Layout","lat":13.09789,"lon":77.56703,"sequence":6},{"id":"29590","name":"Atturu Layout Vegetable Market","lat":13.10078,"lon":77.56685,"sequence":7},{"id":"23214","name":"Atturu","lat":13.10649,"lon":77.56577,"sequence":8}]},{"direction":"DOWN","headsign":"Depot-45 Gate","path":[[13.1065,77.56578],[13.10624,77.56589],[13.10588,77.56607],[13.10519,77.56636],[13.10434,77.56663],[13.10393,77.56673],[13.10365,77.5668],[13.10336,77.56685],[13.10247,77.56695],[13.1014,77.56687],[13.10072,77.56686],[13.1001,77.56691],[13.09926,77.56695],[13.09844,77.567],[13.09805,77.56706],[13.09776,77.56709],[13.09771,77.56607],[13.09756,77.56408],[13.09761,77.56357],[13.09769,77.56314],[13.09769,77.56301],[13.09762,77.56289],[13.09741,77.56275],[13.09704,77.56255],[13.09529,77.56169],[13.09506,77.5616],[13.0949,77.56156],[13.09412,77.56135],[13.09397,77.56128],[13.09389,77.56122],[13.09314,77.56045],[13.09278,77.56006],[13.09239,77.55958],[13.09139,77.5585],[13.09109,77.5581],[13.09025,77.55684],[13.09013,77.55673],[13.08973,77.55648],[13.08903,77.55601],[13.08871,77.55583],[13.08861,77.5558],[13.08825,77.55572],[13.08801,77.5557],[13.08788,77.55571],[13.08777,77.55573],[13.0874,77.55576],[13.0871,77.55576],[13.08637,77.55569],[13.08619,77.55564],[13.08611,77.5556],[13.08606,77.55555],[13.08594,77.55532],[13.08542,77.55401],[13.08533,77.55381],[13.08476,77.55298],[13.08467,77.55275],[13.08461,77.5524],[13.08455,77.55228],[13.08432,77.55199],[13.08364,77.55139],[13.08316,77.55092],[13.08303,77.5508],[13.08291,77.55071]],"stops":[{"id":"23211","name":"Atturu","lat":13.10653,"lon":77.56578,"sequence":1},{"id":"35662","name":"Atturu Layout Vegetable Market","lat":13.10081,"lon":77.56689,"sequence":2},{"id":"38904","name":"Atturu Layout","lat":13.09791,"lon":77.56706,"sequence":3},{"id":"22551","name":"Thirumala Dhaba","lat":13.09762,"lon":77.563,"sequence":4},{"id":"21749","name":"Bettahalli Layout","lat":13.0923,"lon":77.55954,"sequence":5},{"id":"21832","name":"Chikka Bettahalli","lat":13.08945,"lon":77.55629,"sequence":6},{"id":"22096","name":"Jalli Machine","lat":13.08601,"lon":77.55551,"sequence":7},{"id":"36327","name":"Depot-45 Gate","lat":13.0829,"lon":77.55072,"sequence":8}]}]}