{"short_name":"D45G-YST","long_name":"Yelahanka Satellite Town ⇔ Depot-45 Gate","directions":[{"direction":"UP","headsign":"Yelahanka Satellite Town","path":[[13.08296,77.55066],[13.08308,77.55075],[13.08369,77.55133],[13.08383,77.55137],[13.08411,77.55159],[13.0844,77.55187],[13.08453,77.55202],[13.08464,77.55217],[13.08469,77.5523],[13.08473,77.5527],[13.08475,77.55276],[13.0849,77.55304],[13.08501,77.55321],[13.08518,77.55342],[13.08534,77.55368],[13.08552,77.55409],[13.08565,77.55446],[13.08599,77.55527],[13.08611,77.55547],[13.08631,77.55557],[13.08656,77.55562],[13.08699,77.55566],[13.08751,77.55567],[13.08779,77.55562],[13.08812,77.55561],[13.08841,77.55566],[13.08872,77.55576],[13.08894,77.55586],[13.08949,77.55623],[13.08996,77.55649],[13.09023,77.55668],[13.09032,77.55678],[13.09126,77.55817],[13.09148,77.55843],[13.09242,77.55947],[13.09375,77.5609],[13.09408,77.56115],[13.09512,77.56145],[13.09604,77.5619],[13.09634,77.56205],[13.09733,77.56263],[13.09762,77.56278],[13.09768,77.56284],[13.09771,77.5629],[13.09773,77.56302],[13.09761,77.56378],[13.09759,77.56403],[13.09782,77.5668],[13.09788,77.56724],[13.09792,77.56779],[13.09798,77.56812],[13.09803,77.56865],[13.09807,77.56928],[13.0981,77.56953],[13.09812,77.57025],[13.09816,77.5706],[13.09845,77.57227],[13.09879,77.57401],[13.0989,77.5745],[13.09895,77.57481],[13.099,77.57487],[13.09907,77.57501],[13.09934,77.57646],[13.0994,77.5767],[13.09953,77.57708],[13.09905,77.57726],[13.09881,77.57733],[13.09821,77.57757],[13.09744,77.57795],[13.09687,77.57829],[13.0964,77.57864],[13.095916,77.57905]],"stops":[{"id":"35044","name":"Depot-45 Gate","lat":13.08298,"lon":77.55066,"sequence":1},{"id":"22097","name":"Jalli Machine","lat":13.08606,"lon":77.55537,"sequence":2},{"id":"21833","name":"Chikka Bettahalli","lat":13.0895,"lon":77.55623,"sequence":3},{"id":"21750","name":"Bettahalli Layout","lat":13.09242,"lon":77.55946,"sequence":4},{"id":"22552","name":"Thirumala Dhaba","lat":13.09774,"lon":77.56304,"sequence":5},{"id":"21676","name":"Atturu Layout","lat":13.09792,"lon":77.56753,"sequence":6},{"id":"29041","name":"Mother Dairy Yelahanka","lat":13.09894,"lon":77.57444,"sequence":7},{"id":"22301","name":"Mother Dairy Cross Yelahanka","lat":13.09954,"lon":77.57707,"sequence":8},{"id":"22821","name":"Yelahanka Satellite Town","lat":13.09596,"lon":77.5791,"sequence":9}]}]}