{"short_name":"D45G-VRP","long_name":"Vidyaranyapura Bus Station ⇔ Depot-45 Gate","directions":[{"direction":"UP","headsign":"Vidyaranyapura Bus Station","path":[[13.08295,77.55067],[13.08319,77.55087],[13.08367,77.55134],[13.08407,77.55167],[13.08436,77.55194],[13.08455,77.55216],[13.08465,77.55236],[13.08471,77.55267],[13.08478,77.55289],[13.08488,77.55306],[13.08533,77.55369],[13.08555,77.55417],[13.08597,77.55523],[13.0861,77.5555],[13.08597,77.55572],[13.08572,77.55627],[13.08558,77.55664],[13.08518,77.55761],[13.08492,77.55829],[13.0844,77.55976],[13.08422,77.56012],[13.0841,77.56023],[13.08393,77.56031],[13.08409,77.56048],[13.083879,77.5608]],"stops":[{"id":"35044","name":"Depot-45 Gate","lat":13.08298,"lon":77.55066,"sequence":1},{"id":"22098","name":"Jalli Machine","lat":13.08605,"lon":77.5556,"sequence":2},{"id":"22604","name":"Vidyaranyapura Bus Station","lat":13.08374,"lon":77.5607,"sequence":3}]},{"direction":"DOWN","headsign":"Depot-45 Gate","path":[[13.083879,77.5608],[13.08409,77.56048],[13.08395,77.56026],[13.08411,77.56019],[13.08425,77.56006],[13.0843,77.55998],[13.08479,77.55868],[13.08572,77.55626],[13.08594,77.55575],[13.08606,77.55554],[13.08596,77.55541],[13.08552,77.55434],[13.08524,77.55373],[13.08507,77.55347],[13.08486,77.55321],[13.08483,77.55311],[13.0847,77.55287],[13.08465,77.55264],[13.08462,77.5524],[13.08457,77.55219],[13.08424,77.55183],[13.08403,77.55166],[13.08374,77.55156],[13.08346,77.55131],[13.0829,77.55074]],"stops":[{"id":"22604","name":"Vidyaranyapura Bus Station","lat":13.08374,"lon":77.5607,"sequence":1},{"id":"22096","name":"Jalli Machine","lat":13.08601,"lon":77.55551,"sequence":2},{"id":"36327","name":"Depot-45 Gate","lat":13.0829,"lon":77.55072,"sequence":3}]}]}