{"short_name":"D47-MRS","long_name":"Marasandra ⇔ Depot-47 Manduru","directions":[{"direction":"UP","headsign":"Marasandra","path":[[13.085646,77.73158],[13.08581,77.73118],[13.08508,77.73057],[13.08495,77.7305],[13.08458,77.73037],[13.08453,77.73026],[13.08442,77.73012],[13.08363,77.72929],[13.08327,77.72892],[13.0832,77.72882],[13.08314,77.72865],[13.08312,77.72853],[13.08285,77.72422],[13.08276,77.72328],[13.08273,77.72304],[13.08241,77.72134],[13.08234,77.72089],[13.0822,77.71935],[13.08168,77.71594],[13.08205,77.71573],[13.08228,77.71563],[13.08268,77.71553],[13.08329,77.71541],[13.08396,77.71535],[13.08496,77.7153],[13.08558,77.71522],[13.08578,77.7152],[13.08597,77.71517],[13.08667,77.71509],[13.08676,77.71505],[13.08681,77.71499],[13.08684,77.71494],[13.08681,77.71491],[13.08682,77.71486],[13.08686,77.71484],[13.0869,77.71487],[13.08732,77.71469],[13.08746,77.7146],[13.08755,77.71447],[13.08759,77.71444],[13.08764,77.71443],[13.08792,77.71446],[13.08822,77.71451],[13.08892,77.71458],[13.08968,77.71469],[13.08982,77.7147],[13.09049,77.7147],[13.09096,77.71466],[13.09164,77.71462],[13.09188,77.71462],[13.09255,77.71467],[13.09313,77.71474],[13.09408,77.71489],[13.09535,77.71513],[13.09601,77.71519],[13.0973,77.71534],[13.09781,77.71546],[13.09824,77.71546],[13.09865,77.71543],[13.09936,77.71533],[13.09951,77.71529],[13.09962,77.71521]],"stops":[{"id":"35708","name":"Depot-47 Manduru","lat":13.08535,"lon":77.73146,"sequence":1},{"id":"32071","name":"Kammasandra Gate","lat":13.0817,"lon":77.7159,"sequence":2},{"id":"25616","name":"Gundur","lat":13.08672,"lon":77.71505,"sequence":3},{"id":"33833","name":"Marasandra","lat":13.09966,"lon":77.71519,"sequence":4}]},{"direction":"DOWN","headsign":"Depot-47 Manduru","path":[[13.09962,77.71521],[13.09951,77.71529],[13.09936,77.71533],[13.09865,77.71543],[13.09824,77.71546],[13.09781,77.71546],[13.0973,77.71534],[13.09601,77.71519],[13.09535,77.71513],[13.09408,77.71489],[13.09313,77.71474],[13.09255,77.71467],[13.09188,77.71462],[13.09164,77.71462],[13.09096,77.71466],[13.09049,77.7147],[13.08982,77.7147],[13.08968,77.71469],[13.08892,77.71458],[13.08822,77.71451],[13.08792,77.71446],[13.08764,77.71443],[13.08759,77.71444],[13.08755,77.71447],[13.08746,77.7146],[13.0874,77.71465],[13.08732,77.71469],[13.0869,77.71487],[13.08689,77.71493],[13.08687,77.71494],[13.08684,77.71494],[13.08676,77.71505],[13.08667,77.71509],[13.08597,77.71517],[13.08578,77.7152],[13.08558,77.71522],[13.08496,77.7153],[13.08396,77.71535],[13.08329,77.71541],[13.08268,77.71553],[13.08228,77.71563],[13.08205,77.71573],[13.08168,77.71594],[13.0822,77.71935],[13.08234,77.72089],[13.08241,77.72134],[13.08273,77.72304],[13.08276,77.72328],[13.08285,77.72422],[13.08312,77.72853],[13.08314,77.72865],[13.0832,77.72882],[13.08327,77.72892],[13.08363,77.72929],[13.08442,77.73012],[13.08453,77.73026],[13.08458,77.73037],[13.08495,77.7305],[13.08508,77.73057],[13.08581,77.73118],[13.085646,77.73158]],"stops":[{"id":"33833","name":"Marasandra","lat":13.09966,"lon":77.71519,"sequence":1},{"id":"32791","name":"Gundur","lat":13.08676,"lon":77.71507,"sequence":2},{"id":"30724","name":"Kammasandra Gate","lat":13.0817,"lon":77.71596,"sequence":3},{"id":"35708","name":"Depot-47 Manduru","lat":13.08535,"lon":77.73146,"sequence":4}]}]}