{"short_name":"D48G-KNP-NNH","long_name":"Nagaresh Nagenahalli ⇔ Depot-48 Gate","directions":[{"direction":"UP","headsign":"Nagaresh Nagenahalli","path":[[13.077521,77.654655],[13.07787,77.65362],[13.07791,77.65353],[13.07766,77.65328],[13.07733,77.65291],[13.07714,77.65275],[13.07671,77.65244],[13.07587,77.65192],[13.07543,77.65169],[13.07529,77.65164],[13.07504,77.65159],[13.0746,77.65156],[13.07232,77.65152],[13.0719,77.65154],[13.07155,77.65157],[13.07058,77.65162],[13.07021,77.65163],[13.06953,77.65167],[13.06896,77.65173],[13.06819,77.65179],[13.06727,77.65186],[13.06639,77.65191],[13.064618,77.651924],[13.06443,77.65186],[13.06434,77.65178],[13.06419,77.65158],[13.06412,77.65146],[13.06404,77.65127],[13.06393,77.6506],[13.06387,77.65045],[13.06378,77.6503],[13.0639,77.65012],[13.06398,77.64995],[13.06406,77.6497],[13.06416,77.64938],[13.06426,77.64891],[13.06456,77.64777],[13.06475,77.64724],[13.06482,77.64695],[13.06503,77.64542],[13.06525,77.64476],[13.06575,77.64315],[13.06606,77.64203],[13.06636,77.64071],[13.06698,77.64098],[13.06775,77.64129],[13.06793,77.64137],[13.06802,77.64143],[13.06838,77.64162],[13.06903,77.6419],[13.06958,77.64205],[13.06982,77.64223],[13.07015,77.64252],[13.070232,77.64263]],"stops":[{"id":"35042","name":"Depot-48 Gate","lat":13.07753,"lon":77.65469,"sequence":1},{"id":"21795","name":"Byrathi Bande","lat":13.07788,"lon":77.65345,"sequence":2},{"id":"22397","name":"Poornaprajna School","lat":13.07538,"lon":77.65169,"sequence":3},{"id":"21762","name":"Bible College Byrathi","lat":13.07145,"lon":77.65159,"sequence":4},{"id":"21985","name":"Gubbi Cross","lat":13.06462,"lon":77.6519,"sequence":5},{"id":"29820","name":"BDS Nagara","lat":13.0657,"lon":77.64308,"sequence":6},{"id":"33199","name":"K Narayanapura Main Bus Stand","lat":13.06639,"lon":77.6407,"sequence":7},{"id":"34043","name":"Nagaresh Nagenahalli","lat":13.07029,"lon":77.64259,"sequence":8}]}]}