{"short_name":"D6G-CVRN","long_name":"CV Raman Nagara ⇔ Depot-06 Gate","directions":[{"direction":"DOWN","headsign":"Depot-06 Gate","path":[[12.98555,77.66391],[12.98567,77.66388],[12.98619,77.66388],[12.98723,77.66384],[12.98738,77.66193],[12.98738,77.66197],[12.98742,77.66158],[12.98573,77.66144],[12.98558,77.66147],[12.98512,77.66141],[12.98425,77.66111],[12.98415,77.66105],[12.98406,77.66095],[12.98404,77.66088],[12.98407,77.66051],[12.98406,77.66038],[12.98387,77.65983],[12.98386,77.6597],[12.98343,77.65908],[12.98338,77.65899],[12.98326,77.65885],[12.98316,77.65871],[12.98304,77.65868],[12.98282,77.65857],[12.98271,77.65854],[12.98245,77.65853],[12.98215,77.6585],[12.98157,77.65846],[12.98141,77.65844],[12.98137,77.6584],[12.98133,77.65833],[12.98101,77.65754],[12.98068,77.65658],[12.98019,77.65539],[12.98001,77.65489],[12.98002,77.65474],[12.97933,77.65318],[12.97929,77.6532],[12.97926,77.6532],[12.97888,77.65352],[12.97744,77.65492],[12.97739,77.65495],[12.97734,77.65496],[12.97719,77.65495],[12.97701,77.65488],[12.97693,77.6548],[12.97631,77.6554],[12.97565,77.65601],[12.9752,77.65638],[12.97417,77.65716],[12.97302,77.65786],[12.97165,77.65858],[12.97146,77.65869],[12.97145,77.65859],[12.97146,77.65869],[12.97104,77.65889],[12.97012,77.65948],[12.96879,77.66037],[12.96679,77.66168],[12.96678,77.66161],[12.96681,77.66128],[12.96689,77.66073],[12.967,77.6597],[12.96699,77.65964],[12.96701,77.6596],[12.96706,77.65959],[12.96735,77.65721],[12.96752,77.65606],[12.96779,77.6538],[12.96795,77.65277],[12.96801,77.65226],[12.96817,77.65144],[12.9684,77.65062],[12.96851,77.65014],[12.96877,77.64876],[12.96886,77.64812],[12.9689,77.64771],[12.9698,77.64751],[12.97269,77.64698],[12.9728,77.64697],[12.97408,77.64686],[12.97429,77.6468],[12.97496,77.64673],[12.9758,77.64669],[12.97648,77.64664],[12.97756,77.6466],[12.97797,77.64657],[12.97852,77.64654],[12.97852,77.64593],[12.97844,77.6442],[12.97834,77.64081],[12.97857,77.64081],[12.97953,77.64075],[12.97997,77.64073],[12.98023,77.64071],[12.98247,77.6406],[12.98339,77.64059],[12.98404,77.64054],[12.98315,77.63814],[12.98288,77.6375],[12.98274,77.63701],[12.98269,77.6368],[12.98262,77.6363],[12.982432,77.634254]],"stops":[{"id":"24744","name":"CV Raman Nagara","lat":12.98564,"lon":77.66401,"sequence":1},{"id":"21926","name":"DRDO Quarters","lat":12.98551,"lon":77.66147,"sequence":2},{"id":"21702","name":"Bagmane Tech Park","lat":12.98065,"lon":77.65654,"sequence":3},{"id":"21653","name":"A P J Abdul Kalam Statue","lat":12.97977,"lon":77.65418,"sequence":4},{"id":"21960","name":"Geetanjali Layout","lat":12.97691,"lon":77.65482,"sequence":5},{"id":"21743","name":"BEML Gate","lat":12.97146,"lon":77.65859,"sequence":6},{"id":"26323","name":"Jeevan Bheemanagara Cross","lat":12.96679,"lon":77.66134,"sequence":7},{"id":"35941","name":"JBN Petrol Bunk","lat":12.96739,"lon":77.65645,"sequence":8},{"id":"22180","name":"Kodihalli","lat":12.96851,"lon":77.64976,"sequence":9},{"id":"22549","name":"Thippasandra","lat":12.97361,"lon":77.64689,"sequence":10},{"id":"24707","name":"CMH Hospital","lat":12.97849,"lon":77.64655,"sequence":11},{"id":"22389","name":"Indiranagara Police Station/KFC","lat":12.97857,"lon":77.6408,"sequence":12},{"id":"20671","name":"Binnamangala","lat":12.98384,"lon":77.64002,"sequence":13},{"id":"20742","name":"Depot-06 Gate","lat":12.9824,"lon":77.6344,"sequence":14}]}]}