{"short_name":"D6G-SOQ","long_name":"Depot-06 Gate ⇔ Senior Officers Quaters","directions":[{"direction":"UP","headsign":"Senior Officers Quaters","path":[[12.982603,77.63503],[12.98269,77.6363],[12.98272,77.63653],[12.98282,77.63697],[12.98297,77.63748],[12.9831,77.63785],[12.9836,77.63919],[12.98393,77.64003],[12.98418,77.64063],[12.98247,77.64071],[12.97843,77.64093],[12.97844,77.64162],[12.97851,77.64343],[12.97852,77.64419],[12.9786,77.64573],[12.97859,77.64653],[12.97858,77.6466],[12.97855,77.64668],[12.97783,77.64668],[12.97739,77.6467],[12.97528,77.64683],[12.97443,77.6469],[12.97422,77.64689],[12.97408,77.64686],[12.97371,77.646904],[12.97269,77.64698],[12.9698,77.64751],[12.9689,77.64771],[12.96886,77.64812],[12.96877,77.64876],[12.96851,77.65014],[12.9684,77.65062],[12.96817,77.65144],[12.96801,77.65226],[12.96795,77.65277],[12.96779,77.6538],[12.96768,77.65471],[12.9679,77.65473],[12.968118,77.65478]],"stops":[{"id":"20741","name":"Depot-06 Gate","lat":12.98255,"lon":77.63434,"sequence":1},{"id":"20672","name":"Binnamangala","lat":12.98331,"lon":77.63834,"sequence":2},{"id":"22390","name":"Indiranagara Police Station/KFC","lat":12.97849,"lon":77.6412,"sequence":3},{"id":"35942","name":"CMH Hospital","lat":12.97838,"lon":77.64668,"sequence":4},{"id":"22548","name":"Thippasandra","lat":12.97371,"lon":77.6469,"sequence":5},{"id":"31156","name":"Kodihalli","lat":12.96857,"lon":77.64962,"sequence":6},{"id":"38215","name":"Senior Officers Quaters","lat":12.96812,"lon":77.65477,"sequence":7}]}]}