{"short_name":"D6G-GBJCG","long_name":"GBJ Colony Gate Doddanekkundi ⇔ Depot-06 Gate","directions":[{"direction":"UP","headsign":"GBJ Colony Gate Doddanekkundi","path":[[12.982603,77.63503],[12.98269,77.6363],[12.98272,77.63653],[12.98282,77.63697],[12.98297,77.63748],[12.9836,77.63919],[12.98433,77.64101],[12.98482,77.64245],[12.9862,77.64614],[12.98681,77.64759],[12.98697,77.64801],[12.9869,77.64805],[12.98669,77.64807],[12.98632,77.64808],[12.98575,77.64822],[12.98544,77.64835],[12.985,77.64858],[12.98366,77.64935],[12.98365,77.64938],[12.98359,77.64941],[12.98345,77.6495],[12.98288,77.64984],[12.98142,77.65074],[12.98082,77.65119],[12.98036,77.65156],[12.97965,77.65218],[12.97903,77.65277],[12.97856,77.65325],[12.97711,77.65462],[12.97631,77.6554],[12.97565,77.65601],[12.9752,77.65638],[12.97447,77.65694],[12.97398,77.65728],[12.97302,77.65786],[12.97165,77.65858],[12.97146,77.65869],[12.97104,77.65889],[12.97012,77.65948],[12.96879,77.66037],[12.96687,77.66162],[12.96498,77.66295],[12.96192,77.66501],[12.9614,77.66541],[12.96092,77.66583],[12.96071,77.66598],[12.96064,77.66604],[12.96026,77.66626],[12.95993,77.66636],[12.9596,77.6664],[12.95892,77.66641],[12.95876,77.66641],[12.95839,77.66636],[12.95833,77.66666],[12.95825,77.66727],[12.95806,77.67044],[12.95797,77.67162],[12.95789,77.67229],[12.95778,77.67289],[12.95764,77.67333],[12.95726,77.67428],[12.95581,77.67731],[12.95527,77.6785],[12.95471,77.67968],[12.95457,77.68],[12.95452,77.6802],[12.9545,77.68036],[12.9545,77.68078],[12.95452,77.68105],[12.95489,77.68534],[12.95506,77.68712],[12.95512,77.68759],[12.95583,77.69171],[12.95642,77.69161],[12.95754,77.69139]],"stops":[{"id":"20741","name":"Depot-06 Gate","lat":12.98255,"lon":77.63434,"sequence":1},{"id":"20672","name":"Binnamangala","lat":12.98331,"lon":77.63834,"sequence":2},{"id":"22527","name":"Swamy Vivekananda Metro Station/Isolation Hospital","lat":12.9858,"lon":77.64501,"sequence":3},{"id":"26771","name":"Suranjan Das Road/NGEF","lat":12.98643,"lon":77.6481,"sequence":4},{"id":"25560","name":"GTRE Engine Division","lat":12.9836,"lon":77.64942,"sequence":5},{"id":"21960","name":"Geetanjali Layout","lat":12.97691,"lon":77.65482,"sequence":6},{"id":"24153","name":"BEML Gate","lat":12.9713,"lon":77.6588,"sequence":7},{"id":"33126","name":"Jeevanbheema Nagara Cross","lat":12.96686,"lon":77.66166,"sequence":8},{"id":"23120","name":"Annasandrapalya Cross","lat":12.96039,"lon":77.66622,"sequence":9},{"id":"25675","name":"HAL Main Gate","lat":12.95862,"lon":77.6664,"sequence":10},{"id":"22021","name":"Helicopter Division","lat":12.95582,"lon":77.67735,"sequence":11},{"id":"22001","name":"HAL Kalyana Mantap","lat":12.9546,"lon":77.68215,"sequence":12},{"id":"22627","name":"Yamalur Cross","lat":12.95525,"lon":77.68829,"sequence":13},{"id":"32517","name":"Dodda Nekkundi Junction","lat":12.95607,"lon":77.69166,"sequence":14},{"id":"32660","name":"GBJ Colony Gate Doddanekkundi","lat":12.95753,"lon":77.69134,"sequence":15}]}]}