{"short_name":"HPN-CLO","long_name":"Chandra Layout ⇔ Hampinagara RPC Layout","directions":[{"direction":"UP","headsign":"Chandra Layout","path":[[12.958765,77.53568],[12.95853,77.53545],[12.95833,77.53516],[12.95778,77.53421],[12.95773,77.53409],[12.95766,77.53397],[12.95811,77.53376],[12.95957,77.53316],[12.95984,77.53305],[12.96003,77.53301],[12.95996,77.5323],[12.95993,77.53184],[12.95993,77.53164],[12.95996,77.53145],[12.96025,77.53074],[12.96042,77.53015],[12.96054,77.52961],[12.95876,77.52896],[12.95757,77.52859],[12.95703,77.52837],[12.95746,77.52776],[12.9576,77.52754],[12.95825,77.52632],[12.959249,77.52671]],"stops":[{"id":"22013","name":"Hampinagara RPC Layout","lat":12.95872,"lon":77.53575,"sequence":1},{"id":"20613","name":"Attiguppe","lat":12.95789,"lon":77.53385,"sequence":2},{"id":"20852","name":"Income Tax Layout","lat":12.96007,"lon":77.53112,"sequence":3},{"id":"20714","name":"Chandra Public School","lat":12.96046,"lon":77.52963,"sequence":4},{"id":"20779","name":"Ganesha Temple Chandra Layout","lat":12.95803,"lon":77.52876,"sequence":5},{"id":"20712","name":"Chandra Layout Circle","lat":12.95815,"lon":77.5265,"sequence":6},{"id":"22776","name":"Chandra Layout","lat":12.95925,"lon":77.52671,"sequence":7}]},{"direction":"DOWN","headsign":"Hampinagara RPC Layout","path":[[12.959249,77.52671],[12.95832,77.52635],[12.95783,77.52737],[12.95757,77.52781],[12.95731,77.52819],[12.95736,77.52836],[12.95741,77.52843],[12.95757,77.52859],[12.95876,77.52896],[12.96054,77.52961],[12.96049,77.52987],[12.96035,77.53041],[12.96019,77.5309],[12.95996,77.53145],[12.95993,77.53164],[12.95996,77.5323],[12.96005,77.53317],[12.95987,77.53321],[12.9596,77.5333],[12.95886,77.5336],[12.95773,77.53409],[12.95778,77.53421],[12.95833,77.53516],[12.95853,77.53545],[12.958765,77.53568]],"stops":[{"id":"22776","name":"Chandra Layout","lat":12.95925,"lon":77.52671,"sequence":1},{"id":"20713","name":"Chandra Layout Circle","lat":12.95817,"lon":77.52669,"sequence":2},{"id":"20780","name":"Ganesha Temple Chandra Layout","lat":12.95772,"lon":77.52863,"sequence":3},{"id":"20715","name":"Chandra Public School","lat":12.96029,"lon":77.52954,"sequence":4},{"id":"20853","name":"Income Tax Layout","lat":12.96014,"lon":77.53108,"sequence":5},{"id":"35427","name":"Attiguppe","lat":12.95809,"lon":77.53395,"sequence":6},{"id":"22013","name":"Hampinagara RPC Layout","lat":12.95872,"lon":77.53575,"sequence":7}]}]}