{"short_name":"K-2 HBL-BELF","long_name":"BEL Factory ⇔ Hebbala","directions":[{"direction":"DOWN","headsign":"Hebbala","path":[[13.048849,77.55861],[13.04883,77.55776],[13.04888,77.55754],[13.04852,77.55755],[13.0474,77.55715],[13.04728,77.55706],[13.04684,77.55691],[13.0461,77.55665],[13.04565,77.5565],[13.04562,77.55654],[13.04554,77.55656],[13.04516,77.55683],[13.04501,77.55692],[13.0446,77.55708],[13.04431,77.55715],[13.04398,77.55744],[13.04393,77.55752],[13.04389,77.55766],[13.04384,77.55799],[13.0438,77.55905],[13.04382,77.55979],[13.04388,77.56086],[13.04391,77.56117],[13.04395,77.5613],[13.044,77.56145],[13.0441,77.56165],[13.04438,77.56207],[13.04459,77.56245],[13.04462,77.5626],[13.04536,77.56374],[13.04576,77.56427],[13.04619,77.56489],[13.04632,77.56512],[13.04644,77.56535],[13.04655,77.56565],[13.04667,77.56606],[13.04674,77.56645],[13.04683,77.56758],[13.04692,77.56838],[13.04694,77.56863],[13.04695,77.56906],[13.04699,77.56941],[13.04708,77.56991],[13.04715,77.56995],[13.04719,77.57001],[13.04724,77.57012],[13.04726,77.57025],[13.04729,77.5709],[13.04735,77.57161],[13.04736,77.57213],[13.04742,77.57292],[13.04741,77.57347],[13.04747,77.57395],[13.04752,77.57493],[13.04753,77.57545],[13.04758,77.57593],[13.04749,77.57591],[13.04714,77.5758],[13.04708,77.57577],[13.04681,77.57556],[13.0467,77.5755],[13.04656,77.57544],[13.04624,77.57534],[13.04577,77.57516],[13.04532,77.57492],[13.04485,77.57471],[13.04456,77.5746],[13.04442,77.57451],[13.04415,77.57417],[13.04386,77.57393],[13.04367,77.57381],[13.04303,77.57348],[13.04263,77.57331],[13.04249,77.57416],[13.04247,77.57444],[13.04247,77.57467],[13.04253,77.57517],[13.04254,77.57593],[13.04262,77.57665],[13.04265,77.57683],[13.04269,77.57729],[13.04268,77.5776],[13.04258,77.57834],[13.04257,77.57848],[13.04257,77.57873],[13.04252,77.57947],[13.0425,77.58004],[13.0425,77.58081],[13.04246,77.58113],[13.04227,77.58218],[13.0421,77.58324],[13.04203,77.5836],[13.04196,77.58385],[13.04188,77.58436],[13.04132,77.58919],[13.041272,77.58942]],"stops":[{"id":"21735","name":"BEL Factory","lat":13.04887,"lon":77.55861,"sequence":1},{"id":"20637","name":"BEL Circle","lat":13.0452,"lon":77.55669,"sequence":2},{"id":"20961","name":"Kuvempu Circle","lat":13.04465,"lon":77.56263,"sequence":3},{"id":"20757","name":"Devinagara Cross","lat":13.047,"lon":77.56904,"sequence":4},{"id":"20660","name":"Bhadrappa Layout","lat":13.04759,"lon":77.57596,"sequence":5},{"id":"20668","name":"Bhoopasandra Ayyappa Bakery","lat":13.04271,"lon":77.57711,"sequence":6},{"id":"20666","name":"Bhoopasandra","lat":13.04247,"lon":77.5808,"sequence":7},{"id":"20817","name":"Hebbala","lat":13.04127,"lon":77.58942,"sequence":8}]}]}