{"short_name":"KLNB-HBRL","long_name":"HBR Layout 5th Block ⇔ Kalyananagara Bus Stand","directions":[{"direction":"UP","headsign":"5th Block HBR Layout","path":[[13.026407,77.638405],[13.02618,77.63961],[13.02604,77.64005],[13.02576,77.64077],[13.02521,77.64201],[13.02467,77.64328],[13.02462,77.64339],[13.02452,77.64338],[13.02442,77.64341],[13.02425,77.64339],[13.02396,77.64337],[13.02473,77.64167],[13.02545,77.64003],[13.02553,77.63983],[13.02559,77.63964],[13.02562,77.63949],[13.02607,77.63701],[13.02621,77.63637],[13.02643,77.63552],[13.0266,77.63494],[13.02692,77.63402],[13.02727,77.63317],[13.02751,77.63266],[13.02762,77.63248],[13.028,77.63277],[13.02905,77.63363],[13.02977,77.63429],[13.03008,77.63455],[13.03017,77.63467],[13.03021,77.63477],[13.03109,77.63548],[13.03137,77.6357],[13.03142,77.63577],[13.03158,77.63591],[13.03234,77.63557],[13.03234,77.63527],[13.03247,77.63501],[13.03253,77.63468],[13.03269,77.63408],[13.03286,77.63362],[13.03328,77.63228],[13.03351,77.63196],[13.03356,77.63184],[13.03442,77.63272],[13.03475,77.63236],[13.03533,77.63183],[13.03564,77.63162],[13.035872,77.631454]],"stops":[{"id":"36441","name":"Kalyananagara Bus Stand","lat":13.02642,"lon":77.63839,"sequence":1},{"id":"35920","name":"Hennur Junction","lat":13.02819,"lon":77.63286,"sequence":2},{"id":"22030","name":"Hennur Cross","lat":13.03158,"lon":77.636,"sequence":3},{"id":"29406","name":"HBR Layout 4th Block","lat":13.03437,"lon":77.63268,"sequence":4},{"id":"29409","name":"5th Block HBR Layout","lat":13.03585,"lon":77.63142,"sequence":5}]},{"direction":"DOWN","headsign":"Kalyananagara Bus Stand","path":[[13.035815,77.63149],[13.03564,77.63162],[13.03533,77.63183],[13.03475,77.63236],[13.03442,77.63272],[13.03356,77.63184],[13.03351,77.63196],[13.03328,77.63228],[13.03286,77.63362],[13.03269,77.63408],[13.03253,77.63468],[13.03247,77.63501],[13.03234,77.63527],[13.03234,77.63557],[13.03158,77.63591],[13.03142,77.63577],[13.03134,77.63574],[13.03105,77.63553],[13.03064,77.63521],[13.03025,77.63488],[13.03012,77.63485],[13.03001,77.6348],[13.02917,77.63404],[13.02791,77.63297],[13.02782,77.6332],[13.02713,77.63525],[13.0269,77.6361],[13.02667,77.63704],[13.026407,77.638405]],"stops":[{"id":"35585","name":"HBR Layout 5th Block","lat":13.03582,"lon":77.6315,"sequence":1},{"id":"29406","name":"HBR Layout 4th Block","lat":13.03437,"lon":77.63268,"sequence":2},{"id":"22030","name":"Hennur Cross","lat":13.03158,"lon":77.636,"sequence":3},{"id":"35921","name":"Hennur Junction","lat":13.02812,"lon":77.63316,"sequence":4},{"id":"36441","name":"Kalyananagara Bus Stand","lat":13.02642,"lon":77.63839,"sequence":5}]}]}