{"short_name":"MF-15 JPMS-D34G","long_name":"Depot-34 Gate ⇔ JP Nagara Metro Station","directions":[{"direction":"UP","headsign":"Depot-34 Gate","path":[[12.907999,77.573105],[12.90777,77.57314],[12.90653,77.57327],[12.90646,77.57408],[12.90649,77.57777],[12.90645,77.5789],[12.90641,77.58179],[12.90638,77.5827],[12.90642,77.58279],[12.90644,77.58294],[12.90643,77.58577],[12.90545,77.58577],[12.90503,77.58579],[12.90496,77.58575],[12.90278,77.58579],[12.90212,77.58585],[12.90177,77.58587],[12.90063,77.58584],[12.89998,77.58584],[12.89976,77.58585],[12.89788,77.58586],[12.89726,77.58595],[12.89712,77.586],[12.89697,77.58611],[12.8969,77.58619],[12.89609,77.58618],[12.89573,77.58617],[12.89565,77.58622],[12.89318,77.58642],[12.89308,77.58639],[12.89296,77.58641],[12.8927,77.58644],[12.89285,77.58745],[12.89258,77.58753],[12.89216,77.58768],[12.89159,77.58778],[12.891391,77.58784],[12.8914,77.58787],[12.89137,77.58788],[12.89127,77.58769],[12.891245,77.5877],[12.89119,77.58755],[12.89117,77.58735],[12.89118,77.58717],[12.89123,77.58694],[12.89144,77.58643],[12.89169,77.58592],[12.89184,77.58547],[12.8918,77.58536],[12.8919,77.58439],[12.89214,77.58275],[12.89218,77.58234],[12.89219,77.58207],[12.89218,77.58189],[12.89141,77.58193],[12.89004,77.58191],[12.88831,77.58195],[12.88822,77.58192],[12.8873,77.582],[12.88652,77.58215],[12.88634,77.58217],[12.88571,77.58225],[12.88556,77.58229],[12.88525,77.5824],[12.88496,77.58253],[12.88416,77.58284],[12.88224,77.58346],[12.88101,77.58388],[12.88062,77.58399],[12.88006,77.58413],[12.87965,77.58418],[12.87919,77.58413],[12.87861,77.58401],[12.87828,77.58397],[12.87802,77.58396],[12.877,77.58397],[12.87649,77.584],[12.87553,77.58408],[12.87479,77.58413],[12.87447,77.58414],[12.87414,77.58406],[12.8729,77.58367],[12.87255,77.58355],[12.87237,77.5835],[12.87148,77.5833],[12.87083,77.58319],[12.87059,77.58316],[12.87052,77.58358],[12.87046,77.58426],[12.87047,77.58476],[12.87045,77.58489],[12.87032,77.58521],[12.87015,77.58569]],"stops":[{"id":"35926","name":"JP Nagara Metro Station","lat":12.908,"lon":77.57312,"sequence":1},{"id":"33180","name":"JP Nagara 6th Phase","lat":12.90652,"lon":77.57765,"sequence":2},{"id":"34195","name":"Nandini Hotel JP Nagara","lat":12.90512,"lon":77.58581,"sequence":3},{"id":"37836","name":"Inchara Hotel JP Nagar","lat":12.90272,"lon":77.5858,"sequence":4},{"id":"28061","name":"Auto Gas/Royal School","lat":12.90133,"lon":77.58585,"sequence":5},{"id":"38510","name":"Inchara Hotel/Zaitoon","lat":12.90057,"lon":77.58582,"sequence":6},{"id":"28376","name":"Shobha Tulip JP Nagara","lat":12.89805,"lon":77.58591,"sequence":7},{"id":"38511","name":"Puttenahalli","lat":12.89688,"lon":77.58613,"sequence":8},{"id":"38512","name":"Brigade Palm Springs","lat":12.89508,"lon":77.58628,"sequence":9},{"id":"38508","name":"BOB Colony","lat":12.89299,"lon":77.5864,"sequence":10},{"id":"31886","name":"Nayara Petrol Pump Puttenahalli Lake","lat":12.89127,"lon":77.58769,"sequence":11},{"id":"23452","name":"Sri Dharmaraya Circle","lat":12.89213,"lon":77.58192,"sequence":12},{"id":"38513","name":"RBI Layout","lat":12.89004,"lon":77.58191,"sequence":13},{"id":"23453","name":"RBI Layout","lat":12.88806,"lon":77.58198,"sequence":14},{"id":"23454","name":"Gowrava Nagara","lat":12.88476,"lon":77.58266,"sequence":15},{"id":"23455","name":"Navodaya Nagara","lat":12.88137,"lon":77.58381,"sequence":16},{"id":"23456","name":"Kothanuru Dinne Ganesha Temple","lat":12.87711,"lon":77.58399,"sequence":17},{"id":"23457","name":"Kothanur Dinne Water Tank","lat":12.87455,"lon":77.58419,"sequence":18},{"id":"32100","name":"BK Circle","lat":12.87062,"lon":77.58325,"sequence":19},{"id":"32430","name":"Depot-34 Gate","lat":12.87023,"lon":77.58567,"sequence":20}]},{"direction":"DOWN","headsign":"JP Nagara Metro Station","path":[[12.87015,77.58569],[12.87032,77.58521],[12.87045,77.58489],[12.87047,77.58476],[12.87046,77.58426],[12.87052,77.58358],[12.87059,77.58316],[12.87083,77.58319],[12.87148,77.5833],[12.87179,77.58336],[12.87255,77.58355],[12.8729,77.58367],[12.87375,77.58394],[12.87414,77.58406],[12.874439,77.58413],[12.87479,77.58413],[12.87553,77.58408],[12.87649,77.584],[12.877,77.58397],[12.87802,77.58396],[12.87828,77.58397],[12.87861,77.58401],[12.87919,77.58413],[12.87965,77.58418],[12.88006,77.58413],[12.88062,77.58399],[12.88101,77.58388],[12.88224,77.58346],[12.88416,77.58284],[12.88496,77.58253],[12.88525,77.5824],[12.88556,77.58229],[12.88571,77.58225],[12.88634,77.58217],[12.88652,77.58215],[12.8873,77.582],[12.88822,77.58192],[12.8883,77.58187],[12.88839,77.58186],[12.89011,77.58181],[12.89106,77.58182],[12.89141,77.58183],[12.89218,77.58181],[12.89226,77.58189],[12.89227,77.58206],[12.89221,77.58276],[12.89199,77.5844],[12.89188,77.58537],[12.89169,77.58592],[12.89144,77.58643],[12.89123,77.58694],[12.89118,77.58717],[12.89117,77.58735],[12.89119,77.58755],[12.89122,77.58765],[12.89132,77.58786],[12.89159,77.58778],[12.89216,77.58768],[12.89258,77.58753],[12.89285,77.58745],[12.89318,77.58738],[12.89296,77.58641],[12.89308,77.58639],[12.89317,77.58632],[12.89406,77.58623],[12.89509,77.58616],[12.89541,77.58615],[12.89564,77.58613],[12.89573,77.58617],[12.89583,77.58602],[12.89591,77.58596],[12.89599,77.58594],[12.8964,77.58591],[12.89689,77.58592],[12.89696,77.58593],[12.89712,77.586],[12.89726,77.58595],[12.89788,77.58586],[12.89976,77.58585],[12.89998,77.58584],[12.90063,77.58584],[12.90177,77.58587],[12.90212,77.58585],[12.902719,77.58579],[12.90496,77.58575],[12.90503,77.5857],[12.90545,77.58568],[12.90596,77.58568],[12.90623,77.5857],[12.90643,77.5857],[12.90764,77.58569],[12.90843,77.58567],[12.90997,77.58567],[12.91046,77.58569],[12.91049,77.58503],[12.91052,77.58339],[12.91057,77.58176],[12.9107,77.58005],[12.91081,77.57907],[12.9109,77.57858],[12.91092,77.57838],[12.91096,77.57777],[12.91098,77.57712],[12.91098,77.57653],[12.91102,77.57596],[12.91136,77.57389],[12.91139,77.57352],[12.91138,77.57297],[12.91009,77.57297],[12.9097,77.57299],[12.90925,77.573],[12.90836,77.57306],[12.90827,77.57308],[12.907999,77.573105]],"stops":[{"id":"35964","name":"Depot-34 Gate","lat":12.87021,"lon":77.58571,"sequence":1},{"id":"30131","name":"BK Circle","lat":12.87067,"lon":77.58316,"sequence":2},{"id":"23469","name":"Kothanur Dinne Water Tank","lat":12.87444,"lon":77.58413,"sequence":3},{"id":"23470","name":"Kothanuru Dinne Ganesha Temple","lat":12.87705,"lon":77.58395,"sequence":4},{"id":"23471","name":"Navodaya Nagara","lat":12.88129,"lon":77.58376,"sequence":5},{"id":"23472","name":"Gowrava Nagara","lat":12.88469,"lon":77.58264,"sequence":6},{"id":"23473","name":"RBI Layout","lat":12.88801,"lon":77.5819,"sequence":7},{"id":"38507","name":"Sri Dharmaraya Circle","lat":12.89217,"lon":77.58329,"sequence":8},{"id":"31886","name":"Nayara Petrol Pump Puttenahalli Lake","lat":12.89127,"lon":77.58769,"sequence":9},{"id":"38508","name":"BOB Colony","lat":12.89299,"lon":77.5864,"sequence":10},{"id":"38509","name":"Brigade Palm Springs","lat":12.89514,"lon":77.58613,"sequence":11},{"id":"38505","name":"Puttenahalli","lat":12.89685,"lon":77.58588,"sequence":12},{"id":"34575","name":"Shobha Tulip JP Nagara","lat":12.89458,"lon":77.59138,"sequence":13},{"id":"38510","name":"Inchara Hotel/Zaitoon","lat":12.90057,"lon":77.58582,"sequence":14},{"id":"28061","name":"Auto Gas/Royal School","lat":12.90133,"lon":77.58585,"sequence":15},{"id":"37836","name":"Inchara Hotel JP Nagar","lat":12.90272,"lon":77.5858,"sequence":16},{"id":"35347","name":"JP Nagara 15th Cross","lat":12.90707,"lon":77.58567,"sequence":17},{"id":"37837","name":"R V Dental College","lat":12.91046,"lon":77.58547,"sequence":18},{"id":"23663","name":"JP Nagara 24th Main 9th Cross","lat":12.91052,"lon":77.58315,"sequence":19},{"id":"35193","name":"Indiragandhi Circle","lat":12.91088,"lon":77.57862,"sequence":20},{"id":"23665","name":"JP Nagara 1st Phase","lat":12.91125,"lon":77.57452,"sequence":21},{"id":"22459","name":"Sarakki","lat":12.9097,"lon":77.57299,"sequence":22},{"id":"35926","name":"JP Nagara Metro Station","lat":12.908,"lon":77.57312,"sequence":23}]}]}