{"short_name":"MF-25A","long_name":"Suvarna Nagara ⇔ 8th Mile Dasarahalli","directions":[{"direction":"UP","headsign":"Suvarna Nagara","path":[[13.045473,77.50551],[13.045,77.50544],[13.04386,77.50522],[13.04351,77.50513],[13.04325,77.50502],[13.04292,77.50495],[13.04232,77.50496],[13.0418,77.5049],[13.04125,77.50489],[13.04054,77.50479],[13.03993,77.50468],[13.03916,77.50457],[13.03848,77.50455],[13.0386,77.50373],[13.03869,77.5034],[13.03894,77.50231],[13.03937,77.50026],[13.03943,77.50003],[13.03961,77.49952],[13.03969,77.49922],[13.03973,77.49912],[13.03978,77.49905],[13.03998,77.49882],[13.04011,77.4986],[13.04018,77.49844],[13.04029,77.49809],[13.04033,77.49791],[13.0404,77.49739],[13.04049,77.49655],[13.04058,77.4962],[13.04069,77.49594],[13.04073,77.49579],[13.04078,77.49545],[13.0408,77.4952],[13.04081,77.49488],[13.04079,77.49477],[13.04071,77.49457],[13.0406,77.49443],[13.04051,77.49434],[13.04037,77.49422],[13.0403,77.49419],[13.04009,77.49413],[13.039749,77.494095],[13.03916,77.49407],[13.03856,77.49398],[13.03746,77.49379],[13.03676,77.49374],[13.03614,77.49375],[13.036,77.49372],[13.03596,77.49369],[13.03591,77.49374],[13.03582,77.49388],[13.03577,77.49405],[13.03569,77.49498],[13.03537,77.49492],[13.03535,77.49479],[13.03532,77.49477],[13.03484,77.4947],[13.03471,77.49466],[13.03453,77.49473],[13.03336,77.49453],[13.03327,77.49452]],"stops":[{"id":"35571","name":"8th Mile Dasarahalli","lat":13.04555,"lon":77.50555,"sequence":1},{"id":"34439","name":"Rukmini Nagara","lat":13.041,"lon":77.50488,"sequence":2},{"id":"34052","name":"Nagasandra Cross","lat":13.03849,"lon":77.50451,"sequence":3},{"id":"34050","name":"Nagasandra","lat":13.03944,"lon":77.50002,"sequence":4},{"id":"28053","name":"Rock Line Studio","lat":13.04055,"lon":77.49628,"sequence":5},{"id":"31584","name":"Venugopala Nagara","lat":13.03975,"lon":77.49408,"sequence":6},{"id":"32531","name":"Doddabidarakallu","lat":13.03594,"lon":77.49368,"sequence":7},{"id":"26779","name":"Suvarna Nagara","lat":13.03327,"lon":77.49453,"sequence":8}]},{"direction":"DOWN","headsign":"8th Mile Dasarahalli","path":[[13.03329,77.49485],[13.03427,77.49495],[13.03481,77.49502],[13.03481,77.4952],[13.03523,77.49521],[13.03567,77.49525],[13.03577,77.49405],[13.03582,77.49388],[13.03591,77.49374],[13.03596,77.49369],[13.036,77.49372],[13.03614,77.49375],[13.03676,77.49374],[13.03746,77.49379],[13.03856,77.49398],[13.03916,77.49407],[13.03959,77.49409],[13.04009,77.49413],[13.0403,77.49419],[13.04044,77.49427],[13.0406,77.49443],[13.04071,77.49457],[13.04079,77.49477],[13.04081,77.49488],[13.04081,77.49497],[13.04078,77.49545],[13.04073,77.49579],[13.04069,77.49594],[13.04058,77.4962],[13.040539,77.49632],[13.04049,77.49655],[13.0404,77.49739],[13.04033,77.49791],[13.04029,77.49809],[13.04018,77.49844],[13.04011,77.4986],[13.03998,77.49882],[13.03978,77.49905],[13.03973,77.49912],[13.03969,77.49922],[13.03961,77.49952],[13.03943,77.50003],[13.03937,77.50026],[13.03894,77.50231],[13.03869,77.5034],[13.0386,77.50373],[13.03848,77.50455],[13.03916,77.50457],[13.03993,77.50468],[13.04054,77.50479],[13.04125,77.50489],[13.0418,77.5049],[13.04232,77.50496],[13.04292,77.50495],[13.04325,77.50502],[13.04351,77.50513],[13.04386,77.50522],[13.045,77.50544],[13.045435,77.5055]],"stops":[{"id":"26780","name":"Suvarna Nagara","lat":13.03324,"lon":77.49491,"sequence":1},{"id":"32531","name":"Doddabidarakallu","lat":13.03594,"lon":77.49368,"sequence":2},{"id":"34892","name":"Venugopala Nagara","lat":13.03969,"lon":77.49403,"sequence":3},{"id":"34429","name":"Rock Line Studio","lat":13.0406,"lon":77.49634,"sequence":4},{"id":"29223","name":"Nagasandra","lat":13.03949,"lon":77.50001,"sequence":5},{"id":"34052","name":"Nagasandra Cross","lat":13.03849,"lon":77.50451,"sequence":6},{"id":"28076","name":"Rukmini Nagara","lat":13.04099,"lon":77.50482,"sequence":7},{"id":"35572","name":"8th Mile Dasarahalli","lat":13.04543,"lon":77.50547,"sequence":8}]}]}