{"short_name":"MF-25 TPH-JHMS","long_name":"Jalahalli Cross Metro Station Departure ⇔ Thippennahalli","directions":[{"direction":"UP","headsign":"Jalahalli Cross Metro Station Arrival","path":[[13.036676,77.48709],[13.03675,77.48718],[13.03678,77.48727],[13.0368,77.48803],[13.03687,77.48865],[13.03687,77.4893],[13.03742,77.48929],[13.0379,77.48941],[13.03833,77.48941],[13.03888,77.48934],[13.03914,77.4891],[13.03917,77.489],[13.03911,77.48827],[13.03985,77.48825],[13.03989,77.48828],[13.04004,77.48858],[13.04012,77.48856],[13.04026,77.48845],[13.04041,77.48846],[13.04041,77.48851],[13.04045,77.48854],[13.0406,77.4886],[13.04053,77.48878],[13.04052,77.48883],[13.04054,77.48888],[13.04059,77.48892],[13.0413,77.48929],[13.04174,77.48954],[13.0424,77.48988],[13.04276,77.49003],[13.04287,77.49008],[13.0433,77.49029],[13.043925,77.490555],[13.0451,77.49099],[13.0464,77.49146],[13.04785,77.49194],[13.04928,77.49206],[13.04998,77.49208],[13.05016,77.49211],[13.05035,77.49217],[13.0505,77.49184],[13.05078,77.49106],[13.05115,77.48991],[13.05158,77.48884],[13.05209,77.4874],[13.05224,77.48704],[13.05281,77.48551],[13.05298,77.48563],[13.05307,77.48568],[13.05251,77.48719],[13.05233,77.48771],[13.05214,77.48832],[13.05201,77.48868],[13.0517,77.48938],[13.05151,77.48998],[13.0509,77.49165],[13.05037,77.49322],[13.04902,77.49687],[13.04889,77.49741],[13.04825,77.49905],[13.04758,77.50086],[13.04737,77.50137],[13.04607,77.5052],[13.04573,77.50629],[13.04556,77.50698],[13.04542,77.50763],[13.04528,77.50812],[13.04515,77.50845],[13.04497,77.50887],[13.0449,77.50883],[13.04388,77.51075],[13.04358,77.51142],[13.04341,77.51187],[13.04288,77.51353],[13.04261,77.51442],[13.04252,77.51467],[13.04259,77.51469],[13.04251,77.51493],[13.04223,77.51567],[13.04199,77.51616],[13.04176,77.51655],[13.0415,77.51693],[13.04059,77.51791],[13.04029,77.51828],[13.03997,77.51871],[13.03982,77.51893],[13.039716,77.519104]],"stops":[{"id":"31453","name":"Thippennahalli","lat":13.0367,"lon":77.48707,"sequence":1},{"id":"39157","name":"Muneshwara Swamy Temple","lat":13.04,"lon":77.48855,"sequence":2},{"id":"29096","name":"Muniswamappa Layout","lat":13.04394,"lon":77.49051,"sequence":3},{"id":"39155","name":"Chirayu Pali Clinic","lat":13.04452,"lon":77.49071,"sequence":4},{"id":"39152","name":"Shreeram Public School","lat":13.04615,"lon":77.4913,"sequence":5},{"id":"21838","name":"Chikkabidarakallu","lat":13.05235,"lon":77.48774,"sequence":6},{"id":"22263","name":"Marison Factory","lat":13.05049,"lon":77.49285,"sequence":7},{"id":"39975","name":"Manjunathanagara Metro Station","lat":13.05002,"lon":77.49419,"sequence":8},{"id":"22622","name":"Widia Factory","lat":13.04907,"lon":77.497,"sequence":9},{"id":"21877","name":"Deepak Factory","lat":13.04749,"lon":77.50135,"sequence":10},{"id":"20594","name":"8th Mile Dasarahalli","lat":13.04541,"lon":77.50795,"sequence":11},{"id":"21212","name":"T Dasarahalli","lat":13.04309,"lon":77.51288,"sequence":12},{"id":"36453","name":"Jalahalli Cross Metro Station Arrival","lat":13.03971,"lon":77.5191,"sequence":13}]},{"direction":"DOWN","headsign":"Thippennahalli","path":[[13.039585,77.51932],[13.03935,77.51971],[13.03883,77.52077],[13.03811,77.52204],[13.03795,77.52237],[13.0379,77.52231],[13.03776,77.5222],[13.03865,77.5206],[13.03919,77.51959],[13.03948,77.51903],[13.03967,77.51871],[13.03966,77.51859],[13.03978,77.51841],[13.04037,77.51768],[13.04099,77.517],[13.04139,77.51651],[13.04168,77.51608],[13.04178,77.5159],[13.04205,77.51501],[13.04272,77.51316],[13.04297,77.5123],[13.04324,77.51145],[13.04368,77.51043],[13.04396,77.50991],[13.04473,77.50842],[13.04491,77.50805],[13.04501,77.50779],[13.04518,77.50715],[13.04551,77.50612],[13.04569,77.50538],[13.04581,77.50503],[13.04591,77.50468],[13.04612,77.50415],[13.04647,77.50315],[13.04665,77.50268],[13.047013,77.50158],[13.04729,77.50087],[13.04756,77.49996],[13.04793,77.49898],[13.04824,77.49805],[13.0485,77.49738],[13.04902,77.49592],[13.04929,77.49467],[13.04939,77.4943],[13.04953,77.49392],[13.04999,77.49301],[13.05018,77.49256],[13.05036,77.4922],[13.05026,77.49217],[13.04995,77.49213],[13.04889,77.49207],[13.0484,77.49206],[13.04815,77.49203],[13.04785,77.49194],[13.04631,77.49141],[13.04581,77.49124],[13.04542,77.4911],[13.0451,77.49099],[13.04443,77.49072],[13.04397,77.49056],[13.04329,77.4903],[13.04241,77.48988],[13.04178,77.48956],[13.04098,77.48912],[13.04057,77.48893],[13.04052,77.48889],[13.0405,77.48884],[13.0406,77.48861],[13.04045,77.48854],[13.04041,77.48851],[13.04041,77.48846],[13.04033,77.48844],[13.04026,77.48845],[13.04012,77.48856],[13.04004,77.48858],[13.03989,77.48828],[13.03985,77.48825],[13.03911,77.48827],[13.03917,77.489],[13.03914,77.4891],[13.03888,77.48934],[13.03833,77.48941],[13.0379,77.48941],[13.03742,77.48929],[13.03684,77.48928],[13.03683,77.48865],[13.0368,77.48804],[13.03677,77.48781],[13.03676,77.48738],[13.03674,77.48723],[13.03671,77.48716],[13.03662,77.48706]],"stops":[{"id":"35866","name":"Jalahalli Cross Metro Station Departure","lat":13.0396,"lon":77.51933,"sequence":1},{"id":"21211","name":"T Dasarahalli","lat":13.04283,"lon":77.51276,"sequence":2},{"id":"35570","name":"8th Mile Dasarahalli","lat":13.0451,"lon":77.50748,"sequence":3},{"id":"24818","name":"Deepak Factory","lat":13.04704,"lon":77.50159,"sequence":4},{"id":"34055","name":"Nagasandra Metro Station","lat":13.04779,"lon":77.49947,"sequence":5},{"id":"23313","name":"Widia Factory","lat":13.04877,"lon":77.49664,"sequence":6},{"id":"28839","name":"Marison Factory","lat":13.0502,"lon":77.49252,"sequence":7},{"id":"39153","name":"Shreeram Public School","lat":13.04625,"lon":77.49143,"sequence":8},{"id":"39154","name":"Chirayu Pali Clinic","lat":13.04424,"lon":77.49068,"sequence":9},{"id":"33980","name":"Muniswamappa Layout","lat":13.044,"lon":77.49058,"sequence":10},{"id":"39156","name":"Muneshwara Swamy Temple","lat":13.04015,"lon":77.48859,"sequence":11},{"id":"34997","name":"Thippennahalli","lat":13.03662,"lon":77.48706,"sequence":12}]}]}