{"short_name":"MF-39","long_name":"Ramasandra ⇔ Bengaluru University Gate","directions":[{"direction":"UP","headsign":"Ramasandra","path":[[12.935821,77.512825],[12.93588,77.5128],[12.93607,77.51275],[12.93652,77.51237],[12.93669,77.51224],[12.93699,77.51196],[12.93707,77.51186],[12.93717,77.51172],[12.93729,77.51149],[12.93753,77.51077],[12.93767,77.51041],[12.93779,77.51016],[12.93797,77.50983],[12.93811,77.50961],[12.93839,77.50915],[12.93861,77.50887],[12.93876,77.50871],[12.93932,77.50816],[12.9401,77.50742],[12.94047,77.50706],[12.94086,77.50674],[12.94181,77.50607],[12.942,77.50591],[12.9422,77.50571],[12.94292,77.50521],[12.94399,77.50449],[12.94453,77.50408],[12.94454,77.50405],[12.94456,77.50403],[12.94462,77.504],[12.94465,77.50401],[12.9454,77.50349],[12.94601,77.50309],[12.94834,77.5015],[12.94884,77.50126],[12.95012,77.50071],[12.95108,77.50033],[12.95142,77.50023],[12.95177,77.50018],[12.95185,77.50016],[12.95189,77.50014],[12.95193,77.50008],[12.95195,77.50001],[12.95196,77.49979],[12.95111,77.49956],[12.95095,77.49948],[12.95082,77.49935],[12.95032,77.49859],[12.95013,77.49835],[12.94982,77.49793],[12.94956,77.49767],[12.94938,77.49754],[12.949,77.49732],[12.9489,77.49728],[12.94762,77.4969],[12.94746,77.49685],[12.94716,77.49672],[12.94657,77.49638],[12.94639,77.49626],[12.94611,77.49609],[12.94554,77.49573],[12.94478,77.49518],[12.94356,77.49443],[12.94302,77.49415],[12.94266,77.494],[12.94227,77.49383],[12.94183,77.49365],[12.94151,77.49351],[12.94153,77.49346],[12.94157,77.49231],[12.94162,77.49192],[12.94174,77.49159],[12.94202,77.49107],[12.94218,77.49067],[12.94225,77.49044],[12.94233,77.49],[12.94242,77.48905],[12.94243,77.48834],[12.94261,77.48769],[12.94264,77.48748],[12.94264,77.48734],[12.94257,77.48706],[12.94242,77.48665],[12.94222,77.48618],[12.94213,77.48586],[12.94209,77.48545],[12.9421,77.4848],[12.94201,77.48454],[12.94201,77.4827],[12.94208,77.47989],[12.94205,77.47913],[12.94268,77.47896],[12.94269,77.47774],[12.94271,77.47746],[12.94276,77.47727],[12.94294,77.47677],[12.94304,77.47654],[12.94309,77.47648],[12.94316,77.47644],[12.94323,77.47643],[12.94351,77.47648],[12.94359,77.47648],[12.94367,77.47647],[12.94373,77.47643],[12.94379,77.47635],[12.94385,77.47622],[12.94406,77.47563],[12.94417,77.47541],[12.94424,77.47531],[12.94432,77.47523],[12.94444,77.47514],[12.94466,77.47501],[12.94478,77.47491],[12.94488,77.47476],[12.94502,77.47451],[12.94509,77.47432],[12.94515,77.47402],[12.94521,77.4736],[12.94534,77.47245],[12.9454,77.47228],[12.94555,77.47205],[12.94568,77.47169],[12.94569,77.47159],[12.94578,77.47132],[12.94584,77.47108],[12.94594,77.47048],[12.946,77.47036],[12.94601,77.47025],[12.94601,77.47012],[12.94598,77.46998],[12.94583,77.46954],[12.9457,77.46896],[12.94565,77.46867],[12.94564,77.46839],[12.94562,77.46824],[12.94557,77.46809],[12.9455,77.46797]],"stops":[{"id":"20647","name":"Bengaluru University Gate","lat":12.93582,"lon":77.51282,"sequence":1},{"id":"20650","name":"BUC Ladies Hostel","lat":12.94184,"lon":77.50601,"sequence":2},{"id":"24363","name":"BUC Library","lat":12.9443,"lon":77.50421,"sequence":3},{"id":"35428","name":"BUC ADM Block","lat":12.95007,"lon":77.50069,"sequence":4},{"id":"21748","name":"Bengaluru University Quarters","lat":12.95176,"lon":77.49972,"sequence":5},{"id":"22406","name":"PVP School","lat":12.94825,"lon":77.49711,"sequence":6},{"id":"22264","name":"Mariyappanapalya","lat":12.94522,"lon":77.49553,"sequence":7},{"id":"22162","name":"Kenchanapura Cross","lat":12.94157,"lon":77.49344,"sequence":8},{"id":"32058","name":"Bhuvaneshwari Nagara 1st Stage","lat":12.94225,"lon":77.49036,"sequence":9},{"id":"32059","name":"Bhuvaneshwari Nagara 2nd Stage","lat":12.94262,"lon":77.48728,"sequence":10},{"id":"22735","name":"Sonnenahalli Bridge","lat":12.94197,"lon":77.48357,"sequence":11},{"id":"34658","name":"Sonnenahalli","lat":12.94205,"lon":77.4791,"sequence":12},{"id":"28331","name":"Shivaji Hotel","lat":12.943,"lon":77.4766,"sequence":13},{"id":"32260","name":"Chikka Basti","lat":12.94455,"lon":77.47503,"sequence":14},{"id":"34372","name":"Ramasandra","lat":12.9455,"lon":77.46797,"sequence":15}]},{"direction":"DOWN","headsign":"Bengaluru University Gate","path":[[12.9455,77.46797],[12.94557,77.46809],[12.94562,77.46824],[12.94564,77.46839],[12.94565,77.46867],[12.9457,77.46896],[12.94583,77.46954],[12.94598,77.46998],[12.94601,77.47012],[12.946,77.47036],[12.94602,77.4706],[12.94599,77.4709],[12.94592,77.47119],[12.94575,77.4716],[12.94568,77.47169],[12.94555,77.47205],[12.9454,77.47228],[12.94534,77.47245],[12.94521,77.4736],[12.94515,77.47402],[12.94509,77.47432],[12.94502,77.47451],[12.94488,77.47476],[12.94478,77.47491],[12.94466,77.47501],[12.94444,77.47514],[12.94432,77.47523],[12.94424,77.47531],[12.94417,77.47541],[12.94406,77.47563],[12.94385,77.47622],[12.94379,77.47635],[12.94373,77.47643],[12.94367,77.47647],[12.94359,77.47648],[12.94351,77.47648],[12.94323,77.47643],[12.94316,77.47644],[12.94309,77.47648],[12.94304,77.47654],[12.94294,77.47677],[12.94276,77.47727],[12.94271,77.47746],[12.94269,77.47774],[12.94268,77.47833],[12.94269,77.47906],[12.94215,77.47921],[12.94213,77.48097],[12.94208,77.48251],[12.94206,77.48358],[12.94207,77.48453],[12.94205,77.48464],[12.9421,77.4848],[12.9421,77.4856],[12.94213,77.48586],[12.94222,77.48618],[12.94242,77.48665],[12.94257,77.48706],[12.94264,77.48734],[12.94264,77.48748],[12.94261,77.48769],[12.94243,77.48834],[12.94242,77.48905],[12.94233,77.49],[12.94225,77.49044],[12.94218,77.49067],[12.94202,77.49107],[12.94174,77.49159],[12.94162,77.49192],[12.94157,77.49231],[12.94153,77.49346],[12.94287,77.49402],[12.94409,77.49463],[12.94433,77.49477],[12.94459,77.49494],[12.94528,77.49544],[12.94557,77.49567],[12.94632,77.49612],[12.94693,77.49651],[12.9472,77.49665],[12.94765,77.49681],[12.94856,77.49708],[12.94897,77.49721],[12.94912,77.49728],[12.94938,77.49743],[12.94972,77.49768],[12.94989,77.49783],[12.94995,77.4979],[12.95037,77.4985],[12.95088,77.49928],[12.95105,77.49944],[12.95142,77.49957],[12.95201,77.49971],[12.95203,77.49982],[12.952,77.50018],[12.95191,77.50025],[12.95133,77.50035],[12.95036,77.5007],[12.94873,77.50145],[12.94805,77.50188],[12.94553,77.50358],[12.9447,77.50412],[12.94467,77.50417],[12.9446,77.50419],[12.94396,77.50463],[12.94307,77.50521],[12.94226,77.50576],[12.94218,77.50581],[12.94208,77.50584],[12.94181,77.50607],[12.9411,77.50656],[12.94068,77.50688],[12.94047,77.50706],[12.9401,77.50742],[12.93932,77.50816],[12.93876,77.50871],[12.9385,77.509],[12.93839,77.50915],[12.93811,77.50961],[12.93797,77.50983],[12.93767,77.51041],[12.93753,77.51077],[12.93729,77.51149],[12.93717,77.51172],[12.93699,77.51196],[12.93687,77.51208],[12.93607,77.51275],[12.93607,77.51285],[12.93605,77.51291],[12.936,77.51297],[12.93591,77.51303],[12.93572,77.5133]],"stops":[{"id":"34372","name":"Ramasandra","lat":12.9455,"lon":77.46797,"sequence":1},{"id":"24480","name":"Chikka Basti","lat":12.94466,"lon":77.47504,"sequence":2},{"id":"22733","name":"Shivaji Hotel","lat":12.94311,"lon":77.47649,"sequence":3},{"id":"26582","name":"Sonnenahalli","lat":12.94218,"lon":77.47922,"sequence":4},{"id":"30196","name":"Sonnenahalli Bridge","lat":12.94208,"lon":77.48285,"sequence":5},{"id":"30052","name":"Bhuvaneshwari Nagara 2nd Stage","lat":12.94259,"lon":77.48713,"sequence":6},{"id":"30050","name":"Bhuvaneshwari Nagara 1st Stage","lat":12.9423,"lon":77.4903,"sequence":7},{"id":"22162","name":"Kenchanapura Cross","lat":12.94157,"lon":77.49344,"sequence":8},{"id":"22265","name":"Mariyappanapalya","lat":12.94526,"lon":77.49539,"sequence":9},{"id":"22407","name":"PVP School","lat":12.94826,"lon":77.49697,"sequence":10},{"id":"24302","name":"Bengaluru University Quarters","lat":12.95195,"lon":77.50025,"sequence":11},{"id":"20646","name":"BUC ADM Block","lat":12.95005,"lon":77.50086,"sequence":12},{"id":"20652","name":"BUC Library","lat":12.94439,"lon":77.50435,"sequence":13},{"id":"20651","name":"BUC Ladies Hostel","lat":12.94195,"lon":77.50599,"sequence":14},{"id":"20649","name":"Bengaluru University Gate","lat":12.93573,"lon":77.51332,"sequence":15}]}]}