{"short_name":"MF-4","long_name":"Kadugodi Bus Station ⇔ Marathahalli","directions":[{"direction":"UP","headsign":"Kadugodi Bus Station","path":[[12.956231,77.69409],[12.95631,77.69462],[12.95656,77.69592],[12.95668,77.69666],[12.95706,77.69879],[12.9571,77.69911],[12.95709,77.69975],[12.95697,77.70105],[12.95695,77.70155],[12.95683,77.70303],[12.95675,77.70466],[12.95648,77.70792],[12.95645,77.70875],[12.95629,77.71007],[12.95626,77.71064],[12.95618,77.71141],[12.95608,77.7129],[12.95605,77.71369],[12.95594,77.71482],[12.95587,77.7157],[12.9558,77.71699],[12.95579,77.71795],[12.95585,77.72074],[12.95584,77.72185],[12.95588,77.72353],[12.95592,77.72458],[12.95597,77.72709],[12.95603,77.72854],[12.9561,77.72942],[12.95613,77.73009],[12.95623,77.73132],[12.95642,77.73272],[12.95699,77.73608],[12.95706,77.73655],[12.95709,77.73694],[12.95702,77.74031],[12.95702,77.74166],[12.957,77.74323],[12.95697,77.74359],[12.95681,77.74424],[12.95675,77.74454],[12.95674,77.74466],[12.95674,77.74478],[12.95676,77.74489],[12.95681,77.74504],[12.95691,77.74525],[12.95692,77.74544],[12.95725,77.74562],[12.9578,77.74585],[12.95837,77.74612],[12.958964,77.74643],[12.95941,77.74669],[12.96064,77.74733],[12.96099,77.7475],[12.96127,77.74761],[12.96195,77.74774],[12.96245,77.74786],[12.96613,77.74903],[12.96634,77.74909],[12.96692,77.74928],[12.9682,77.74963],[12.96847,77.74969],[12.96871,77.74975],[12.96953,77.7499],[12.970559,77.75],[12.97105,77.75009],[12.97272,77.75028],[12.97474,77.75059],[12.97611,77.75085],[12.977028,77.75105],[12.97865,77.75138],[12.979978,77.751625],[12.98063,77.75176],[12.98164,77.75195],[12.98303,77.75217],[12.98326,77.75223],[12.98381,77.75242],[12.98494,77.75286],[12.98534,77.753],[12.98581,77.75319],[12.98598,77.75327],[12.98682,77.75362],[12.98766,77.75399],[12.98845,77.75431],[12.98981,77.7549],[12.99009,77.75505],[12.99033,77.75521],[12.99134,77.756],[12.99164,77.75626],[12.99239,77.75682],[12.99284,77.75717],[12.99303,77.75729],[12.99318,77.75736],[12.99327,77.75739],[12.994,77.75754],[12.99459,77.75774],[12.99473,77.75775],[12.99576,77.75813],[12.99601,77.75819],[12.99608,77.75825],[12.99608,77.75829],[12.99604,77.75834],[12.99598,77.75851],[12.99563,77.75855]],"stops":[{"id":"22260","name":"Marathahalli","lat":12.95626,"lon":77.69409,"sequence":1},{"id":"22668","name":"Marathahalli Bridge","lat":12.9569,"lon":77.70215,"sequence":2},{"id":"21038","name":"Munnekolalu Cross (Spice Garden)","lat":12.9564,"lon":77.70927,"sequence":3},{"id":"22215","name":"Kundalahalli Gate","lat":12.95593,"lon":77.71574,"sequence":4},{"id":"22557","name":"Thubarahalli","lat":12.95592,"lon":77.72057,"sequence":5},{"id":"22487","name":"Siddapura","lat":12.95634,"lon":77.73191,"sequence":6},{"id":"22412","name":"Ramagondanahalli","lat":12.95704,"lon":77.74039,"sequence":7},{"id":"22577","name":"Varthur kodi","lat":12.95897,"lon":77.74642,"sequence":8},{"id":"21942","name":"Forum Mall","lat":12.95977,"lon":77.74683,"sequence":9},{"id":"21784","name":"Brooke Bond","lat":12.96392,"lon":77.74833,"sequence":10},{"id":"22621","name":"White Field Post Office","lat":12.97056,"lon":77.75,"sequence":11},{"id":"22442","name":"Sai Baba General Hospital","lat":12.97383,"lon":77.75042,"sequence":12},{"id":"22315","name":"Munish Singh Hospital","lat":12.97703,"lon":77.75104,"sequence":13},{"id":"38049","name":"Coffee Day Hope Farm","lat":12.97998,"lon":77.75162,"sequence":14},{"id":"20836","name":"Hope Farm","lat":12.98429,"lon":77.75261,"sequence":15},{"id":"20901","name":"Kadugodi Bridge","lat":12.99448,"lon":77.75769,"sequence":16},{"id":"20902","name":"Kadugodi Bus Station","lat":12.99563,"lon":77.75855,"sequence":17}]},{"direction":"DOWN","headsign":"Marathahalli","path":[[12.99563,77.75855],[12.99543,77.75832],[12.99543,77.75819],[12.99493,77.75802],[12.99475,77.75795],[12.99463,77.75789],[12.99457,77.75779],[12.99398,77.7576],[12.99314,77.75743],[12.99294,77.75733],[12.99215,77.75672],[12.99063,77.75558],[12.99016,77.75523],[12.98992,77.75507],[12.98973,77.75497],[12.98946,77.75484],[12.98841,77.75442],[12.9874,77.75399],[12.98651,77.75363],[12.98593,77.75338],[12.98529,77.75313],[12.98483,77.75297],[12.98379,77.75253],[12.98347,77.75239],[12.983,77.75226],[12.98239,77.75214],[12.98042,77.75177],[12.97666,77.75102],[12.97627,77.75095],[12.97578,77.75084],[12.97509,77.75071],[12.97473,77.75065],[12.97423,77.75056],[12.97314,77.7504],[12.97265,77.75034],[12.97214,77.75031],[12.97025,77.75004],[12.96934,77.74992],[12.96797,77.74963],[12.96751,77.7495],[12.96659,77.74929],[12.96571,77.74903],[12.9624,77.74798],[12.96194,77.74784],[12.96118,77.74766],[12.96081,77.7475],[12.96012,77.74715],[12.95825,77.74613],[12.95788,77.74595],[12.95749,77.74579],[12.95709,77.74568],[12.95676,77.74552],[12.95673,77.74545],[12.95674,77.74541],[12.95679,77.74536],[12.95666,77.74485],[12.95665,77.74471],[12.95669,77.74442],[12.95685,77.74388],[12.9569,77.74363],[12.95693,77.7433],[12.95696,77.74017],[12.957,77.73854],[12.95702,77.73695],[12.95701,77.73674],[12.95693,77.73617],[12.95621,77.73193],[12.95613,77.73102],[12.95608,77.73014],[12.95596,77.72854],[12.9559,77.72709],[12.95584,77.72442],[12.95584,77.7238],[12.95582,77.72304],[12.9558,77.72283],[12.9558,77.72185],[12.95578,77.72127],[12.95577,77.71982],[12.95572,77.71771],[12.95574,77.7165],[12.95581,77.71541],[12.95588,77.71462],[12.95613,77.71111],[12.95618,77.71064],[12.95626,77.70958],[12.95634,77.70901],[12.95637,77.70868],[12.95645,77.70726],[12.95667,77.70434],[12.95671,77.70337],[12.95684,77.70174],[12.95691,77.70104],[12.95692,77.70081],[12.95704,77.69973],[12.95705,77.69912],[12.95704,77.69898],[12.9569,77.69814],[12.95673,77.69731],[12.95639,77.69533],[12.95625,77.69461],[12.95612,77.69374]],"stops":[{"id":"20902","name":"Kadugodi Bus Station","lat":12.99563,"lon":77.75855,"sequence":1},{"id":"20900","name":"Kadugodi Bridge","lat":12.99439,"lon":77.75775,"sequence":2},{"id":"22038","name":"Hope Farm","lat":12.98273,"lon":77.75223,"sequence":3},{"id":"38050","name":"Coffee Day Hope Farm","lat":12.97987,"lon":77.75168,"sequence":4},{"id":"22314","name":"Munish Singh Hospital","lat":12.97738,"lon":77.75122,"sequence":5},{"id":"22441","name":"Sai Baba General Hospital","lat":12.97454,"lon":77.75065,"sequence":6},{"id":"22620","name":"White Field Post Office","lat":12.96932,"lon":77.74996,"sequence":7},{"id":"21783","name":"Brooke Bond","lat":12.96454,"lon":77.74869,"sequence":8},{"id":"21941","name":"Forum Mall","lat":12.95943,"lon":77.7468,"sequence":9},{"id":"22829","name":"Varthur Kodi","lat":12.95664,"lon":77.74472,"sequence":10},{"id":"22413","name":"Ramagondanahalli","lat":12.95695,"lon":77.73949,"sequence":11},{"id":"22488","name":"Siddapura","lat":12.95607,"lon":77.73057,"sequence":12},{"id":"22558","name":"Thubarahalli","lat":12.95575,"lon":77.72042,"sequence":13},{"id":"20959","name":"Kundalahalli Gate","lat":12.95592,"lon":77.71378,"sequence":14},{"id":"21037","name":"Munnekolalu Cross (Spice Garden)","lat":12.95628,"lon":77.70928,"sequence":15},{"id":"22662","name":"Marathahalli Bridge","lat":12.95694,"lon":77.70062,"sequence":16},{"id":"22261","name":"Marathahalli","lat":12.95611,"lon":77.69372,"sequence":17}]}]}