{"short_name":"MF-6 JBN-SVMS","long_name":"Swamy Vivekananda Metro Station/Isolation Hospital ⇔ Jeevanbheema Nagara","directions":[{"direction":"UP","headsign":"Swamy Vivekananda Metro Station/Isolation Hospital","path":[[12.96574,77.65761],[12.96635,77.65775],[12.96656,77.65771],[12.96727,77.65786],[12.96735,77.65721],[12.96752,77.65606],[12.96779,77.6538],[12.96795,77.65277],[12.96801,77.65226],[12.96817,77.65144],[12.9684,77.65062],[12.96851,77.65014],[12.96877,77.64876],[12.96886,77.64812],[12.9689,77.64771],[12.9698,77.64751],[12.97269,77.64698],[12.9728,77.64697],[12.97408,77.64686],[12.97429,77.6468],[12.97496,77.64673],[12.9758,77.64669],[12.97648,77.64664],[12.97756,77.6466],[12.97797,77.64657],[12.97852,77.64654],[12.97852,77.64593],[12.97844,77.6442],[12.97834,77.64081],[12.97857,77.64081],[12.97953,77.64075],[12.97997,77.64073],[12.98023,77.64071],[12.98247,77.6406],[12.98339,77.64059],[12.98357,77.64058],[12.98377,77.64057],[12.98414,77.64053],[12.98433,77.64101],[12.98482,77.64245],[12.985863,77.64524]],"stops":[{"id":"26321","name":"Jeevanbheema Nagara","lat":12.96576,"lon":77.65763,"sequence":1},{"id":"35941","name":"JBN Petrol Bunk","lat":12.96739,"lon":77.65645,"sequence":2},{"id":"22180","name":"Kodihalli","lat":12.96851,"lon":77.64976,"sequence":3},{"id":"22549","name":"Thippasandra","lat":12.97361,"lon":77.64689,"sequence":4},{"id":"24707","name":"CMH Hospital","lat":12.97849,"lon":77.64655,"sequence":5},{"id":"22389","name":"Indiranagara Police Station/KFC","lat":12.97857,"lon":77.6408,"sequence":6},{"id":"35957","name":"Binnamangala","lat":12.98368,"lon":77.64049,"sequence":7},{"id":"22527","name":"Swamy Vivekananda Metro Station/Isolation Hospital","lat":12.9858,"lon":77.64501,"sequence":8}]},{"direction":"DOWN","headsign":"Jeevanbheema Nagara","path":[[12.985082,77.643394],[12.98473,77.64248],[12.98408,77.64064],[12.98247,77.64071],[12.97843,77.64093],[12.97844,77.64162],[12.97851,77.64343],[12.97852,77.64419],[12.9786,77.64573],[12.97859,77.64653],[12.97858,77.6466],[12.97855,77.64668],[12.97783,77.64668],[12.97739,77.6467],[12.97528,77.64683],[12.97443,77.6469],[12.97422,77.64689],[12.97408,77.64686],[12.9728,77.64697],[12.97269,77.64698],[12.9698,77.64751],[12.9689,77.64771],[12.96886,77.64812],[12.96877,77.64876],[12.96851,77.65014],[12.9684,77.65062],[12.96817,77.65144],[12.96801,77.65226],[12.96795,77.65277],[12.96779,77.6538],[12.96752,77.65606],[12.96735,77.65721],[12.96727,77.65786],[12.96656,77.65771],[12.96635,77.65775],[12.96574,77.65761]],"stops":[{"id":"20862","name":"Swamy Vivekananda Metro Station/Isolation Hospital","lat":12.98507,"lon":77.6434,"sequence":1},{"id":"21772","name":"Binnamangala","lat":12.9835,"lon":77.64067,"sequence":2},{"id":"22390","name":"Indiranagara Police Station/KFC","lat":12.97849,"lon":77.6412,"sequence":3},{"id":"35942","name":"CMH Hospital","lat":12.97838,"lon":77.64668,"sequence":4},{"id":"22548","name":"Thippasandra","lat":12.97371,"lon":77.6469,"sequence":5},{"id":"31156","name":"Kodihalli","lat":12.96857,"lon":77.64962,"sequence":6},{"id":"27670","name":"Jeevan bhima nagar Petrol Bunk","lat":12.9675,"lon":77.65613,"sequence":7},{"id":"26321","name":"Jeevanbheema Nagara","lat":12.96576,"lon":77.65763,"sequence":8}]}]}