{"short_name":"MF-7 KLN-KNG","long_name":"Kanakagiri Horamavu ⇔ Kalyananagara Bus Stand","directions":[{"direction":"UP","headsign":"Kanakagiri Horamavu","path":[[13.026407,77.638405],[13.02618,77.63961],[13.02604,77.64005],[13.02576,77.64077],[13.02521,77.64201],[13.02475,77.64311],[13.02462,77.64339],[13.02452,77.64338],[13.02442,77.64341],[13.02425,77.64339],[13.02482,77.64202],[13.02508,77.64146],[13.02522,77.64118],[13.02525,77.64106],[13.02525,77.64101],[13.02523,77.64096],[13.02554,77.64028],[13.0257,77.6399],[13.02575,77.63973],[13.02586,77.63924],[13.02634,77.63671],[13.02655,77.63586],[13.02636,77.63581],[13.02643,77.63552],[13.0266,77.63494],[13.02692,77.63402],[13.02727,77.63317],[13.02751,77.63266],[13.02762,77.63248],[13.028,77.63277],[13.02905,77.63363],[13.02977,77.63429],[13.03008,77.63455],[13.03017,77.63467],[13.03021,77.63477],[13.03109,77.63548],[13.03137,77.6357],[13.03142,77.63577],[13.03212,77.63637],[13.03228,77.63656],[13.03268,77.63709],[13.0329,77.63731],[13.03322,77.63769],[13.03354,77.63803],[13.03443,77.6389],[13.03501,77.63931],[13.03564,77.63972],[13.03612,77.63999],[13.03643,77.64023],[13.03664,77.64049],[13.03702,77.64106],[13.03711,77.64114],[13.03727,77.64124],[13.03763,77.64133],[13.038,77.64137],[13.03934,77.64142],[13.03959,77.64144],[13.03956,77.64156],[13.039501,77.641716],[13.0393,77.64198],[13.03909,77.64222],[13.03902,77.64237],[13.03899,77.64249],[13.03895,77.64329],[13.03895,77.64352],[13.03901,77.6438],[13.03903,77.64396],[13.03903,77.6441],[13.03901,77.64472],[13.03899,77.64503],[13.03897,77.64515],[13.03894,77.64532],[13.03876,77.64601],[13.03858,77.64663],[13.03806,77.64827],[13.03789,77.64891],[13.03782,77.64949],[13.03772,77.65187],[13.03771,77.65274],[13.03766,77.65358],[13.03762,77.6538],[13.03752,77.65397],[13.03738,77.6541],[13.03725,77.65421],[13.0369,77.65446],[13.03681,77.65457],[13.03678,77.65464],[13.03673,77.65484],[13.03673,77.65493],[13.03674,77.65502],[13.03677,77.6551],[13.03693,77.65541],[13.03721,77.65579],[13.03735,77.65601],[13.03741,77.65627],[13.03746,77.65667],[13.03766,77.65722],[13.03778,77.65768],[13.03793,77.6586],[13.03807,77.65933],[13.03817,77.65964],[13.03855,77.66042],[13.0386,77.66064],[13.03868,77.6618],[13.03874,77.66219],[13.03875,77.66238],[13.03874,77.66256],[13.03859,77.66354],[13.03846,77.66423],[13.03839,77.66483],[13.03832,77.6652],[13.03795,77.66783],[13.03868,77.66799],[13.03894,77.6681],[13.03926,77.66814],[13.03968,77.66809],[13.03994,77.66815],[13.03999,77.66818],[13.04026,77.66823],[13.04035,77.66826],[13.04056,77.66829],[13.04101,77.66838],[13.04111,77.66841],[13.04128,77.6685]],"stops":[{"id":"36441","name":"Kalyananagara Bus Stand","lat":13.02642,"lon":77.63839,"sequence":1},{"id":"20904","name":"Kalyananagara","lat":13.0264,"lon":77.63642,"sequence":2},{"id":"35920","name":"Hennur Junction","lat":13.02819,"lon":77.63286,"sequence":3},{"id":"25856","name":"Hennur Cross","lat":13.03162,"lon":77.63589,"sequence":4},{"id":"25861","name":"Hennuru Petrol Bunk","lat":13.033,"lon":77.6374,"sequence":5},{"id":"22027","name":"Hennur Bande","lat":13.03669,"lon":77.64051,"sequence":6},{"id":"22026","name":"Hennur","lat":13.03949,"lon":77.64171,"sequence":7},{"id":"25854","name":"Hennur Bande Sai Baba Temple","lat":13.03907,"lon":77.644,"sequence":8},{"id":"35694","name":"Vaddarapalya","lat":13.0387,"lon":77.64635,"sequence":9},{"id":"32944","name":"Horamavu Agara","lat":13.03676,"lon":77.65487,"sequence":10},{"id":"29707","name":"Banjara Layout","lat":13.03837,"lon":77.66527,"sequence":11},{"id":"34187","name":"Om Shakthi Temple","lat":13.03961,"lon":77.6681,"sequence":12},{"id":"30736","name":"Kanakagiri Horamavu","lat":13.04132,"lon":77.6685,"sequence":13}]},{"direction":"DOWN","headsign":"Kalyananagara Bus Stand","path":[[13.04128,77.6685],[13.04111,77.66841],[13.04101,77.66838],[13.04056,77.66829],[13.04035,77.66826],[13.04026,77.66823],[13.03999,77.66818],[13.03994,77.66815],[13.03968,77.66809],[13.03926,77.66814],[13.03894,77.6681],[13.03868,77.66799],[13.03795,77.66783],[13.03832,77.6652],[13.03839,77.66483],[13.03846,77.66423],[13.03859,77.66354],[13.03874,77.66256],[13.03875,77.66238],[13.03874,77.66219],[13.03868,77.6618],[13.0386,77.66064],[13.03855,77.66042],[13.03817,77.65964],[13.03807,77.65933],[13.03793,77.6586],[13.03778,77.65768],[13.03766,77.65722],[13.03746,77.65667],[13.03741,77.65627],[13.03735,77.65601],[13.03721,77.65579],[13.03693,77.65541],[13.03677,77.6551],[13.03674,77.65502],[13.03673,77.65493],[13.03673,77.65484],[13.03678,77.65464],[13.03681,77.65457],[13.0369,77.65446],[13.03725,77.65421],[13.03738,77.6541],[13.03752,77.65397],[13.03762,77.6538],[13.03766,77.65358],[13.03771,77.65274],[13.03772,77.65187],[13.03782,77.64949],[13.03789,77.64891],[13.03806,77.64827],[13.03858,77.64663],[13.03876,77.64601],[13.03894,77.64532],[13.03897,77.64515],[13.03899,77.64503],[13.03901,77.64472],[13.03903,77.6441],[13.03903,77.64396],[13.03901,77.6438],[13.03895,77.64352],[13.03895,77.64329],[13.03899,77.64249],[13.03902,77.64237],[13.03909,77.64222],[13.0393,77.64198],[13.03947,77.64177],[13.03956,77.64156],[13.03911,77.6415],[13.03778,77.64143],[13.03752,77.64139],[13.03719,77.64129],[13.03711,77.64125],[13.03698,77.64114],[13.03686,77.64098],[13.03656,77.6405],[13.03641,77.64032],[13.03632,77.64024],[13.0362,77.64016],[13.03552,77.63979],[13.03469,77.63925],[13.03449,77.63909],[13.03419,77.6388],[13.03327,77.63783],[13.03282,77.63732],[13.03276,77.63725],[13.03268,77.63709],[13.03228,77.63656],[13.03212,77.63637],[13.03142,77.63577],[13.03134,77.63574],[13.03105,77.63553],[13.03064,77.63521],[13.03025,77.63488],[13.03012,77.63485],[13.03001,77.6348],[13.02917,77.63404],[13.02791,77.63297],[13.02782,77.6332],[13.02713,77.63525],[13.0269,77.6361],[13.02667,77.63704],[13.026407,77.638405]],"stops":[{"id":"30736","name":"Kanakagiri Horamavu","lat":13.04132,"lon":77.6685,"sequence":1},{"id":"27537","name":"Om Shakthi Temple","lat":13.03955,"lon":77.66814,"sequence":2},{"id":"31882","name":"Banjara Layout","lat":13.03833,"lon":77.66531,"sequence":3},{"id":"32945","name":"Horamavu Agara","lat":13.03673,"lon":77.65488,"sequence":4},{"id":"34934","name":"Vaddarapalya","lat":13.03865,"lon":77.64638,"sequence":5},{"id":"25855","name":"Hennur Bande Sai Baba Temple","lat":13.03896,"lon":77.6436,"sequence":6},{"id":"35177","name":"Hennur","lat":13.03947,"lon":77.64154,"sequence":7},{"id":"22028","name":"Hennur Bande","lat":13.03663,"lon":77.64072,"sequence":8},{"id":"25862","name":"Hennuru Petrol Bunk","lat":13.03294,"lon":77.63755,"sequence":9},{"id":"22030","name":"Hennur Cross","lat":13.03158,"lon":77.636,"sequence":10},{"id":"35921","name":"Hennur Junction","lat":13.02812,"lon":77.63316,"sequence":11},{"id":"36441","name":"Kalyananagara Bus Stand","lat":13.02642,"lon":77.63839,"sequence":12}]}]}