{"short_name":"MYH-SNBS","long_name":"Shanthinagara Bus Station ⇔ Mayohall","directions":[{"direction":"UP","headsign":"Shanthinagara Bus Station","path":[[12.973479,77.61051],[12.9735,77.61073],[12.97337,77.6109],[12.97076,77.61032],[12.97055,77.61029],[12.97036,77.6103],[12.97015,77.61033],[12.96886,77.61066],[12.96799,77.61097],[12.96726,77.61121],[12.96718,77.6111],[12.96709,77.61092],[12.96693,77.61008],[12.96661,77.60874],[12.96644,77.60783],[12.96617,77.60658],[12.96574,77.60381],[12.96556,77.60231],[12.96539,77.60109],[12.96529,77.60053],[12.9652,77.59972],[12.9652,77.59959],[12.96492,77.59747],[12.96487,77.59722],[12.9648,77.59707],[12.96464,77.59691],[12.96389,77.59647],[12.96351,77.59622],[12.96327,77.59604],[12.96258,77.59526],[12.96241,77.59505],[12.96226,77.59479],[12.96217,77.59468],[12.96206,77.59459],[12.96188,77.5945],[12.96164,77.59441],[12.96106,77.59418],[12.9596,77.59365],[12.9588,77.5933],[12.95807,77.59305],[12.95737,77.59278],[12.95575,77.5922],[12.95531,77.59275],[12.955,77.5931],[12.95487,77.59299],[12.95491,77.59294],[12.95495,77.59285],[12.95504,77.59277],[12.95505,77.59274],[12.95457,77.59261]],"stops":[{"id":"22279","name":"Mayohall","lat":12.97349,"lon":77.61051,"sequence":1},{"id":"21952","name":"Garuda Mall","lat":12.96969,"lon":77.61042,"sequence":2},{"id":"21872","name":"D Souza Circle","lat":12.96755,"lon":77.61106,"sequence":3},{"id":"20970","name":"Life Style (Sacred Heart School)","lat":12.96692,"lon":77.61018,"sequence":4},{"id":"21126","name":"Richmond Circle","lat":12.9658,"lon":77.60433,"sequence":5},{"id":"20927","name":"KH Road","lat":12.95759,"lon":77.59286,"sequence":6},{"id":"21166","name":"Shanthinagara Bus Station","lat":12.95449,"lon":77.59258,"sequence":7}]},{"direction":"DOWN","headsign":"Mayohall","path":[[12.95475,77.59255],[12.95514,77.59267],[12.95518,77.59264],[12.955179,77.592636],[12.9553,77.59254],[12.95547,77.5923],[12.95563,77.59215],[12.9557,77.59204],[12.95811,77.59298],[12.95881,77.59322],[12.95937,77.59345],[12.95957,77.59355],[12.95994,77.59371],[12.96073,77.59399],[12.96143,77.59425],[12.96168,77.59434],[12.96191,77.59444],[12.96201,77.59448],[12.9622,77.59465],[12.96238,77.59485],[12.96244,77.59496],[12.96264,77.59522],[12.96321,77.59587],[12.96354,77.59617],[12.96423,77.59662],[12.96461,77.59678],[12.96489,77.59687],[12.96507,77.59695],[12.96524,77.59706],[12.96531,77.59712],[12.9661,77.59812],[12.96617,77.59823],[12.96746,77.5996],[12.96769,77.5999],[12.96793,77.60023],[12.9689,77.6018],[12.9691,77.60207],[12.96929,77.60227],[12.96962,77.60267],[12.9702,77.60348],[12.97049,77.60391],[12.9706,77.6041],[12.97086,77.60468],[12.97125,77.60559],[12.97149,77.60621],[12.97193,77.60709],[12.97259,77.60821],[12.97282,77.60866],[12.97307,77.60925],[12.97341,77.61016]],"stops":[{"id":"21167","name":"Shanthinagara Bus Station","lat":12.95483,"lon":77.59235,"sequence":1},{"id":"20928","name":"KH Road","lat":12.95815,"lon":77.59299,"sequence":2},{"id":"21125","name":"Richmond Circle","lat":12.96738,"lon":77.59946,"sequence":3},{"id":"21194","name":"St Joseph College","lat":12.97036,"lon":77.60368,"sequence":4},{"id":"22278","name":"Mayohall","lat":12.97336,"lon":77.6099,"sequence":5}]}]}