{"short_name":"NDC-SNBS-KBS","long_name":"Nyaya Degula ⇔ Kempegowda Bus Station","directions":[{"direction":"UP","headsign":"Kempegowda Bus Station","path":[[12.954191,77.59038],[12.95413,77.59054],[12.95414,77.59064],[12.95389,77.59134],[12.95375,77.59183],[12.95365,77.59195],[12.95358,77.59214],[12.95475,77.59255],[12.95514,77.59267],[12.95518,77.59264],[12.955179,77.592636],[12.9553,77.59254],[12.95547,77.5923],[12.95563,77.59215],[12.9557,77.59204],[12.95811,77.59298],[12.95881,77.59322],[12.95937,77.59345],[12.95946,77.59345],[12.96077,77.59395],[12.9615,77.59421],[12.96202,77.59442],[12.96228,77.59458],[12.96234,77.59453],[12.96248,77.59488],[12.96256,77.59501],[12.96326,77.59582],[12.96357,77.59612],[12.96402,77.59643],[12.96426,77.59657],[12.96463,77.59675],[12.96476,77.59673],[12.96484,77.59666],[12.96489,77.59637],[12.96496,77.59617],[12.96509,77.59595],[12.96523,77.59578],[12.96535,77.59568],[12.9659,77.59532],[12.9661,77.59521],[12.96643,77.59505],[12.96688,77.59475],[12.96711,77.59456],[12.96745,77.5942],[12.9676,77.59397],[12.96772,77.59368],[12.96797,77.59271],[12.96806,77.59224],[12.9681,77.59192],[12.9681,77.59175],[12.96808,77.59157],[12.96806,77.59143],[12.96802,77.59129],[12.96784,77.59084],[12.96775,77.59056],[12.96768,77.5901],[12.96762,77.58939],[12.96756,77.58909],[12.96751,77.5889],[12.96746,77.58876],[12.96729,77.58841],[12.96676,77.58797],[12.96676,77.58777],[12.96681,77.58758],[12.96693,77.58739],[12.9671,77.58741],[12.96748,77.58744],[12.9678,77.58725],[12.96799,77.58719],[12.96887,77.58623],[12.96913,77.58591],[12.9696,77.58537],[12.97017,77.5847],[12.97101,77.5838],[12.97168,77.583],[12.97217,77.58249],[12.97227,77.58236],[12.97258,77.58194],[12.97293,77.58128],[12.97314,77.58084],[12.97397,77.57895],[12.97437,77.57808],[12.97476,77.57712],[12.97485,77.57696],[12.97492,77.57691],[12.97508,77.57668],[12.97536,77.57611],[12.9754,77.57597],[12.97553,77.57478],[12.97589,77.57482],[12.97613,77.57482],[12.97653,77.57476],[12.97666,77.57472],[12.97712,77.5745],[12.97729,77.5744],[12.97738,77.57432],[12.97737,77.57418],[12.97731,77.57424],[12.97746,77.57409],[12.97749,77.57327]],"stops":[{"id":"27523","name":"Nyaya Degula","lat":12.95419,"lon":77.59038,"sequence":1},{"id":"21167","name":"Shanthinagara Bus Station","lat":12.95483,"lon":77.59235,"sequence":2},{"id":"20928","name":"KH Road","lat":12.95815,"lon":77.59299,"sequence":3},{"id":"22667","name":"Pallavi Talkies","lat":12.9679,"lon":77.59102,"sequence":4},{"id":"20725","name":"Corporation","lat":12.96839,"lon":77.58675,"sequence":5},{"id":"35383","name":"Mysore Bank","lat":12.97253,"lon":77.58199,"sequence":6},{"id":"20922","name":"Kempegowda Bus Station","lat":12.97749,"lon":77.57327,"sequence":7}]}]}