{"short_name":"PTLMT-PRU","long_name":"Presidency University ⇔ Patalamma Temple","directions":[{"direction":"UP","headsign":"Presidency University","path":[[13.18344,77.5699],[13.1834,77.56986],[13.18328,77.56982],[13.18272,77.56984],[13.18265,77.56987],[13.1826,77.56991],[13.1824,77.57018],[13.18235,77.57021],[13.18223,77.57022],[13.18137,77.57012],[13.18115,77.5701],[13.18095,77.57011],[13.18021,77.57027],[13.17944,77.57051],[13.1793,77.57054],[13.17905,77.57056],[13.17889,77.57055],[13.17861,77.5705],[13.17802,77.57033],[13.17642,77.5699],[13.17599,77.56977],[13.17561,77.56967],[13.1751,77.56958],[13.17445,77.56961],[13.17386,77.56967],[13.17364,77.56973],[13.17352,77.56975],[13.17295,77.56973],[13.17292,77.56924],[13.17295,77.56884],[13.17309,77.56832],[13.17308,77.56787],[13.17303,77.56738],[13.17297,77.56703],[13.1728,77.56645],[13.17269,77.56613],[13.17263,77.56586],[13.17262,77.56577],[13.17265,77.56556],[13.1727,77.56544],[13.17283,77.56525],[13.17297,77.56511],[13.17311,77.56501],[13.1732,77.56497],[13.17331,77.56495],[13.17343,77.56495],[13.17437,77.56502],[13.1746,77.565],[13.17467,77.56498],[13.17478,77.56491],[13.17488,77.56479],[13.17493,77.56468],[13.17495,77.56458],[13.17495,77.56436],[13.17393,77.56438],[13.1731,77.56441],[13.17297,77.56442],[13.17293,77.56432],[13.17257,77.56267],[13.17256,77.5626],[13.17258,77.56252],[13.17232,77.5613],[13.1722,77.56083],[13.17198,77.55984],[13.17193,77.55955],[13.17145,77.55759],[13.17139,77.5575],[13.17088,77.55538],[13.17075,77.55478],[13.17045,77.55355],[13.17029,77.55296],[13.17019,77.5525],[13.17011,77.55201],[13.16998,77.55083],[13.16998,77.55069],[13.17003,77.5504],[13.17009,77.5503],[13.17013,77.55012],[13.17032,77.54963],[13.17042,77.54948],[13.17062,77.5493],[13.17086,77.54917],[13.17097,77.54913],[13.17108,77.54903],[13.17115,77.54899],[13.17145,77.54892],[13.17211,77.54882],[13.17278,77.54874],[13.17364,77.5487],[13.174,77.54866],[13.17416,77.54862],[13.17434,77.54853],[13.17454,77.5484],[13.17479,77.54811],[13.17488,77.54795],[13.17515,77.54727],[13.1752,77.54706],[13.17524,77.54666],[13.17529,77.5449],[13.17528,77.54453],[13.17524,77.54438],[13.17483,77.54337],[13.17449,77.54225],[13.17406,77.5411],[13.17402,77.54096],[13.174,77.54063],[13.17415,77.53987],[13.17417,77.53972],[13.17417,77.53954],[13.17395,77.53772],[13.17389,77.53747],[13.1738,77.53726],[13.17355,77.5369],[13.17334,77.53668],[13.17324,77.5366],[13.17275,77.53628],[13.17217,77.53583],[13.17201,77.53566],[13.171863,77.53546]],"stops":[{"id":"27633","name":"Patalamma Temple","lat":13.18343,"lon":77.56991,"sequence":1},{"id":"35549","name":"Addiganahalli","lat":13.17292,"lon":77.56963,"sequence":2},{"id":"34228","name":"Parvathipura","lat":13.17279,"lon":77.56631,"sequence":3},{"id":"38911","name":"Rajanukunte","lat":13.17494,"lon":77.56441,"sequence":4},{"id":"34340","name":"Rajanukunte","lat":13.17288,"lon":77.56415,"sequence":5},{"id":"34666","name":"Sri Banashankari Layout","lat":13.17153,"lon":77.558,"sequence":6},{"id":"33067","name":"Ittagalpura Gate","lat":13.17008,"lon":77.55028,"sequence":7},{"id":"26196","name":"Ittagalpura Cross","lat":13.17461,"lon":77.54267,"sequence":8},{"id":"32199","name":"Cable Factory Ittagallapura","lat":13.174,"lon":77.54049,"sequence":9},{"id":"39517","name":"Presidency University","lat":13.17207,"lon":77.53577,"sequence":10}]}]}