{"short_name":"SBS-HSC","long_name":"Hasanath College ⇔ Shivajinagara Bus Station","directions":[{"direction":"UP","headsign":"Hasanath College","path":[[12.98391,77.60327],[12.9842,77.60327],[12.98425,77.6031],[12.98436,77.60263],[12.9845,77.60196],[12.98456,77.60178],[12.98454,77.60175],[12.98453,77.60168],[12.98454,77.60165],[12.98457,77.60163],[12.98455,77.60121],[12.98451,77.60091],[12.98398,77.59808],[12.98397,77.59787],[12.98398,77.59778],[12.98403,77.59764],[12.98388,77.59737],[12.98381,77.59727],[12.98368,77.59712],[12.98261,77.59714],[12.98165,77.5971],[12.98135,77.59714],[12.98123,77.59718],[12.98099,77.5973],[12.98099,77.59742],[12.98082,77.59792],[12.98064,77.59839],[12.97985,77.60081],[12.97914,77.603],[12.97903,77.60338],[12.97793,77.60671],[12.97764,77.60769],[12.97741,77.60839],[12.97718,77.60901],[12.97639,77.61134],[12.97621,77.61192],[12.97592,77.61278],[12.97573,77.6134],[12.97549,77.61414],[12.9754,77.61438],[12.97555,77.61441],[12.97635,77.6147],[12.9774,77.61502],[12.97833,77.61525],[12.97876,77.61537],[12.97882,77.61537],[12.97893,77.61534],[12.97901,77.61528],[12.97907,77.61519],[12.97912,77.61514]],"stops":[{"id":"21172","name":"Shivajinagara Bus Station","lat":12.98396,"lon":77.60323,"sequence":1},{"id":"20857","name":"Indian Express","lat":12.98393,"lon":77.5974,"sequence":2},{"id":"22253","name":"Maniksha Parade Ground","lat":12.97773,"lon":77.60747,"sequence":3},{"id":"22256","name":"Manipal Centre MG Road","lat":12.97571,"lon":77.61358,"sequence":4},{"id":"25797","name":"Hasanath College","lat":12.97917,"lon":77.61518,"sequence":5}]},{"direction":"DOWN","headsign":"Shivajinagara Bus Station","path":[[12.97912,77.61514],[12.97939,77.61451],[12.97951,77.61426],[12.97991,77.61321],[12.98016,77.61249],[12.98053,77.6115],[12.9807,77.61101],[12.98069,77.61092],[12.981,77.61008],[12.9808,77.61003],[12.98076,77.61004],[12.98061,77.60999],[12.979955,77.609764],[12.97864,77.60933],[12.9782,77.60916],[12.97713,77.60879],[12.9778,77.60666],[12.97839,77.60492],[12.9789,77.60333],[12.97916,77.60257],[12.97922,77.6024],[12.97931,77.60247],[12.97957,77.60254],[12.98015,77.60271],[12.98192,77.60331],[12.9822,77.60342],[12.98235,77.60339],[12.98271,77.60326],[12.98278,77.60324],[12.98281,77.60325],[12.98295,77.60297],[12.98328,77.60304]],"stops":[{"id":"25797","name":"Hasanath College","lat":12.97917,"lon":77.61518,"sequence":1},{"id":"35086","name":"Commercial Street","lat":12.97994,"lon":77.60981,"sequence":2},{"id":"22252","name":"Maniksha Parade Ground","lat":12.97746,"lon":77.60771,"sequence":3},{"id":"21173","name":"Shivajinagara Bus Station","lat":12.98328,"lon":77.60304,"sequence":4}]}]}