{"short_name":"SBS-SJHSTMS","long_name":"Shivajinagara Bus Station ⇔ St Johns School Thamos Cafe","directions":[{"direction":"UP","headsign":"St Johns School Thamos Cafe","path":[[12.98397,77.60328],[12.98416,77.60328],[12.9841,77.60345],[12.98397,77.60359],[12.98407,77.60378],[12.9841,77.60399],[12.98409,77.60497],[12.98406,77.60531],[12.98374,77.6066],[12.98355,77.6065],[12.98309,77.6079],[12.98292,77.60848],[12.98219,77.60838],[12.98162,77.60825],[12.98153,77.60855],[12.98115,77.60954],[12.98096,77.61009],[12.98218,77.61053],[12.9823,77.61056],[12.98301,77.6107],[12.98323,77.61078],[12.98352,77.61094],[12.98365,77.61104],[12.98385,77.61128],[12.98425,77.61169],[12.9843,77.61173],[12.98437,77.61177],[12.98448,77.61181],[12.98465,77.61183],[12.98527,77.61183],[12.98558,77.61185],[12.98579,77.6119],[12.98597,77.61196],[12.98635,77.61213],[12.98709,77.61254],[12.98734,77.61267],[12.98794,77.61281],[12.98923,77.61325],[12.98944,77.61336],[12.98969,77.61347],[12.99026,77.61376],[12.99042,77.61381],[12.99058,77.61388],[12.99108,77.61298],[12.9912,77.61275],[12.99129,77.61248],[12.9914,77.61207],[12.9915,77.61162],[12.99157,77.61141],[12.99163,77.61144],[12.991599,77.611534]],"stops":[{"id":"21172","name":"Shivajinagara Bus Station","lat":12.98396,"lon":77.60323,"sequence":1},{"id":"35212","name":"Commercial Street","lat":12.98163,"lon":77.60822,"sequence":2},{"id":"23750","name":"Kamaraja Road","lat":12.98424,"lon":77.61165,"sequence":3},{"id":"31474","name":"Thomas Cafe","lat":12.99065,"lon":77.61371,"sequence":4},{"id":"26692","name":"St Johns School Thamos Cafe","lat":12.99165,"lon":77.61155,"sequence":5}]}]}