{"short_name":"YHKOT-GKVK","long_name":"GKVK ⇔ Yelahanka Old Town","directions":[{"direction":"UP","headsign":"GKVK","path":[[13.100897,77.594345],[13.10079,77.59446],[13.10057,77.59501],[13.10037,77.59566],[13.10031,77.59581],[13.10016,77.59607],[13.09979,77.5965],[13.09908,77.59737],[13.098518,77.596985],[13.09716,77.596],[13.09595,77.59505],[13.09549,77.5947],[13.09533,77.59456],[13.09521,77.59441],[13.09479,77.59442],[13.09416,77.59438],[13.09368,77.59434],[13.09223,77.59425],[13.09205,77.59423],[13.09149,77.59419],[13.08922,77.59407],[13.08759,77.59394],[13.08657,77.59382],[13.08499,77.59366],[13.08439,77.59363],[13.08396,77.59355],[13.08257,77.59309],[13.08226,77.59304],[13.08213,77.59307],[13.08202,77.59312],[13.08194,77.59319],[13.08183,77.59346],[13.08138,77.59339],[13.0806,77.5933],[13.0759,77.59294],[13.07413,77.59286],[13.0732,77.59289],[13.07223,77.59297],[13.06923,77.59317],[13.06758,77.59324],[13.0672,77.59328],[13.06719,77.59288],[13.06869,77.59273],[13.06946,77.59267],[13.07069,77.59259],[13.07253,77.59255],[13.07327,77.59244],[13.07429,77.59243],[13.07473,77.59243],[13.07511,77.59245],[13.07655,77.59258],[13.07717,77.59262],[13.07785,77.58904],[13.0782,77.58729],[13.07847,77.58578],[13.07884,77.58399],[13.07885,77.58388],[13.07896,77.58338],[13.07818,77.58317],[13.07826,77.58287],[13.07714,77.58255],[13.0777,77.58155],[13.07753,77.58082],[13.07766,77.58047],[13.077901,77.580055]],"stops":[{"id":"22640","name":"Yelahanka Old Town","lat":13.10091,"lon":77.59436,"sequence":1},{"id":"22645","name":"Yelahanka Santhe Circle","lat":13.09852,"lon":77.59698,"sequence":2},{"id":"22845","name":"Yelahanka Police Station","lat":13.09478,"lon":77.59442,"sequence":3},{"id":"35608","name":"Allalasandra Gate","lat":13.08686,"lon":77.59386,"sequence":4},{"id":"35376","name":"Jakkur Aerodrum","lat":13.07701,"lon":77.59301,"sequence":5},{"id":"35685","name":"GKVK GATE","lat":13.07276,"lon":77.59292,"sequence":6},{"id":"25427","name":"GKVK","lat":13.07792,"lon":77.58007,"sequence":7}]},{"direction":"DOWN","headsign":"Yelahanka Old Town","path":[[13.077901,77.580055],[13.07766,77.58047],[13.07753,77.58082],[13.0777,77.58155],[13.07636,77.58154],[13.07629,77.5817],[13.07531,77.58114],[13.07525,77.58136],[13.07517,77.58211],[13.07506,77.58219],[13.07293,77.58222],[13.07277,77.58219],[13.07188,77.58176],[13.0718,77.58189],[13.07171,77.58196],[13.07167,77.58196],[13.07171,77.58202],[13.07171,77.58209],[13.07162,77.58238],[13.0712,77.58365],[13.07082,77.58486],[13.07031,77.58627],[13.07058,77.58663],[13.07062,77.58673],[13.07063,77.58681],[13.07061,77.58687],[13.07056,77.58693],[13.07045,77.58716],[13.0706,77.5874],[13.07072,77.58753],[13.07136,77.5881],[13.07215,77.58859],[13.07245,77.58876],[13.0726,77.58889],[13.07271,77.58907],[13.07274,77.58917],[13.07281,77.58951],[13.07277,77.58979],[13.07206,77.59245],[13.0733,77.59242],[13.07348,77.59241],[13.07446,77.59238],[13.07522,77.59241],[13.07632,77.5925],[13.0775,77.59263],[13.07871,77.59279],[13.08045,77.59295],[13.0814,77.59302],[13.08192,77.5931],[13.08202,77.59313],[13.08232,77.59315],[13.0826,77.59319],[13.08291,77.59327],[13.08411,77.59371],[13.08577,77.59438],[13.08647,77.59468],[13.08704,77.59496],[13.08829,77.59552],[13.08921,77.59589],[13.08976,77.59612],[13.09028,77.59629],[13.091,77.59648],[13.09137,77.59656],[13.09314,77.59684],[13.09511,77.59746],[13.09562,77.59767],[13.09659,77.59809],[13.09795,77.59859],[13.09809,77.59865],[13.09823,77.59843],[13.09908,77.59726],[13.09984,77.59639],[13.10017,77.59593],[13.1003,77.59564],[13.100643,77.594536]],"stops":[{"id":"25427","name":"GKVK","lat":13.07792,"lon":77.58007,"sequence":1},{"id":"25432","name":"GKVK GATE","lat":13.07254,"lon":77.59245,"sequence":2},{"id":"39009","name":"Allalasandra Gate","lat":13.08448,"lon":77.59386,"sequence":3},{"id":"27854","name":"Raitarasanthe Yelahanka","lat":13.09807,"lon":77.59866,"sequence":4},{"id":"22644","name":"Yelahanka Santhe Circle","lat":13.0992,"lon":77.59712,"sequence":5},{"id":"22641","name":"Yelahanka Old Town","lat":13.10063,"lon":77.59453,"sequence":6}]}]}